# LAS format data
~Version Information
VERS.     2.00: CWLS LOG ASCII STANDARD - VERSION 2.0
WRAP.       NO: ONE LINE PER DEPTH STEP
~Well Information
#MNEM   .UNITS    DATA                           DESCRIPTION
#----   ------    ----                           -----------
STRT    .M        81.0000                       :First Index Value
STOP    .M        4879.7006                     :Last Index Value
STEP    .M        0.0000                        :Frame Spacing
NULL    .         -999.2500                     :Absent Value
WELL    .         L05-B-01                      :Well Name   
FLD     .         FINDER_composites_22-02-2005  :Field Name  
CNTY    .                                       :County
STAT    .                                       :State
CTRY    .                                       :Country
LOC     .                                       :Location
API     .                                       :API Number
DATE    .                                       :Date
COMP    .         WIN                           :Company Name
SRVC    .                                       :Service Company
~Parameter Information
#MNEM   .UNITS    VALUE                          DESCRIPTION
#----   ------    -----                          -----------
TDD     .M        4906.00000                    :Total Depth (Driller)   
UBID    .         8552                          :Unique Borehole Id  
PDAT    .         Mean Sea Level                :Permanent Datum 
EPD     .M           0.00000                    :Elevation of Permanent Datum (PDAT) above Mean Sea Level
LMF     .                                       :Logging Measured From (Name of Logging Elevation Reference) 
APD     .M          40.00000                    :Elevation of Depth Reference (LMF) Above Permanent Datum
EKB     .M          40.00000                    :Elevation of Kelly Bushing Above Mean Sea Level 
~Other Information
composite_curve_qc 
~Curve Information
#MNEM   .UNITS    API CODE                       CURVE DESCRIPTION
#----   ------    --------                       -----------------
DEPT    .M                                      :1     Index curve
GR      .GAPI                                   :2     SNAM  
DT      .US/F                                   :3     SNAM  
RHOB    .G/C3                                   :4     SNAM  
DRHO    .G/C3                                   :5     SNAM  
NPHI    .V/V                                    :6     SNAM  
~Ascii Log Data
# ...
    4717.8004     81.336960     67.785782      2.378371      0.045556      0.143897
    4717.9004     80.759430     66.208984      2.416882      0.055216      0.145000
    4718.0004     78.276352     64.790131      2.470609      0.072366      0.148430
    4718.1004     73.030991     64.732162      2.524623      0.093727      0.147821
    4718.2004     66.033798     65.073959      2.565255      0.110846      0.145680
    4718.3004     58.840172     65.304810      2.593913      0.122155      0.144160
    4718.4004     53.936844     65.539597      2.610057      0.125624      0.144539
    4718.5004     51.691864     65.509964      2.621658      0.122515      0.144825
    4718.6004     51.482376     65.168091      2.632577      0.114945      0.143458
    4718.7004     54.679970     64.388702      2.640741      0.101326      0.136497
    4718.8004     60.439705     63.728149      2.647077      0.084420      0.133716
    4718.9004     67.277832     63.255035      2.653233      0.066586      0.136863
    4719.0004     71.549866     62.128021      2.664943      0.050691      0.138277
    4719.1004     71.357712     61.879417      2.676542      0.036353      0.137211
    4719.2004     66.950989     62.852646      2.684788      0.023280      0.134761
    4719.3004     57.222816     62.968246      2.678448      0.015669      0.134360
    4719.4004     47.118881     63.364349      2.661517      0.012456      0.135252
    4719.5004     38.742569     64.647430      2.637666      0.012512      0.136697
    4719.6004     34.432884     65.324417      2.618637      0.012867      0.138661
    4719.7004     32.316452     65.288239      2.609657      0.013529      0.141329
    4719.8004     31.636974     64.630905      2.612542      0.014822      0.144709
    4719.9004     32.059280     64.615646      2.629063      0.019182      0.143276
    4720.0004     32.254654     65.369720      2.647698      0.021745      0.139697
    4720.1004     31.532024     66.825653      2.661973      0.019219      0.136147
    4720.2004     30.340256     68.885818      2.664725      0.010446      0.137887
    4720.3004     29.087982     70.630875      2.661221      0.001290      0.140037
    4720.4004     27.934364     71.347855      2.655217     -0.004008      0.138158
    4720.5004     27.753777     71.231659      2.644401     -0.006179      0.141574
    4720.6004     28.229790     70.825729      2.629620     -0.007655      0.147041
    4720.7004     29.062538     70.385010      2.610065     -0.010031      0.149382
    4720.8004     29.890629     70.266464      2.589288     -0.012426      0.149368
    4720.9004     30.436943     70.331436      2.569232     -0.014164      0.148527
    4721.0004     30.405708     70.344833      2.549664     -0.014781      0.147174
    4721.1004     30.334137     70.460526      2.533445     -0.014279      0.146603
    4721.2004     30.252228     70.737259      2.520463     -0.013345      0.146333
    4721.3004     29.689117     71.237061      2.510462     -0.012644      0.144762
    4721.4004     29.315662     71.459366      2.501265     -0.013007      0.141906
    4721.5004     29.282806     71.501038      2.492681     -0.014190      0.140140
    4721.6004     29.279503     72.025604      2.487267     -0.015592      0.144990
    4721.7004     29.393597     72.322067      2.483184     -0.016720      0.145582
    4721.8004     29.614956     72.148926      2.476398     -0.017842      0.139185
    4721.9004     29.684639     71.947983      2.457465     -0.020238      0.133587
    4722.0004     29.427933     71.414566      2.429935     -0.023727      0.133564
    4722.1004     28.987553     70.498718      2.402415     -0.027196      0.137293
    4722.2004     28.924049     69.914993      2.391433     -0.027796      0.137063
    4722.3004     29.319889     70.126373      2.401438     -0.025273      0.130709
    4722.4004     30.124363     70.870422      2.425049     -0.021197      0.121681
    4722.5004     32.057938     71.023132      2.451984     -0.017643      0.119027
    4722.6004     34.548210     70.934402      2.473158     -0.015012      0.122834
    4722.7004     36.878044     71.366180      2.486572     -0.012154      0.128882
    4722.8004     39.102211     72.087479      2.490847     -0.006228      0.137231
    4722.9004     40.376122     72.644913      2.489470      0.003074      0.144278
    4723.0004     40.018082     72.726990      2.487065      0.014514      0.147241
    4723.1004     39.091972     72.219788      2.489464      0.028893      0.149559
    4723.2004     37.927849     71.437286      2.499452      0.046265      0.151927
    4723.3004     36.083809     70.832474      2.514752      0.064867      0.152222
    4723.4004     34.253548     70.633011      2.530053      0.079912      0.151097
    4723.5004     32.863579     70.751572      2.540104      0.088419      0.147896
    4723.6004     31.770805     70.912842      2.544038      0.091145      0.140833
    4723.7004     31.175785     71.167465      2.544850      0.090406      0.131221
    4723.8004     31.097500     71.562210      2.546121      0.089189      0.123569
    4723.9004     31.267975     72.071259      2.547953      0.087910      0.121497
    4724.0004     31.387192     72.655548      2.549846      0.086653      0.122574
    4724.1004     31.297874     73.179169      2.551749      0.085881      0.122590
    4724.2004     31.434551     73.440201      2.554512      0.086324      0.120730
    4724.3004     32.803680     73.219299      2.557737      0.087669      0.117201
    4724.4004     36.228958     72.536575      2.560401      0.088818      0.113217
    4724.5004     41.674393     71.619339      2.562118      0.089240      0.109473
    4724.6004     48.144775     70.575089      2.562407      0.088963      0.106805
    4724.7004     53.710922     69.368042      2.561086      0.088356      0.105622
    4724.8004     57.439873     67.835129      2.558206      0.087300      0.105743
    4724.9004     58.899940     66.443817      2.554937      0.085744      0.107551
    4725.0004     58.770393     65.669922      2.553359      0.084086      0.110645
    4725.1004     57.695541     65.023209      2.554291      0.082843      0.113713
    4725.2004     56.237190     64.531738      2.557203      0.081901      0.116233
    4725.3004     54.697479     64.512482      2.559729      0.080732      0.119202
    4725.4004     52.751816     64.894867      2.560215      0.079555      0.125119
    4725.5004     50.998505     65.399887      2.558846      0.079212      0.135137
    4725.6004     50.471642     65.750244      2.557773      0.080315      0.147205
    4725.7004     51.281059     66.105148      2.557542      0.082295      0.157938
    4725.8004     52.516685     66.468414      2.557654      0.084040      0.164636
    4725.9004     52.893623     66.774811      2.557287      0.085013      0.166723
    4726.0004     52.340378     67.257553      2.557795      0.086100      0.159397
    4726.1004     50.831734     68.117630      2.559336      0.087537      0.143446
    4726.2004     48.667213     69.198456      2.560772      0.088664      0.125723
    4726.3004     47.017944     69.686890      2.561985      0.088972      0.112188
    4726.4004     46.350174     69.270050      2.562661      0.088338      0.105796
    4726.5004     46.231239     68.446793      2.562190      0.086947      0.104683
    4726.6004     47.382584     67.801758      2.559339      0.084505      0.107793
    4726.7004     50.598663     67.612640      2.554649      0.081312      0.111330
    4726.8004     56.714027     67.749542      2.549851      0.078026      0.112777
    4726.9004     68.315598     68.466049      2.545546      0.074865      0.116247
    4727.0004     83.877884     69.484406      2.541906      0.071992      0.121055
    4727.1004     99.518143     70.251450      2.538940      0.069611      0.122475
    4727.2004    113.417694     70.708878      2.536263      0.067557      0.128072
    4727.3004    124.143875     70.914764      2.533722      0.065366      0.140180
