# LAS format data
~Version Information
VERS.     2.00: CWLS LOG ASCII STANDARD - VERSION 2.0
WRAP.       NO: ONE LINE PER DEPTH STEP
~Well Information
#MNEM   .UNITS    DATA                           DESCRIPTION
#----   ------    ----                           -----------
STRT    .M        81.0000                       :First Index Value
STOP    .M        4879.7006                     :Last Index Value
STEP    .M        0.0000                        :Frame Spacing
NULL    .         -999.2500                     :Absent Value
WELL    .         L05-B-01                      :Well Name   
FLD     .         FINDER_composites_22-02-2005  :Field Name  
CNTY    .                                       :County
STAT    .                                       :State
CTRY    .                                       :Country
LOC     .                                       :Location
API     .                                       :API Number
DATE    .                                       :Date
COMP    .         WIN                           :Company Name
SRVC    .                                       :Service Company
~Parameter Information
#MNEM   .UNITS    VALUE                          DESCRIPTION
#----   ------    -----                          -----------
TDD     .M        4906.00000                    :Total Depth (Driller)   
UBID    .         8552                          :Unique Borehole Id  
PDAT    .         Mean Sea Level                :Permanent Datum 
EPD     .M           0.00000                    :Elevation of Permanent Datum (PDAT) above Mean Sea Level
LMF     .                                       :Logging Measured From (Name of Logging Elevation Reference) 
APD     .M          40.00000                    :Elevation of Depth Reference (LMF) Above Permanent Datum
EKB     .M          40.00000                    :Elevation of Kelly Bushing Above Mean Sea Level 
~Other Information
composite_curve_qc 
~Curve Information
#MNEM   .UNITS    API CODE                       CURVE DESCRIPTION
#----   ------    --------                       -----------------
DEPT    .M                                      :1     Index curve
GR      .GAPI                                   :2     SNAM  
DT      .US/F                                   :3     SNAM  
RHOB    .G/C3                                   :4     SNAM  
DRHO    .G/C3                                   :5     SNAM  
NPHI    .V/V                                    :6     SNAM  
~Ascii Log Data
# ...
    4554.6002    119.057144     78.107224   -999.250000   -999.250000      0.317741
    4554.7002    120.578506     78.470016   -999.250000   -999.250000      0.307015
    4554.8002    120.851776     79.162231   -999.250000   -999.250000      0.295105
    4554.9002    122.149353     79.745560   -999.250000   -999.250000      0.290807
    4555.0002    122.700607     80.085129   -999.250000   -999.250000      0.294603
    4555.1002    122.774078     80.309937   -999.250000   -999.250000      0.306166
    4555.2002    124.262741     80.677475   -999.250000   -999.250000      0.323938
    4555.3002    125.449341     81.067413   -999.250000   -999.250000      0.337358
    4555.4002    126.115677     81.043381   -999.250000   -999.250000      0.341044
    4555.5002    128.050903     80.235077   -999.250000   -999.250000      0.339520
    4555.6002    129.176971     79.081314   -999.250000   -999.250000      0.329516
    4555.7002    127.819397     78.208725   -999.250000   -999.250000      0.310115
    4555.8002    125.037415     77.783752   -999.250000   -999.250000      0.287660
    4555.9002    120.725861     77.927124   -999.250000   -999.250000      0.273315
    4556.0002    115.681915     78.339249   -999.250000   -999.250000      0.275405
    4556.1002    111.853256     78.476837   -999.250000   -999.250000      0.288798
    4556.2002    110.308716     78.328796   -999.250000   -999.250000      0.304461
    4556.3002    110.959351     78.168900   -999.250000   -999.250000      0.312667
    4556.4002    113.002777     78.083252   -999.250000   -999.250000      0.316949
    4556.5002    115.576172     78.062485   -999.250000   -999.250000      0.325727
    4556.6002    117.685638     78.030548   -999.250000   -999.250000      0.339775
    4556.7002    119.456039     77.995148   -999.250000   -999.250000      0.342763
    4556.8002    121.534653     78.076477   -999.250000   -999.250000      0.333925
    4556.9002    123.996704     78.272644   -999.250000   -999.250000      0.328512
    4557.0002    125.162018     78.033005   -999.250000   -999.250000      0.334457
    4557.1002    124.655487     76.498337   -999.250000   -999.250000      0.341958
    4557.2002    123.145065     74.213043   -999.250000   -999.250000      0.334534
    4557.3002    119.768173     74.000137   -999.250000   -999.250000      0.316693
    4557.4002    115.646515     75.115860   -999.250000   -999.250000      0.293901
    4557.5002    112.566299     74.611694   -999.250000   -999.250000      0.269881
    4557.6002    109.376678     73.515625   -999.250000   -999.250000      0.245451
    4557.7002    106.004028     72.618057   -999.250000   -999.250000      0.224508
    4557.8002    103.260986     71.964218   -999.250000   -999.250000      0.209575
    4557.9002    100.890762     71.733124   -999.250000   -999.250000      0.197977
    4558.0002     98.288651     71.923050   -999.250000   -999.250000      0.189581
    4558.1002     95.031952     72.487244   -999.250000   -999.250000      0.187355
    4558.2002     91.865723     73.915176   -999.250000   -999.250000      0.196381
    4558.3002     90.595520     75.999313   -999.250000   -999.250000      0.217157
    4558.4002     92.839233     78.035446   -999.250000   -999.250000      0.246545
    4558.5002     99.259598     79.062210   -999.250000   -999.250000      0.277697
    4558.6002    107.777969     79.030228   -999.250000   -999.250000      0.302722
    4558.7002    115.954315     78.433960   -999.250000   -999.250000      0.316548
    4558.8002    121.557602     77.544510   -999.250000   -999.250000      0.317486
    4558.9002    124.508804     76.765320   -999.250000   -999.250000      0.314402
    4559.0002    125.204346     76.443115   -999.250000   -999.250000      0.316628
    4559.1002    123.980728     76.311951   -999.250000   -999.250000      0.318840
    4559.2002    122.017090     76.017197   -999.250000   -999.250000      0.315437
    4559.3002    120.298340     75.327591   -999.250000   -999.250000      0.302828
    4559.4002    118.357422     74.086472   -999.250000   -999.250000      0.278300
    4559.5002    115.588867     72.551483   -999.250000   -999.250000      0.247001
    4559.6002    111.043106     71.129410   -999.250000   -999.250000      0.216557
    4559.7002    103.758224     69.408752   -999.250000   -999.250000      0.199886
    4559.8002     95.131683     67.744202   -999.250000   -999.250000      0.198609
    4559.9002     88.979233     68.259857   -999.250000   -999.250000      0.214792
    4560.0002     86.579422     69.144653   -999.250000   -999.250000      0.233241
    4560.1002     87.105057     69.391342   -999.250000   -999.250000      0.245370
    4560.2002     90.589020     69.396255   -999.250000   -999.250000      0.242193
    4560.3002     95.716263     69.606537   -999.250000   -999.250000      0.236813
    4560.4002    101.314255     70.052429   -999.250000   -999.250000      0.235935
    4560.5002    104.480560     70.149750   -999.250000   -999.250000      0.239180
    4560.6002    104.977264     70.127625   -999.250000   -999.250000      0.244616
    4560.7002    103.464081     70.160706   -999.250000   -999.250000      0.251132
    4560.8002    102.287460     70.148010   -999.250000   -999.250000      0.252909
    4560.9002    101.626694     70.181274   -999.250000   -999.250000      0.253719
    4561.0002    101.212631     70.316666   -999.250000   -999.250000      0.256005
    4561.1002    102.166245     70.307541   -999.250000   -999.250000      0.261451
    4561.2002    102.898682     70.212906   -999.250000   -999.250000      0.266376
    4561.3002    102.445618     70.086624   -999.250000   -999.250000      0.268829
    4561.4002    101.813980     70.057678   -999.250000   -999.250000      0.274023
    4561.5002    100.857559     70.025620   -999.250000   -999.250000      0.277375
    4561.6002     99.135880     69.901001   -999.250000   -999.250000      0.274598
    4561.7002     97.159607     69.784348   -999.250000   -999.250000      0.270210
    4561.8002     95.976089     69.712189   -999.250000   -999.250000      0.268515
    4561.9002     96.731506     69.705521   -999.250000   -999.250000      0.272896
    4562.0002     99.900314     69.701599   -999.250000   -999.250000      0.268080
    4562.1002    103.657013     69.785812   -999.250000   -999.250000      0.258767
    4562.2002    106.121948     70.136032   -999.250000   -999.250000      0.254248
    4562.3002    108.714661     70.862335   -999.250000   -999.250000      0.254209
    4562.4002    109.931290     71.838196   -999.250000   -999.250000      0.256093
    4562.5002    104.995346     72.978271   -999.250000   -999.250000      0.258993
    4562.6002    101.211243     73.599304   -999.250000   -999.250000      0.268592
    4562.7002     99.372009     73.653961   -999.250000   -999.250000      0.283858
    4562.8002     95.665298     73.018524   -999.250000   -999.250000      0.301719
    4562.9002     94.020508     71.670303   -999.250000   -999.250000      0.312154
    4563.0002     94.854523     69.935684   -999.250000   -999.250000      0.312185
    4563.1002     94.074768     68.478363   -999.250000   -999.250000      0.294827
    4563.2002     93.308151     67.384720   -999.250000   -999.250000      0.272923
    4563.3002     93.784012     66.580505   -999.250000   -999.250000      0.253324
    4563.4002     96.012344     66.580124   -999.250000   -999.250000      0.236111
    4563.5002     98.002106     67.353424   -999.250000   -999.250000      0.223130
    4563.6002     98.746750     68.607620   -999.250000   -999.250000      0.214558
    4563.7002     97.616730     69.876816   -999.250000   -999.250000      0.211088
    4563.8002     96.166733     70.939423   -999.250000   -999.250000      0.212759
    4563.9002     95.603149     71.753983   -999.250000   -999.250000      0.219551
    4564.0002     96.245285     71.812378   -999.250000   -999.250000      0.240877
    4564.1002     97.577194     71.323486   -999.250000   -999.250000      0.264430
