# LAS format data
~Version Information
VERS.     2.00: CWLS LOG ASCII STANDARD - VERSION 2.0
WRAP.       NO: ONE LINE PER DEPTH STEP
~Well Information
#MNEM   .UNITS    DATA                           DESCRIPTION
#----   ------    ----                           -----------
STRT    .M        63.1000                       :First Index Value
STOP    .M        4298.0000                     :Last Index Value
STEP    .M        0.0000                        :Frame Spacing
NULL    .         -999.2500                     :Absent Value
WELL    .         L05-07                        :Well Name   
FLD     .         FINDER_composites_22-02-2005  :Field Name  
CNTY    .                                       :County
STAT    .                                       :State
CTRY    .                                       :Country
LOC     .                                       :Location
API     .                                       :API Number
DATE    .                                       :Date
COMP    .         MOB                           :Company Name
SRVC    .                                       :Service Company
~Parameter Information
#MNEM   .UNITS    VALUE                          DESCRIPTION
#----   ------    -----                          -----------
TDD     .M        4287.00000                    :Total Depth (Driller)   
UBID    .         8132                          :Unique Borehole Id  
PDAT    .         Mean Sea Level                :Permanent Datum 
EPD     .M           0.00000                    :Elevation of Permanent Datum (PDAT) above Mean Sea Level
LMF     .         Rotary Table                  :Logging Measured From (Name of Logging Elevation Reference) 
APD     .M          36.80000                    :Elevation of Depth Reference (LMF) Above Permanent Datum
EGL     .M         -37.20000                    :Elevation of Ground Level Above Mean Sea Level  
~Curve Information
#MNEM   .UNITS    API CODE                       CURVE DESCRIPTION
#----   ------    --------                       -----------------
DEPT    .M                                      :1     Index curve
GR      .GAPI                                   :2     L05-07
DT      .US/F                                   :3     L05-07
RHOB    .G/C3                                   :4     L05-07
DRHO    .G/C3                                   :5     L05-07
NPHI    .V/V                                    :6     L05-07
~Ascii Log Data
# ...
    3432.7002    106.390091     86.060806      2.615993      0.016088   -999.250000
    3432.8002    105.453247     86.071945      2.618436      0.010408   -999.250000
    3432.9002    105.128784     85.897232      2.619791      0.004646   -999.250000
    3433.0002    105.008759     85.715149      2.620284      0.000463   -999.250000
    3433.1002    104.176804     85.404327      2.620288     -0.001712   -999.250000
    3433.2002    102.501236     84.353470      2.620286     -0.002665   -999.250000
    3433.3002    100.451096     82.474075      2.622135     -0.002787   -999.250000
    3433.4002     98.274551     80.624176      2.628403     -0.001973   -999.250000
    3433.5002     95.859756     79.567429      2.639214     -0.000391   -999.250000
    3433.6002     93.990997     78.942215      2.648809      0.001140   -999.250000
    3433.7002     92.792801     78.208008      2.653058      0.001977   -999.250000
    3433.8002     91.011063     77.668945      2.654652      0.002464   -999.250000
    3433.9002     89.816025     77.942169      2.652337      0.003254   -999.250000
    3434.0002     90.947357     78.927704      2.645112      0.004597   -999.250000
    3434.1002     94.213318     79.768585      2.636742      0.006235   -999.250000
    3434.2002     98.547653     80.094193      2.627024      0.006604   -999.250000
    3434.3002    102.705933     80.295181      2.614896      0.005184   -999.250000
    3434.4002    105.129410     80.951172      2.605468      0.003867   -999.250000
    3434.5002    105.042953     81.884460      2.604256      0.004223   -999.250000
    3434.6002    103.349686     82.521896      2.610274      0.005626   -999.250000
    3434.7002    101.908218     82.538315      2.616640      0.005000   -999.250000
    3434.8002    102.154510     82.221954      2.619683      0.002458   -999.250000
    3434.9002    104.078186     82.076675      2.620699      0.000479   -999.250000
    3435.0002    107.070679     82.383286      2.620474      0.000797   -999.250000
    3435.1002    109.584641     83.403976      2.619365      0.002442   -999.250000
    3435.2002    110.827530     85.334045      2.617371      0.003347   -999.250000
    3435.3002    111.648148     86.754852      2.618557      0.002321   -999.250000
    3435.4002    111.591110     86.978088      2.621613      0.000802   -999.250000
    3435.5002    109.261703     86.528320      2.622040      0.000928   -999.250000
    3435.6002    107.967499     86.104965      2.627337      0.001463   -999.250000
    3435.7002    108.046692     86.067184      2.635329      0.001181   -999.250000
    3435.8002    106.739777     86.171051      2.636891      0.000143   -999.250000
    3435.9002    104.616364     86.053467      2.637076     -0.001178   -999.250000
    3436.0002    102.437271     85.540955      2.638777     -0.002168   -999.250000
    3436.1002    100.349365     84.628036      2.638709     -0.002408   -999.250000
    3436.2002     98.415848     82.790726      2.639275     -0.002407   -999.250000
    3436.3002     96.709991     80.254578      2.641837     -0.002443   -999.250000
    3436.4002     95.753555     78.078064      2.644384     -0.002177   -999.250000
    3436.5002     95.874176     76.366943      2.645229     -0.002083   -999.250000
    3436.6002     96.205231     75.025436      2.644145     -0.002305   -999.250000
    3436.7002     95.401291     74.672195      2.641977     -0.002303   -999.250000
    3436.8002     94.117645     75.691772      2.640915     -0.002229   -999.250000
    3436.9002     92.678818     77.374374      2.642030     -0.002547   -999.250000
    3437.0002     89.799118     78.123795      2.644809     -0.003301   -999.250000
    3437.1002     86.425674     77.364426      2.651248     -0.003681   -999.250000
    3437.2002     84.086044     75.469315      2.661613     -0.003387   -999.250000
    3437.3002     82.619263     72.865768      2.672362     -0.003328   -999.250000
    3437.4002     81.868683     69.801193      2.681021     -0.003697   -999.250000
    3437.5002     81.621704     66.999954      2.686500     -0.004143   -999.250000
    3437.6002     80.943588     65.663910      2.687809     -0.004455   -999.250000
    3437.7002     79.449188     65.708984      2.685141     -0.004051   -999.250000
    3437.8002     77.970734     66.254211      2.678881     -0.002847   -999.250000
    3437.9002     77.635529     66.785156      2.668942     -0.001936   -999.250000
    3438.0002     78.006714     67.081833      2.658143     -0.002041   -999.250000
    3438.1002     77.906250     66.766129      2.651891     -0.002703   -999.250000
    3438.2002     77.264053     65.485275      2.654260     -0.002802   -999.250000
    3438.3002     76.350403     64.040833      2.664937     -0.001409   -999.250000
    3438.4002     76.048370     63.812294      2.678799      0.001192   -999.250000
    3438.5002     78.224365     65.232056      2.689107      0.003383   -999.250000
    3438.6002     83.420792     67.993011      2.689692      0.003728   -999.250000
    3438.7002     90.413620     71.675964      2.680224      0.002595   -999.250000
    3438.8002     97.688446     75.793900      2.666076      0.001543   -999.250000
    3438.9002    103.822113     79.591644      2.651894      0.001336   -999.250000
    3439.0002    108.079636     82.436966      2.638588      0.001459   -999.250000
    3439.1002    110.188080     83.916626      2.627958      0.001460   -999.250000
    3439.2002    110.140182     84.141129      2.620975      0.001159   -999.250000
    3439.3002    108.050735     83.455124      2.616863      0.000513   -999.250000
    3439.4002    104.273346     81.953720      2.616501     -0.000151   -999.250000
    3439.5002     99.058838     79.574249      2.621509     -0.000393   -999.250000
    3439.6002     93.126801     76.654022      2.631757     -0.000091   -999.250000
    3439.7002     88.299240     74.116394      2.644439      0.000381   -999.250000
    3439.8002     86.175430     72.768921      2.655228      0.000249   -999.250000
    3439.9002     87.206802     72.717285      2.659862     -0.001077   -999.250000
    3440.0002     90.833862     73.455811      2.656900     -0.003334   -999.250000
    3440.1002     95.781235     74.724731      2.648137     -0.005623   -999.250000
    3440.2002    100.417313     76.621613      2.637296     -0.007034   -999.250000
    3440.3002    103.719116     78.849792      2.628116     -0.007187   -999.250000
    3440.4002    105.420197     80.608780      2.622296     -0.006554   -999.250000
    3440.5002    105.604828     81.395569      2.619297     -0.005915   -999.250000
    3440.6002    104.631271     81.424789      2.618207     -0.005476   -999.250000
    3440.7002    102.909332     81.207779      2.618419     -0.005141   -999.250000
    3440.8002    100.768265     80.873840      2.618899     -0.005136   -999.250000
    3440.9002     98.716599     80.116928      2.618740     -0.005563   -999.250000
    3441.0002     97.024399     78.788925      2.618694     -0.006042   -999.250000
    3441.1002     95.300079     77.148758      2.620947     -0.006169   -999.250000
    3441.2002     93.142944     75.460022      2.627298     -0.005833   -999.250000
    3441.3002     90.646622     73.835083      2.638673     -0.004938   -999.250000
    3441.4002     88.137787     72.470001      2.655194     -0.003127   -999.250000
    3441.5002     86.171509     71.637085      2.674295     -0.000181   -999.250000
    3441.6002     85.430939     71.490417      2.690069      0.003190   -999.250000
    3441.7002     86.284363     72.009857      2.696488      0.005343   -999.250000
    3441.8002     88.687515     73.108978      2.691291      0.005032   -999.250000
    3441.9002     92.098312     74.673340      2.677594      0.002895   -999.250000
    3442.0002     95.585907     76.533554      2.660988      0.000884   -999.250000
    3442.1002     98.342499     78.352554      2.645518     -0.000001   -999.250000
    3442.2002    100.294998     79.847275      2.632127     -0.000526   -999.250000
