# LAS format data
~Version Information
VERS.     2.00: CWLS LOG ASCII STANDARD - VERSION 2.0
WRAP.       NO: ONE LINE PER DEPTH STEP
~Well Information
#MNEM   .UNITS    DATA                           DESCRIPTION
#----   ------    ----                           -----------
STRT    .M        63.1000                       :First Index Value
STOP    .M        4298.0000                     :Last Index Value
STEP    .M        0.0000                        :Frame Spacing
NULL    .         -999.2500                     :Absent Value
WELL    .         L05-07                        :Well Name   
FLD     .         FINDER_composites_22-02-2005  :Field Name  
CNTY    .                                       :County
STAT    .                                       :State
CTRY    .                                       :Country
LOC     .                                       :Location
API     .                                       :API Number
DATE    .                                       :Date
COMP    .         MOB                           :Company Name
SRVC    .                                       :Service Company
~Parameter Information
#MNEM   .UNITS    VALUE                          DESCRIPTION
#----   ------    -----                          -----------
TDD     .M        4287.00000                    :Total Depth (Driller)   
UBID    .         8132                          :Unique Borehole Id  
PDAT    .         Mean Sea Level                :Permanent Datum 
EPD     .M           0.00000                    :Elevation of Permanent Datum (PDAT) above Mean Sea Level
LMF     .         Rotary Table                  :Logging Measured From (Name of Logging Elevation Reference) 
APD     .M          36.80000                    :Elevation of Depth Reference (LMF) Above Permanent Datum
EGL     .M         -37.20000                    :Elevation of Ground Level Above Mean Sea Level  
~Curve Information
#MNEM   .UNITS    API CODE                       CURVE DESCRIPTION
#----   ------    --------                       -----------------
DEPT    .M                                      :1     Index curve
GR      .GAPI                                   :2     L05-07
DT      .US/F                                   :3     L05-07
RHOB    .G/C3                                   :4     L05-07
DRHO    .G/C3                                   :5     L05-07
NPHI    .V/V                                    :6     L05-07
~Ascii Log Data
# ...
    3019.9002     90.865021     78.555695      2.640243     -0.004080   -999.250000
    3020.0002     88.655411     77.801773      2.639991     -0.004727   -999.250000
    3020.1002     86.951294     77.346313      2.638845     -0.004943   -999.250000
    3020.2002     85.818436     77.239319      2.637155     -0.004140   -999.250000
    3020.3002     85.242096     77.510254      2.635942     -0.002814   -999.250000
    3020.4002     85.124847     78.165939      2.634935     -0.001863   -999.250000
    3020.5002     85.560486     79.085312      2.632784     -0.001475   -999.250000
    3020.6002     87.126587     80.059799      2.630421     -0.001096   -999.250000
    3020.7002     90.158493     80.928726      2.629206     -0.000504   -999.250000
    3020.8002     93.915558     81.609421      2.628254     -0.000233   -999.250000
    3020.9002     97.057220     82.083786      2.626859     -0.000627   -999.250000
    3021.0002     98.646439     82.373901      2.625931     -0.001281   -999.250000
    3021.1002     98.410355     82.480759      2.627089     -0.001534   -999.250000
    3021.2002     96.982590     82.436081      2.631563     -0.001195   -999.250000
    3021.3002     95.521500     82.287033      2.638595     -0.000602   -999.250000
    3021.4002     95.072998     82.061783      2.645161     -0.000189   -999.250000
    3021.5002     95.980118     81.810806      2.649169     -0.000182   -999.250000
    3021.6002     97.671860     81.674286      2.648917     -0.000936   -999.250000
    3021.7002     99.273087     81.794876      2.642760     -0.002869   -999.250000
    3021.8002    100.652603     82.142960      2.632760     -0.005561   -999.250000
    3021.9002    101.743469     82.509796      2.624034     -0.008040   -999.250000
    3022.0002    101.750931     82.699829      2.618923     -0.010132   -999.250000
    3022.1002    100.328415     82.647476      2.616549     -0.011987   -999.250000
    3022.2002     98.053619     82.390747      2.616120     -0.013280   -999.250000
    3022.3002     95.290375     81.911636      2.618696     -0.013413   -999.250000
    3022.4002     92.527908     81.194489      2.622156     -0.012641   -999.250000
    3022.5002     90.537018     80.359924      2.624018     -0.011639   -999.250000
    3022.6002     90.330231     79.717316      2.627513     -0.010181   -999.250000
    3022.7002     91.611740     79.420135      2.630416     -0.008948   -999.250000
    3022.8002     93.059174     79.355911      2.627717     -0.008833   -999.250000
    3022.9002     94.008209     79.510818      2.625195     -0.008547   -999.250000
    3023.0002     94.245087     79.875717      2.626021     -0.007393   -999.250000
    3023.1002     93.854080     80.366043      2.626112     -0.006291   -999.250000
    3023.2002     93.619583     80.762299      2.626681     -0.005678   -999.250000
    3023.3002     93.955597     80.953842      2.627206     -0.005858   -999.250000
    3023.4002     94.390640     81.051407      2.622827     -0.007167   -999.250000
    3023.5002     93.935181     81.118820      2.616003     -0.008091   -999.250000
    3023.6002     92.626251     81.158981      2.611857     -0.008007   -999.250000
    3023.7002     91.416565     81.143524      2.612808     -0.008169   -999.250000
    3023.8002     90.529205     81.109100      2.619244     -0.008352   -999.250000
    3023.9002     90.164246     81.079102      2.628064     -0.008033   -999.250000
    3024.0002     91.350952     81.003723      2.635493     -0.007393   -999.250000
    3024.1002     93.263290     81.000595      2.640539     -0.005876   -999.250000
    3024.2002     95.062332     81.183975      2.644272     -0.003548   -999.250000
    3024.3002     97.704178     81.579941      2.644666     -0.002530   -999.250000
    3024.4002    100.344208     81.836212      2.644995     -0.003114   -999.250000
    3024.5002    101.902191     81.815735      2.647995     -0.004193   -999.250000
    3024.6002    101.086288     82.009979      2.649347     -0.004985   -999.250000
    3024.7002     99.639877     82.300339      2.648479     -0.005025   -999.250000
    3024.8002     99.214691     82.431427      2.646663     -0.004825   -999.250000
    3024.9002     98.180984     82.697479      2.641471     -0.006751   -999.250000
    3025.0002     96.728867     83.184433      2.634423     -0.009964   -999.250000
    3025.1002     96.035110     83.773193      2.628774     -0.012027   -999.250000
    3025.2002     96.165863     84.458984      2.625078     -0.011355   -999.250000
    3025.3002     96.426315     84.976730      2.622318     -0.009339   -999.250000
    3025.4002     96.566895     85.049393      2.619532     -0.008262   -999.250000
    3025.5002     98.431503     84.862366      2.615887     -0.008514   -999.250000
    3025.6002    100.384811     84.646851      2.613110     -0.008832   -999.250000
    3025.7002     99.819641     84.529236      2.612919     -0.007967   -999.250000
    3025.8002     98.907669     84.672150      2.611640     -0.006252   -999.250000
    3025.9002     98.432800     84.975143      2.608035     -0.004706   -999.250000
    3026.0002     97.629257     85.228394      2.604210     -0.003905   -999.250000
    3026.1002     98.271698     85.497543      2.601007     -0.003133   -999.250000
    3026.2002    100.327240     85.799133      2.599693     -0.002159   -999.250000
    3026.3002    101.720474     85.999725      2.601700     -0.001370   -999.250000
    3026.4002    102.304565     85.973160      2.606891     -0.000493   -999.250000
    3026.5002    102.573013     85.753922      2.613439      0.000442   -999.250000
    3026.6002    102.527588     85.484894      2.619648      0.001060   -999.250000
    3026.7002    102.089859     85.233154      2.625037      0.001630   -999.250000
    3026.8002    101.237457     85.057114      2.627903      0.002131   -999.250000
    3026.9002     99.841736     85.033096      2.626690      0.002414   -999.250000
    3027.0002     97.828064     85.197952      2.623493      0.003348   -999.250000
    3027.1002     95.750427     85.480118      2.621146      0.005031   -999.250000
    3027.2002     94.427628     85.770660      2.620184      0.006171   -999.250000
    3027.3002     94.075439     85.990112      2.621138      0.006020   -999.250000
    3027.4002     94.147018     86.055969      2.624062      0.004526   -999.250000
    3027.5002     94.150330     85.907364      2.628385      0.001798   -999.250000
    3027.6002     94.106628     85.574295      2.634416     -0.001225   -999.250000
    3027.7002     93.936676     85.008408      2.642740     -0.003534   -999.250000
    3027.8002     93.320740     84.136047      2.652741     -0.004829   -999.250000
    3027.9002     92.605698     83.289902      2.662063     -0.005193   -999.250000
    3028.0002     92.636490     82.935791      2.666429     -0.005135   -999.250000
    3028.1002     93.912521     83.201248      2.661724     -0.005179   -999.250000
    3028.2002     96.258560     83.886169      2.650203     -0.005025   -999.250000
    3028.3002     98.995209     84.908554      2.637791     -0.004245   -999.250000
    3028.4002    101.285706     86.295593      2.628478     -0.003122   -999.250000
    3028.5002    102.887939     87.793365      2.623445     -0.001921   -999.250000
    3028.6002    104.036652     88.914719      2.621748     -0.000858   -999.250000
    3028.7002    104.764816     89.370209      2.621340     -0.000490   -999.250000
    3028.8002    104.964661     89.270294      2.621329     -0.000758   -999.250000
    3028.9002    104.561127     88.880066      2.622089     -0.000875   -999.250000
    3029.0002    103.481766     88.429733      2.623480     -0.000376   -999.250000
    3029.1002    101.779022     88.152069      2.625024      0.000572   -999.250000
    3029.2002     99.980240     88.233490      2.625834      0.001391   -999.250000
    3029.3002     98.817322     88.626846      2.624603      0.001564   -999.250000
    3029.4002     98.455048     89.108627      2.621606      0.001403   -999.250000
