# LAS format data
~Version Information
VERS.     2.00: CWLS LOG ASCII STANDARD - VERSION 2.0
WRAP.       NO: ONE LINE PER DEPTH STEP
~Well Information
#MNEM   .UNITS    DATA                           DESCRIPTION
#----   ------    ----                           -----------
STRT    .M        81.0000                       :First Index Value
STOP    .M        4879.7006                     :Last Index Value
STEP    .M        0.0000                        :Frame Spacing
NULL    .         -999.2500                     :Absent Value
WELL    .         L05-B-01                      :Well Name   
FLD     .         FINDER_composites_22-02-2005  :Field Name  
CNTY    .                                       :County
STAT    .                                       :State
CTRY    .                                       :Country
LOC     .                                       :Location
API     .                                       :API Number
DATE    .                                       :Date
COMP    .         WIN                           :Company Name
SRVC    .                                       :Service Company
~Parameter Information
#MNEM   .UNITS    VALUE                          DESCRIPTION
#----   ------    -----                          -----------
TDD     .M        4906.00000                    :Total Depth (Driller)   
UBID    .         8552                          :Unique Borehole Id  
PDAT    .         Mean Sea Level                :Permanent Datum 
EPD     .M           0.00000                    :Elevation of Permanent Datum (PDAT) above Mean Sea Level
LMF     .                                       :Logging Measured From (Name of Logging Elevation Reference) 
APD     .M          40.00000                    :Elevation of Depth Reference (LMF) Above Permanent Datum
EKB     .M          40.00000                    :Elevation of Kelly Bushing Above Mean Sea Level 
~Other Information
composite_curve_qc 
~Curve Information
#MNEM   .UNITS    API CODE                       CURVE DESCRIPTION
#----   ------    --------                       -----------------
DEPT    .M                                      :1     Index curve
GR      .GAPI                                   :2     SNAM  
DT      .US/F                                   :3     SNAM  
RHOB    .G/C3                                   :4     SNAM  
DRHO    .G/C3                                   :5     SNAM  
NPHI    .V/V                                    :6     SNAM  
~Ascii Log Data
# ...
    4679.4006     26.089775     73.600784      2.492838      0.039170      0.144879
    4679.5006     25.793827     73.493958      2.502421      0.046139      0.146649
    4679.6006     26.007240     73.608612      2.507935      0.049102      0.147811
    4679.7006     26.540260     73.088425      2.511896      0.048918      0.146217
    4679.8006     26.843784     73.589600      2.513653      0.047333      0.143144
    4679.9006     26.591450     74.741516      2.513937      0.045299      0.140426
    4680.0006     25.533127     74.461029      2.513937      0.042133      0.139328
    4680.1006     24.218311     73.456985      2.512921      0.038100      0.141134
    4680.2006     23.189674     72.570251      2.511363      0.033713      0.143435
    4680.3006     22.802433     71.562485      2.511518      0.029578      0.140231
    4680.4006     22.727921     70.256271      2.513689      0.027527      0.130363
    4680.5006     22.562851     68.748901      2.516745      0.027652      0.117022
    4680.6006     22.356297     67.433777      2.519728      0.028629      0.104251
    4680.7006     22.626881     66.473755      2.523246      0.030134      0.096034
    4680.8006     24.368618     65.804413      2.528539      0.032314      0.091708
    4680.9006     29.874321     65.455902      2.536971      0.035294      0.085816
    4681.0006     39.296112     65.458740      2.546988      0.038577      0.079803
    4681.1006     50.388123     65.738434      2.555440      0.041033      0.078184
    4681.2006     60.345871     66.112595      2.559971      0.040819      0.083289
    4681.3006     66.689453     66.463562      2.561802      0.038545      0.097784
    4681.4006     68.923615     66.800858      2.564692      0.036730      0.120248
    4681.5006     67.201904     67.111435      2.571284      0.037358      0.140341
    4681.6006     63.313950     67.191666      2.581638      0.040855      0.142981
    4681.7006     59.114464     66.912064      2.592508      0.045679      0.123387
    4681.8006     54.903221     66.639679      2.599381      0.050090      0.098208
    4681.9006     51.113892     66.474731      2.598566      0.051911      0.081789
    4682.0006     48.323059     66.162369      2.590536      0.049945      0.072996
    4682.1006     47.212204     65.890182      2.577264      0.043418      0.071240
    4682.2006     47.393005     65.674011      2.563087      0.033534      0.073547
    4682.3006     47.360306     65.334106      2.552386      0.023582      0.077577
    4682.4006     46.377144     65.084076      2.548235      0.015822      0.084382
    4682.5006     44.211494     64.874817      2.550735      0.010715      0.093138
    4682.6006     41.579788     64.283295      2.556452      0.005875      0.099640
    4682.7006     39.551102     63.436852      2.563440      0.000471      0.099513
    4682.8006     38.959763     62.585693      2.570223     -0.004811      0.092257
    4682.9006     39.065025     61.880539      2.578177     -0.008109      0.083588
    4683.0006     38.951363     62.227409      2.586782     -0.008838      0.077528
    4683.1006     38.094887     63.632263      2.593785     -0.008246      0.076013
    4683.2006     37.223892     64.559555      2.597649     -0.008135      0.076593
    4683.3006     36.756020     64.812698      2.598754     -0.009116      0.076707
    4683.4006     36.953613     64.975693      2.599742     -0.010173      0.074808
    4683.5006     38.029884     65.278549      2.602799     -0.009244      0.072664
    4683.6006     39.703339     65.767960      2.608984     -0.005636      0.071934
    4683.7006     41.227676     66.287323      2.617419     -0.000465      0.073229
    4683.8006     42.285828     66.611145      2.626569      0.005085      0.075888
    4683.9006     43.873474     66.632629      2.635575      0.010263      0.078763
    4684.0006     47.469284     66.461227      2.643961      0.014823      0.081280
    4684.1006     53.598061     66.194427      2.649529      0.017637      0.084645
    4684.2006     60.928368     65.832535      2.651489      0.017849      0.089645
    4684.3006     67.188873     65.357544      2.651350      0.016016      0.096678
    4684.4006     70.855225     64.871460      2.650365      0.013411      0.106734
    4684.5006     71.566956     64.385300      2.648109      0.010863      0.113590
    4684.6006     70.640411     63.862312      2.643917      0.008546      0.111852
    4684.7006     69.685226     63.354225      2.639764      0.007312      0.106160
    4684.8006     70.033279     62.552299      2.636469      0.007238      0.096564
    4684.9006     71.545380     61.224190      2.633857      0.007852      0.082065
    4685.0006     72.051071     59.996407      2.634335      0.009263      0.076083
    4685.1006     70.933258     59.306519      2.637125      0.011051      0.078494
    4685.2006     68.938019     59.249069      2.640296      0.012878      0.080664
    4685.3006     66.171204     60.556961      2.645151      0.015726      0.076351
    4685.4006     64.189484     62.808968      2.651265      0.019300      0.067622
    4685.5006     64.633881     65.266769      2.657243      0.022645      0.060404
    4685.6006     68.877899     67.151779      2.659218      0.023769      0.070888
    4685.7006     75.524841     68.268295      2.658007      0.022864      0.092642
    4685.8006     82.903595     68.611832      2.656076      0.020824      0.110676
    4685.9006     89.853287     68.223862      2.654252      0.018297      0.114466
    4686.0006     95.347656     67.377380      2.652638      0.015739      0.108112
    4686.1006     98.062836     66.047546      2.651010      0.013173      0.097624
    4686.2006     96.823563     65.188110      2.648520      0.010754      0.089357
    4686.3006     91.793289     65.050079      2.644953      0.008474      0.085986
    4686.4006     80.627365     65.673538      2.639511      0.006079      0.090528
    4686.5006     66.644638     67.136292      2.631276      0.003501      0.099154
    4686.6006     53.398979     68.756714      2.620409      0.000803      0.109456
    4686.7006     43.698021     69.194046      2.603961     -0.002333      0.124542
    4686.8006     39.608994     68.632065      2.580532     -0.006312      0.134889
    4686.9006     39.679405     67.882309      2.553169     -0.010748      0.137370
    4687.0006     42.058853     68.596680      2.524535     -0.015072      0.128151
    4687.1006     43.327599     68.908646      2.499782     -0.019137      0.119049
    4687.2006     42.731628     68.254715      2.479730     -0.022945      0.113647
    4687.3006     39.474419     67.440765      2.474838     -0.024689      0.109610
    4687.4006     35.285347     67.299667      2.479909     -0.025001      0.105299
    4687.5006     30.980022     67.854218      2.490604     -0.024498      0.100415
    4687.6006     28.689819     67.994751      2.507453     -0.022498      0.097144
    4687.7006     28.531273     68.188599      2.523438     -0.020649      0.092917
    4687.8006     30.132080     68.721100      2.536453     -0.019568      0.086530
    4687.9006     31.564606     68.021927      2.545790     -0.018730      0.085427
    4688.0006     32.466415     67.423950      2.550287     -0.018145      0.088822
    4688.1006     32.856033     67.728714      2.548981     -0.017927      0.095741
    4688.2006     32.826759     68.157532      2.542461     -0.017748      0.103521
    4688.3006     33.288704     68.810150      2.535538     -0.017406      0.107640
    4688.4006     34.832832     69.932175      2.530777     -0.016823      0.105218
    4688.5006     34.761032     71.274902      2.530616     -0.016305      0.101658
    4688.6006     33.052803     72.404770      2.531572     -0.015959      0.100101
    4688.7006     29.841129     72.983444      2.531186     -0.015851      0.102012
    4688.8006     25.838699     73.647018      2.523208     -0.015893      0.106376
    4688.9006     22.392445     74.072617      2.507017     -0.016383      0.112981
