# LAS format data
~Version Information
VERS.     2.00: CWLS LOG ASCII STANDARD - VERSION 2.0
WRAP.       NO: ONE LINE PER DEPTH STEP
~Well Information
#MNEM   .UNITS    DATA                           DESCRIPTION
#----   ------    ----                           -----------
STRT    .M        63.1000                       :First Index Value
STOP    .M        4298.0000                     :Last Index Value
STEP    .M        0.0000                        :Frame Spacing
NULL    .         -999.2500                     :Absent Value
WELL    .         L05-07                        :Well Name   
FLD     .         FINDER_composites_22-02-2005  :Field Name  
CNTY    .                                       :County
STAT    .                                       :State
CTRY    .                                       :Country
LOC     .                                       :Location
API     .                                       :API Number
DATE    .                                       :Date
COMP    .         MOB                           :Company Name
SRVC    .                                       :Service Company
~Parameter Information
#MNEM   .UNITS    VALUE                          DESCRIPTION
#----   ------    -----                          -----------
TDD     .M        4287.00000                    :Total Depth (Driller)   
UBID    .         8132                          :Unique Borehole Id  
PDAT    .         Mean Sea Level                :Permanent Datum 
EPD     .M           0.00000                    :Elevation of Permanent Datum (PDAT) above Mean Sea Level
LMF     .         Rotary Table                  :Logging Measured From (Name of Logging Elevation Reference) 
APD     .M          36.80000                    :Elevation of Depth Reference (LMF) Above Permanent Datum
EGL     .M         -37.20000                    :Elevation of Ground Level Above Mean Sea Level  
~Curve Information
#MNEM   .UNITS    API CODE                       CURVE DESCRIPTION
#----   ------    --------                       -----------------
DEPT    .M                                      :1     Index curve
GR      .GAPI                                   :2     L05-07
DT      .US/F                                   :3     L05-07
RHOB    .G/C3                                   :4     L05-07
DRHO    .G/C3                                   :5     L05-07
NPHI    .V/V                                    :6     L05-07
~Ascii Log Data
# ...
    3231.1002     70.032928     78.791016      2.502811      0.003480      0.210961
    3231.2002     71.190414     79.087219      2.504090      0.004095      0.215233
    3231.3002     72.424789     79.295547      2.507558      0.005592      0.217055
    3231.4002     73.121796     79.323471      2.514652      0.007733      0.213460
    3231.5002     73.045837     79.133789      2.523985      0.009830      0.204105
    3231.6002     72.327118     78.704071      2.532225      0.010940      0.192589
    3231.7002     70.991684     77.959152      2.536928      0.010360      0.183381
    3231.8002     69.645569     76.953354      2.536238      0.008143      0.178104
    3231.9002     69.245773     75.990417      2.530111      0.004936      0.176320
    3232.0002     69.979187     75.340485      2.521614      0.001070      0.177087
    3232.1002     71.740372     75.108063      2.513547     -0.003139      0.178165
    3232.2002     74.268677     75.240463      2.507335     -0.006931      0.177818
    3232.3002     76.686813     75.625549      2.505225     -0.009353      0.177504
    3232.4002     78.260239     76.056030      2.507101     -0.010125      0.178604
    3232.5002     78.924896     76.342239      2.510138     -0.009887      0.180046
    3232.6002     78.517975     76.437012      2.513499     -0.009246      0.180584
    3232.7002     77.264694     76.363022      2.517222     -0.008552      0.180484
    3232.8002     75.779327     76.146896      2.521143     -0.007703      0.180698
    3232.9002     74.441162     75.878677      2.525880     -0.006174      0.181081
    3233.0002     73.527252     75.571808      2.531625     -0.004186      0.180636
    3233.1002     73.391235     75.139206      2.537449     -0.002780      0.178304
    3233.2002     73.848160     74.667862      2.542421     -0.002470      0.173653
    3233.3002     74.053589     74.238922      2.547636     -0.002476      0.167781
    3233.4002     73.169540     73.676926      2.555139     -0.001680      0.163338
    3233.5002     71.461929     72.702042      2.562980     -0.000505      0.163900
    3233.6002     69.560257     71.619156      2.567861     -0.000117      0.169515
    3233.7002     67.941559     71.417877      2.568048     -0.001004      0.175756
    3233.8002     67.655334     71.805496      2.565943     -0.002100      0.179546
    3233.9002     68.992020     71.992386      2.565275     -0.002152      0.180104
    3234.0002     70.597610     72.041641      2.568090     -0.001080      0.176770
    3234.1002     71.600830     72.225067      2.573678     -0.000371      0.170930
    3234.2002     72.155151     72.444748      2.580997     -0.000748      0.164119
    3234.3002     72.578491     72.005859      2.590373     -0.000368      0.156275
    3234.4002     72.671249     70.903381      2.598216      0.000818      0.149432
    3234.5002     72.215393     69.667633      2.601703      0.001647      0.145710
    3234.6002     71.736679     68.917831      2.602910      0.002148      0.146770
    3234.7002     72.106201     68.738358      2.600737      0.002735      0.151914
    3234.8002     73.542206     68.890747      2.593065      0.003582      0.158775
    3234.9002     74.466263     69.717804      2.583067      0.004598      0.165205
    3235.0002     74.786194     71.038071      2.574290      0.004727      0.169435
    3235.1002     75.519775     72.241531      2.568746      0.003025      0.170567
    3235.2002     74.385803     72.934738      2.571874      0.001984      0.165227
    3235.3002     71.802399     73.036301      2.580484      0.001613      0.155588
    3235.4002     70.093353     72.594208      2.587187      0.000164      0.147010
    3235.5002     69.330353     71.458466      2.588252     -0.002481      0.143612
    3235.6002     69.610092     70.064484      2.584463     -0.005482      0.146385
    3235.7002     70.943726     69.018784      2.580076     -0.007971      0.152398
    3235.8002     72.660858     68.667938      2.577302     -0.009233      0.158577
    3235.9002     73.765106     68.916733      2.576766     -0.009070      0.162452
    3236.0002     73.626022     69.359558      2.577877     -0.007719      0.163810
    3236.1002     71.348679     69.847824      2.583654     -0.004231      0.161265
    3236.2002     67.901703     70.263992      2.593321      0.000488      0.156471
    3236.3002     65.174301     70.531052      2.603305      0.004627      0.152598
    3236.4002     64.095261     70.372223      2.610260      0.007172      0.149823
    3236.5002     64.307083     69.892807      2.611248      0.008252      0.147702
    3236.6002     65.107605     69.509705      2.604036      0.008362      0.146871
    3236.7002     65.996185     69.372131      2.592373      0.007920      0.147221
    3236.8002     66.399124     69.487411      2.582477      0.007394      0.147163
    3236.9002     65.996307     69.951782      2.576730      0.006925      0.145354
    3237.0002     65.816010     70.660767      2.574139      0.006160      0.143870
    3237.1002     66.294678     71.356567      2.572756      0.005204      0.143479
    3237.2002     66.355652     71.878616      2.572611      0.004883      0.141246
    3237.3002     66.208984     72.116974      2.574274      0.005312      0.137548
    3237.4002     66.453217     72.028503      2.578119      0.005884      0.134429
    3237.5002     66.609283     71.566559      2.584369      0.006139      0.132323
    3237.6002     66.497894     70.889404      2.591463      0.006083      0.132107
    3237.7002     66.267120     70.203369      2.597233      0.006110      0.134421
    3237.8002     65.822403     69.602219      2.600063      0.006524      0.138426
    3237.9002     65.653320     69.150024      2.599831      0.006936      0.142557
    3238.0002     66.471725     68.874664      2.598347      0.006931      0.145355
    3238.1002     68.292511     68.776688      2.598279      0.006808      0.145354
    3238.2002     70.400558     68.775604      2.600937      0.007001      0.143102
    3238.3002     71.931488     68.771851      2.606023      0.007578      0.140392
    3238.4002     72.471542     68.657883      2.612537      0.008392      0.138890
    3238.5002     72.360779     68.304688      2.618720      0.009273      0.140379
    3238.6002     72.247528     67.756149      2.622545      0.009856      0.144631
    3238.7002     72.496017     67.301346      2.623248      0.009590      0.147822
    3238.8002     72.884949     67.058670      2.621101      0.008290      0.147561
    3238.9002     72.916702     66.923309      2.617808      0.006505      0.144307
    3239.0002     72.434998     66.840683      2.616536      0.005110      0.138743
    3239.1002     71.881393     66.857010      2.618130      0.004314      0.131662
    3239.2002     71.710739     66.958374      2.620018      0.003463      0.124548
    3239.3002     71.809479     67.035767      2.619389      0.001801      0.118503
    3239.4002     71.759460     67.017090      2.615337     -0.000581      0.114510
    3239.5002     71.179199     66.925217      2.608728     -0.002829      0.113688
    3239.6002     69.945099     66.818085      2.601174     -0.004303      0.116778
    3239.7002     68.715881     66.794739      2.594125     -0.005253      0.123200
    3239.8002     68.514877     66.949295      2.588207     -0.006406      0.130604
    3239.9002     69.464874     67.247421      2.583979     -0.007886      0.135988
    3240.0002     70.814713     67.567337      2.582941     -0.009024      0.138130
    3240.1002     71.914886     67.801422      2.586718     -0.009026      0.137935
    3240.2002     72.706818     67.865952      2.594733     -0.007804      0.136889
    3240.3002     73.604172     67.722763      2.603990     -0.006182      0.136586
    3240.4002     75.102081     67.463608      2.610957     -0.005018      0.137797
    3240.5002     77.217896     67.294464      2.613388     -0.004261      0.138759
    3240.6002     79.223267     67.336349      2.611660     -0.003464      0.137016
