# LAS format data
~Version Information
VERS.     2.00: CWLS LOG ASCII STANDARD - VERSION 2.0
WRAP.       NO: ONE LINE PER DEPTH STEP
~Well Information
#MNEM   .UNITS    DATA                           DESCRIPTION
#----   ------    ----                           -----------
STRT    .M        81.0000                       :First Index Value
STOP    .M        4879.7006                     :Last Index Value
STEP    .M        0.0000                        :Frame Spacing
NULL    .         -999.2500                     :Absent Value
WELL    .         L05-B-01                      :Well Name   
FLD     .         FINDER_composites_22-02-2005  :Field Name  
CNTY    .                                       :County
STAT    .                                       :State
CTRY    .                                       :Country
LOC     .                                       :Location
API     .                                       :API Number
DATE    .                                       :Date
COMP    .         WIN                           :Company Name
SRVC    .                                       :Service Company
~Parameter Information
#MNEM   .UNITS    VALUE                          DESCRIPTION
#----   ------    -----                          -----------
TDD     .M        4906.00000                    :Total Depth (Driller)   
UBID    .         8552                          :Unique Borehole Id  
PDAT    .         Mean Sea Level                :Permanent Datum 
EPD     .M           0.00000                    :Elevation of Permanent Datum (PDAT) above Mean Sea Level
LMF     .                                       :Logging Measured From (Name of Logging Elevation Reference) 
APD     .M          40.00000                    :Elevation of Depth Reference (LMF) Above Permanent Datum
EKB     .M          40.00000                    :Elevation of Kelly Bushing Above Mean Sea Level 
~Other Information
composite_curve_qc 
~Curve Information
#MNEM   .UNITS    API CODE                       CURVE DESCRIPTION
#----   ------    --------                       -----------------
DEPT    .M                                      :1     Index curve
GR      .GAPI                                   :2     SNAM  
DT      .US/F                                   :3     SNAM  
RHOB    .G/C3                                   :4     SNAM  
DRHO    .G/C3                                   :5     SNAM  
NPHI    .V/V                                    :6     SNAM  
~Ascii Log Data
# ...
    4535.4002     96.737564     67.988068   -999.250000   -999.250000      0.265133
    4535.5002     91.414612     67.917160   -999.250000   -999.250000      0.240475
    4535.6002     86.588226     67.830017   -999.250000   -999.250000      0.221156
    4535.7002     84.071564     67.469940   -999.250000   -999.250000      0.214130
    4535.8002     83.232544     66.724899   -999.250000   -999.250000      0.219078
    4535.9002     83.139954     65.832199   -999.250000   -999.250000      0.230657
    4536.0002     83.159286     65.290726   -999.250000   -999.250000      0.240552
    4536.1002     81.414261     65.259171   -999.250000   -999.250000      0.237546
    4536.2002     77.104584     65.527359   -999.250000   -999.250000      0.220138
    4536.3002     71.716141     65.717941   -999.250000   -999.250000      0.200398
    4536.4002     66.686371     65.866623   -999.250000   -999.250000      0.184656
    4536.5002     63.258087     66.160446   -999.250000   -999.250000      0.175850
    4536.6002     61.655617     66.728714   -999.250000   -999.250000      0.172188
    4536.7002     62.018661     67.455643   -999.250000   -999.250000      0.172728
    4536.8002     63.837746     68.318832   -999.250000   -999.250000      0.176720
    4536.9002     66.724960     69.633041   -999.250000   -999.250000      0.184551
    4537.0002     70.442413     71.628128   -999.250000   -999.250000      0.190316
    4537.1002     74.864334     73.552002   -999.250000   -999.250000      0.193275
    4537.2002     80.742081     73.939163   -999.250000   -999.250000      0.203486
    4537.3002     89.435562     72.998077   -999.250000   -999.250000      0.232487
    4537.4002    100.180740     72.091965   -999.250000   -999.250000      0.275515
    4537.5002    110.627029     72.471054   -999.250000   -999.250000      0.315604
    4537.6002    117.065491     72.820053   -999.250000   -999.250000      0.335066
    4537.7002    118.218674     72.173599   -999.250000   -999.250000      0.332400
    4537.8002    112.874603     71.452835   -999.250000   -999.250000      0.312952
    4537.9002    103.918594     70.709366   -999.250000   -999.250000      0.282048
    4538.0002     95.122238     69.840027   -999.250000   -999.250000      0.246689
    4538.1002     90.588257     69.360413   -999.250000   -999.250000      0.218959
    4538.2002     89.084641     69.567474   -999.250000   -999.250000      0.202533
    4538.3002     88.411026     70.366714   -999.250000   -999.250000      0.194481
    4538.4002     88.443542     71.062592   -999.250000   -999.250000      0.190528
    4538.5002     88.776154     71.415833   -999.250000   -999.250000      0.191888
    4538.6002     89.204102     71.510284   -999.250000   -999.250000      0.200023
    4538.7002     92.214905     71.503799   -999.250000   -999.250000      0.225302
    4538.8002     95.325714     71.494110   -999.250000   -999.250000      0.248359
    4538.9002     96.683365     71.493484   -999.250000   -999.250000      0.256966
    4539.0002     97.040665     71.565750   -999.250000   -999.250000      0.239764
    4539.1002     96.793747     71.679703   -999.250000   -999.250000      0.220302
    4539.2002     95.850708     71.807098   -999.250000   -999.250000      0.215739
    4539.3002     94.899582     71.813797   -999.250000   -999.250000      0.224526
    4539.4002     94.448303     71.690247   -999.250000   -999.250000      0.235652
    4539.5002     94.852097     71.426117   -999.250000   -999.250000      0.242653
    4539.6002     92.630783     71.368118   -999.250000   -999.250000      0.246332
    4539.7002     89.739746     71.156967   -999.250000   -999.250000      0.247548
    4539.8002     89.160751     70.242874   -999.250000   -999.250000      0.245062
    4539.9002     86.891998     69.469528   -999.250000   -999.250000      0.249508
    4540.0002     83.746521     68.924866   -999.250000   -999.250000      0.258743
    4540.1002     82.440048     68.482574   -999.250000   -999.250000      0.267669
    4540.2002     81.933640     67.954849   -999.250000   -999.250000      0.275665
    4540.3002     81.498001     67.656006   -999.250000   -999.250000      0.280636
    4540.4002     80.915070     68.437988   -999.250000   -999.250000      0.276502
    4540.5002     81.737808     69.477478   -999.250000   -999.250000      0.250098
    4540.6002     83.369202     70.350479   -999.250000   -999.250000      0.212974
    4540.7002     83.546631     70.810608   -999.250000   -999.250000      0.194711
    4540.8002     84.184494     70.949310   -999.250000   -999.250000      0.198696
    4540.9002     85.551666     70.905655   -999.250000   -999.250000      0.218466
    4541.0002     86.012833     70.790451   -999.250000   -999.250000      0.258025
    4541.1002     86.818176     71.056961   -999.250000   -999.250000      0.287189
    4541.2002     88.272766     71.707123   -999.250000   -999.250000      0.296100
    4541.3002     88.649780     72.264893   -999.250000   -999.250000      0.271272
    4541.4002     89.062714     73.035095   -999.250000   -999.250000      0.244594
    4541.5002     90.097809     74.113052   -999.250000   -999.250000      0.230721
    4541.6002     91.238861     75.000595   -999.250000   -999.250000      0.239511
    4541.7002     93.978897     75.569626   -999.250000   -999.250000      0.262757
    4541.8002     98.853378     75.848282   -999.250000   -999.250000      0.293738
    4541.9002    102.792892     75.957642   -999.250000   -999.250000      0.306180
    4542.0002    105.568115     75.981873   -999.250000   -999.250000      0.303411
    4542.1002    107.670654     75.936813   -999.250000   -999.250000      0.292062
    4542.2002    107.477264     76.183548   -999.250000   -999.250000      0.306547
    4542.3002    105.903046     76.265305   -999.250000   -999.250000      0.334712
    4542.4002    103.930740     75.758560   -999.250000   -999.250000      0.358628
    4542.5002    102.797424     75.143738   -999.250000   -999.250000      0.359626
    4542.6002    101.519638     74.613434   -999.250000   -999.250000      0.348637
    4542.7002     98.689362     74.053406   -999.250000   -999.250000      0.339936
    4542.8002     96.827072     73.286819   -999.250000   -999.250000      0.334574
    4542.9002     96.146576     72.296249   -999.250000   -999.250000      0.328372
    4543.0002     95.463913     71.104385   -999.250000   -999.250000      0.316795
    4543.1002     95.742157     69.871323   -999.250000   -999.250000      0.300200
    4543.2002     96.472397     68.721802   -999.250000   -999.250000      0.283265
    4543.3002     96.067429     67.813843   -999.250000   -999.250000      0.271191
    4543.4002     95.690720     67.387589   -999.250000   -999.250000      0.258436
    4543.5002     96.632935     67.289581   -999.250000   -999.250000      0.245728
    4543.6002     99.234390     67.209961   -999.250000   -999.250000      0.245774
    4543.7002    101.709610     67.127289   -999.250000   -999.250000      0.262350
    4543.8002    102.519501     67.090317   -999.250000   -999.250000      0.285266
    4543.9002    101.706940     67.070297   -999.250000   -999.250000      0.296771
    4544.0002    100.000977     67.041916   -999.250000   -999.250000      0.289769
    4544.1002     98.534103     67.073425   -999.250000   -999.250000      0.272581
    4544.2002     98.006241     67.494217   -999.250000   -999.250000      0.260777
    4544.3002     97.635056     68.792542   -999.250000   -999.250000      0.261102
    4544.4002     96.552887     70.848373   -999.250000   -999.250000      0.271370
    4544.5002     96.030228     72.550964   -999.250000   -999.250000      0.292569
    4544.6002     97.513794     73.296738   -999.250000   -999.250000      0.320197
    4544.7002    101.289413     73.252655   -999.250000   -999.250000      0.343711
    4544.8002    106.073135     72.628052   -999.250000   -999.250000      0.348279
    4544.9002    110.049988     71.984222   -999.250000   -999.250000      0.328000
