# LAS format data
~Version Information
VERS.     2.00: CWLS LOG ASCII STANDARD - VERSION 2.0
WRAP.       NO: ONE LINE PER DEPTH STEP
~Well Information
#MNEM   .UNITS    DATA                           DESCRIPTION
#----   ------    ----                           -----------
STRT    .M        63.1000                       :First Index Value
STOP    .M        4298.0000                     :Last Index Value
STEP    .M        0.0000                        :Frame Spacing
NULL    .         -999.2500                     :Absent Value
WELL    .         L05-07                        :Well Name   
FLD     .         FINDER_composites_22-02-2005  :Field Name  
CNTY    .                                       :County
STAT    .                                       :State
CTRY    .                                       :Country
LOC     .                                       :Location
API     .                                       :API Number
DATE    .                                       :Date
COMP    .         MOB                           :Company Name
SRVC    .                                       :Service Company
~Parameter Information
#MNEM   .UNITS    VALUE                          DESCRIPTION
#----   ------    -----                          -----------
TDD     .M        4287.00000                    :Total Depth (Driller)   
UBID    .         8132                          :Unique Borehole Id  
PDAT    .         Mean Sea Level                :Permanent Datum 
EPD     .M           0.00000                    :Elevation of Permanent Datum (PDAT) above Mean Sea Level
LMF     .         Rotary Table                  :Logging Measured From (Name of Logging Elevation Reference) 
APD     .M          36.80000                    :Elevation of Depth Reference (LMF) Above Permanent Datum
EGL     .M         -37.20000                    :Elevation of Ground Level Above Mean Sea Level  
~Curve Information
#MNEM   .UNITS    API CODE                       CURVE DESCRIPTION
#----   ------    --------                       -----------------
DEPT    .M                                      :1     Index curve
GR      .GAPI                                   :2     L05-07
DT      .US/F                                   :3     L05-07
RHOB    .G/C3                                   :4     L05-07
DRHO    .G/C3                                   :5     L05-07
NPHI    .V/V                                    :6     L05-07
~Ascii Log Data
# ...
    4171.9006     61.164703     72.662872      2.579153      0.008087      0.066583
    4172.0006     57.166092     71.261932      2.584008      0.007377      0.059860
    4172.1006     53.858086     68.964417      2.586167      0.006109      0.057439
    4172.2006     51.804878     66.455368      2.587101      0.004466      0.058485
    4172.3006     50.973915     64.312378      2.583762      0.002546      0.060550
    4172.4006     51.027702     62.769615      2.576081      0.000601      0.063404
    4172.5006     51.806541     62.022568      2.568422     -0.000886      0.069039
    4172.6006     52.274734     62.419891      2.563803     -0.002714      0.077619
    4172.7006     52.020256     63.344933      2.562549     -0.004597      0.088851
    4172.8006     51.782921     63.660767      2.562808     -0.005034      0.103909
    4172.9006     52.393425     64.502838      2.564487     -0.005074      0.125017
    4173.0006     54.497719     66.153503      2.566835     -0.005661      0.148748
    4173.1006     59.042938     67.018860      2.568299     -0.006162      0.169697
    4173.2006     65.684723     68.429596      2.572221     -0.005525      0.180149
    4173.3006     72.210464     70.924438      2.579250     -0.003746      0.176687
    4173.4006     77.677383     73.184677      2.586371     -0.001654      0.160434
    4173.5006     80.042908     74.980072      2.589182     -0.000327      0.135622
    4173.6006     79.302734     76.382812      2.587547      0.000344      0.112571
    4173.7006     76.195740     76.733276      2.585197      0.001930      0.101119
    4173.8006     71.415878     75.789185      2.582111      0.002992      0.103090
    4173.9006     66.396637     74.004395      2.578083      0.002240      0.112585
    4174.0006     62.814178     71.533600      2.575413      0.000751      0.128853
    4174.1006     61.502686     69.558243      2.573862     -0.000892      0.146898
    4174.2006     62.164108     68.987000      2.572032     -0.002629      0.161178
    4174.3006     65.103226     69.683624      2.570330     -0.004476      0.169780
    4174.4006     69.103928     71.125412      2.567611     -0.006794      0.174352
    4174.5006     72.662445     72.868668      2.563367     -0.009451      0.177961
    4174.6006     75.251846     74.760529      2.560884     -0.010557      0.179022
    4174.7006     76.713013     76.321915      2.560372     -0.010535      0.176185
    4174.8006     77.502487     77.277954      2.560482     -0.011014      0.168962
    4174.9006     78.825821     77.730988      2.563944     -0.011545      0.155179
    4175.0006     81.451752     77.340652      2.570342     -0.011421      0.136192
    4175.1006     84.603577     75.848694      2.576553     -0.010761      0.117176
    4175.2006     85.846130     73.980225      2.581575     -0.010055      0.106051
    4175.3006     84.098572     72.099396      2.585973     -0.009224      0.105828
    4175.4006     80.035034     70.149673      2.589669     -0.007810      0.115253
    4175.5006     75.044006     68.739517      2.591420     -0.005804      0.131538
    4175.6006     70.878342     68.445190      2.590937     -0.003310      0.149686
    4175.7006     69.215378     69.343887      2.588759     -0.000633      0.163193
    4175.8006     70.232285     71.012619      2.585299      0.001525      0.167856
    4175.9006     72.480225     72.946365      2.581628      0.003043      0.164777
    4176.0006     74.322083     74.656799      2.579703      0.004159      0.158278
    4176.1006     75.172058     75.688416      2.580321      0.004653      0.152994
    4176.2006     75.295303     75.959091      2.581631      0.004074      0.149641
    4176.3006     75.174423     75.853241      2.581676      0.002602      0.145291
    4176.4006     75.070770     75.677307      2.581919      0.001072      0.137783
    4176.5006     74.813004     75.465607      2.583892      0.000096      0.126370
    4176.6006     73.549118     75.027298      2.587382     -0.000354      0.112128
    4176.7006     70.140091     74.059418      2.593315     -0.000298      0.099843
    4176.8006     64.547134     72.475220      2.602248      0.000405      0.094373
    4176.9006     58.234421     70.442856      2.612455      0.001826      0.096258
    4177.0006     53.191650     68.235367      2.621517      0.003873      0.102922
    4177.1006     50.903587     66.344208      2.627116      0.006099      0.110538
    4177.2006     51.826836     65.386978      2.627316      0.007872      0.114890
    4177.3006     55.180229     65.645813      2.622061      0.009048      0.113511
    4177.4006     58.999771     66.807724      2.613824      0.010391      0.107826
    4177.5006     61.288788     68.229340      2.605851      0.012848      0.102173
    4177.6006     61.488716     69.294662      2.600221      0.016426      0.100388
    4177.7006     60.283890     69.693222      2.597541      0.020195      0.103886
    4177.8006     58.766586     69.594269      2.597280      0.023100      0.110875
    4177.9006     58.250244     69.430511      2.598304      0.024438      0.116731
    4178.0006     59.603172     69.535751      2.599435      0.024024      0.116822
    4178.1006     62.257195     69.907578      2.599430      0.022066      0.110821
    4178.2006     64.778854     70.319397      2.596320      0.018681      0.102823
    4178.3006     65.852661     70.528320      2.588785      0.013947      0.097713
    4178.4006     64.753052     70.406235      2.577896      0.008350      0.098058
    4178.5006     61.948982     70.015228      2.566586      0.002828      0.103211
    4178.6006     58.890350     69.518234      2.558219     -0.001805      0.109498
    4178.7006     56.799294     69.046280      2.555929     -0.004951      0.112519
    4178.8006     56.127510     68.750610      2.560109     -0.006533      0.110232
    4178.9006     56.721130     68.758591      2.567315     -0.007153      0.103403
    4179.0006     57.974442     68.991989      2.573133     -0.007570      0.093846
    4179.1006     59.084869     69.169632      2.576145     -0.007922      0.084041
    4179.2006     59.643570     68.976791      2.578040     -0.007745      0.077782
    4179.3006     59.956314     68.249557      2.580980     -0.006866      0.078196
    4179.4006     60.638756     67.157471      2.585919     -0.005602      0.085675
    4179.5006     61.935387     66.246689      2.592131     -0.004389      0.097987
    4179.6006     63.599899     66.048721      2.597374     -0.003561      0.111523
    4179.7006     65.251511     66.737076      2.598692     -0.003318      0.122367
    4179.8006     66.578812     68.093933      2.594879     -0.003625      0.127546
    4179.9006     67.544418     69.705154      2.588285     -0.004104      0.127411
    4180.0006     68.493332     70.997467      2.582345     -0.004147      0.124311
    4180.1006     69.730148     71.597366      2.578368     -0.003374      0.120227
    4180.2006     70.687973     71.678558      2.576487     -0.001985      0.116686
    4180.3006     70.306976     71.616989      2.576585     -0.000525      0.115336
    4180.4006     68.295746     71.449219      2.578237      0.000756      0.116424
    4180.5006     65.418655     71.009857      2.581827      0.001966      0.117868
    4180.6006     62.834908     70.432526      2.587557      0.003158      0.117972
    4180.7006     61.176529     70.135452      2.593922      0.004104      0.117711
    4180.8006     60.695335     70.228043      2.597918      0.004426      0.117736
    4180.9006     61.251785     70.373901      2.597511      0.004182      0.118169
    4181.0006     62.260162     70.294586      2.592613      0.003914      0.120830
    4181.1006     62.872078     70.175583      2.585862      0.003853      0.126247
    4181.2006     62.927536     70.333221      2.580004      0.003674      0.131960
    4181.3006     63.305138     70.743469      2.575445      0.003099      0.135039
    4181.4006     64.439316     71.246399      2.572818      0.002462      0.135501
