# LAS format data
~Version Information
VERS.     2.00: CWLS LOG ASCII STANDARD - VERSION 2.0
WRAP.       NO: ONE LINE PER DEPTH STEP
~Well Information
#MNEM   .UNITS    DATA                           DESCRIPTION
#----   ------    ----                           -----------
STRT    .M        63.1000                       :First Index Value
STOP    .M        4298.0000                     :Last Index Value
STEP    .M        0.0000                        :Frame Spacing
NULL    .         -999.2500                     :Absent Value
WELL    .         L05-07                        :Well Name   
FLD     .         FINDER_composites_22-02-2005  :Field Name  
CNTY    .                                       :County
STAT    .                                       :State
CTRY    .                                       :Country
LOC     .                                       :Location
API     .                                       :API Number
DATE    .                                       :Date
COMP    .         MOB                           :Company Name
SRVC    .                                       :Service Company
~Parameter Information
#MNEM   .UNITS    VALUE                          DESCRIPTION
#----   ------    -----                          -----------
TDD     .M        4287.00000                    :Total Depth (Driller)   
UBID    .         8132                          :Unique Borehole Id  
PDAT    .         Mean Sea Level                :Permanent Datum 
EPD     .M           0.00000                    :Elevation of Permanent Datum (PDAT) above Mean Sea Level
LMF     .         Rotary Table                  :Logging Measured From (Name of Logging Elevation Reference) 
APD     .M          36.80000                    :Elevation of Depth Reference (LMF) Above Permanent Datum
EGL     .M         -37.20000                    :Elevation of Ground Level Above Mean Sea Level  
~Curve Information
#MNEM   .UNITS    API CODE                       CURVE DESCRIPTION
#----   ------    --------                       -----------------
DEPT    .M                                      :1     Index curve
GR      .GAPI                                   :2     L05-07
DT      .US/F                                   :3     L05-07
RHOB    .G/C3                                   :4     L05-07
DRHO    .G/C3                                   :5     L05-07
NPHI    .V/V                                    :6     L05-07
~Ascii Log Data
# ...
    3759.1001     31.375313     58.946152      2.666810      0.013266   -999.250000
    3759.2001     31.942616     59.309395      2.663694      0.012347   -999.250000
    3759.3001     32.767509     59.876640      2.661298      0.011494   -999.250000
    3759.4001     33.873947     60.552681      2.659750      0.010373   -999.250000
    3759.5001     35.371857     61.273674      2.657539      0.008567   -999.250000
    3759.6001     36.744759     62.003334      2.654988      0.007006   -999.250000
    3759.7001     37.641037     62.770714      2.652478      0.006441   -999.250000
    3759.8001     38.217842     63.510277      2.649673      0.006330   -999.250000
    3759.9001     38.552132     63.978104      2.648352      0.005804   -999.250000
    3760.0001     38.610153     64.063309      2.652499      0.004630   -999.250000
    3760.1001     38.310875     63.853020      2.666393      0.003578   -999.250000
    3760.2001     37.428123     63.414032      2.691206      0.003905   -999.250000
    3760.3001     35.646843     62.684669      2.723400      0.005758   -999.250000
    3760.4001     33.042793     61.683777      2.753583      0.007762   -999.250000
    3760.5001     30.641163     60.799736      2.774358      0.008709   -999.250000
    3760.6001     29.476814     60.235863      2.781120      0.008307   -999.250000
    3760.7001     30.038254     59.821075      2.770264      0.006943   -999.250000
    3760.8001     32.599167     59.701546      2.750209      0.005558   -999.250000
    3760.9001     36.620537     60.102890      2.733901      0.004832   -999.250000
    3761.0001     41.146561     61.010986      2.724956      0.004490   -999.250000
    3761.1001     45.949791     62.709198      2.724537      0.004361   -999.250000
    3761.2001     50.712494     65.078262      2.731348      0.004570   -999.250000
    3761.3001     54.803909     67.455719      2.741172      0.005284   -999.250000
    3761.4001     57.331017     69.460953      2.742650      0.005086   -999.250000
    3761.5001     57.784477     70.864761      2.729968      0.003073   -999.250000
    3761.6001     55.508606     70.859070      2.709491      0.001038   -999.250000
    3761.7001     50.925484     69.070908      2.688729      0.000782   -999.250000
    3761.8001     45.496078     66.199310      2.670659      0.002238   -999.250000
    3761.9001     41.293617     64.039902      2.662136      0.003906   -999.250000
    3762.0001     39.637009     63.168121      2.662095      0.004622   -999.250000
    3762.1001     39.978828     62.738312      2.663605      0.004472   -999.250000
    3762.2001     41.993164     63.120544      2.666951      0.005119   -999.250000
    3762.3001     44.261391     64.508255      2.669508      0.006065   -999.250000
    3762.4001     45.637169     66.712250      2.668259      0.005591   -999.250000
    3762.5001     45.560783     68.493927      2.662957      0.003544   -999.250000
    3762.6001     43.959648     68.964783      2.657448      0.001266   -999.250000
    3762.7001     41.144310     68.320877      2.655473     -0.000002   -999.250000
    3762.8001     38.700150     67.167526      2.657887     -0.000626   -999.250000
    3762.9001     38.003014     66.235352      2.664079     -0.001404   -999.250000
    3763.0001     39.148048     65.678757      2.674181     -0.002557   -999.250000
    3763.1001     41.264908     65.581085      2.686750     -0.002588   -999.250000
    3763.2001     42.996788     65.949356      2.699582     -0.001352   -999.250000
    3763.3001     43.538734     66.764221      2.713066     -0.000256   -999.250000
    3763.4001     41.978844     67.345306      2.728173      0.000082   -999.250000
    3763.5001     38.947037     67.223785      2.743382     -0.000142   -999.250000
    3763.6001     36.164207     66.354156      2.752234     -0.000640   -999.250000
    3763.7001     34.413216     64.739594      2.751513     -0.001354   -999.250000
    3763.8001     33.364700     62.829536      2.741272     -0.002849   -999.250000
    3763.9001     32.775742     61.584045      2.721838     -0.005689   -999.250000
    3764.0001     32.822762     61.367966      2.700871     -0.008277   -999.250000
    3764.1001     33.455101     61.830917      2.685012     -0.008924   -999.250000
    3764.2001     34.408142     62.644691      2.675534     -0.007394   -999.250000
    3764.3001     36.133965     63.861847      2.670466     -0.004562   -999.250000
    3764.4001     38.739563     65.589722      2.667964     -0.001651   -999.250000
    3764.5001     41.416229     67.690338      2.666339      0.000407   -999.250000
    3764.6001     43.880852     69.718414      2.664629      0.001208   -999.250000
    3764.7001     46.193230     71.161301      2.663573      0.001016   -999.250000
    3764.8001     48.194199     71.864685      2.665030      0.000579   -999.250000
    3764.9001     49.928955     72.031647      2.668877      0.000046   -999.250000
    3765.0001     51.185730     71.880051      2.672882     -0.000837   -999.250000
    3765.1001     51.360130     71.485046      2.674985     -0.001872   -999.250000
    3765.2001     50.761566     70.916641      2.675021     -0.002464   -999.250000
    3765.3001     50.171272     70.403793      2.673390     -0.002255   -999.250000
    3765.4001     49.825096     70.223679      2.669802     -0.001513   -999.250000
    3765.5001     49.917313     70.354141      2.664351     -0.000842   -999.250000
    3765.6001     50.541885     70.557419      2.657655     -0.000688   -999.250000
    3765.7001     51.309723     70.763580      2.649783     -0.001045   -999.250000
    3765.8001     52.156853     71.028885      2.641499     -0.001567   -999.250000
    3765.9001     53.314377     71.419571      2.634751     -0.001839   -999.250000
    3766.0001     54.462509     72.000473      2.630476     -0.001714   -999.250000
    3766.1001     54.966034     72.719284      2.627629     -0.001315   -999.250000
    3766.2001     54.401917     73.401581      2.626076     -0.000683   -999.250000
    3766.3001     52.784859     73.912354      2.629475      0.000391   -999.250000
    3766.4001     51.049240     74.308228      2.641708      0.001940   -999.250000
    3766.5001     50.363663     74.816727      2.664157      0.003670   -999.250000
    3766.6001     51.141953     75.591415      2.696029      0.005154   -999.250000
    3766.7001     53.183662     76.523575      2.733851      0.006016   -999.250000
    3766.8001     55.634605     77.202286      2.770829      0.006066   -999.250000
    3766.9001     56.626854     77.058136      2.797478      0.005332   -999.250000
    3767.0001     54.741379     75.703278      2.807412      0.003899   -999.250000
    3767.1001     50.119049     73.201096      2.799122      0.001930   -999.250000
    3767.2001     43.740608     70.019516      2.775922     -0.000117   -999.250000
    3767.3001     37.042206     66.691513      2.744773     -0.001758   -999.250000
    3767.4001     32.154572     63.873993      2.714886     -0.002631   -999.250000
    3767.5001     30.306595     62.200958      2.692149     -0.002593   -999.250000
    3767.6001     31.212238     62.074532      2.677740     -0.001951   -999.250000
    3767.7001     33.937843     63.450211      2.671426     -0.001297   -999.250000
    3767.8001     37.433434     65.795074      2.672914     -0.000683   -999.250000
    3767.9001     40.673370     68.304398      2.682168      0.000465   -999.250000
    3768.0001     42.934807     70.324524      2.698615      0.002524   -999.250000
    3768.1001     43.835274     71.539368      2.719013      0.005249   -999.250000
    3768.2001     43.326881     71.841415      2.737787      0.008046   -999.250000
    3768.3001     41.711739     71.244812      2.750627      0.010500   -999.250000
    3768.4001     39.567276     70.006409      2.755630      0.012426   -999.250000
    3768.5001     37.511803     68.539703      2.753160      0.013673   -999.250000
    3768.6001     36.018829     67.208145      2.745384      0.014077   -999.250000
