# LAS format data
~Version Information
VERS.     2.00: CWLS LOG ASCII STANDARD - VERSION 2.0
WRAP.       NO: ONE LINE PER DEPTH STEP
~Well Information
#MNEM   .UNITS    DATA                           DESCRIPTION
#----   ------    ----                           -----------
STRT    .M        81.0000                       :First Index Value
STOP    .M        4879.7006                     :Last Index Value
STEP    .M        0.0000                        :Frame Spacing
NULL    .         -999.2500                     :Absent Value
WELL    .         L05-B-01                      :Well Name   
FLD     .         FINDER_composites_22-02-2005  :Field Name  
CNTY    .                                       :County
STAT    .                                       :State
CTRY    .                                       :Country
LOC     .                                       :Location
API     .                                       :API Number
DATE    .                                       :Date
COMP    .         WIN                           :Company Name
SRVC    .                                       :Service Company
~Parameter Information
#MNEM   .UNITS    VALUE                          DESCRIPTION
#----   ------    -----                          -----------
TDD     .M        4906.00000                    :Total Depth (Driller)   
UBID    .         8552                          :Unique Borehole Id  
PDAT    .         Mean Sea Level                :Permanent Datum 
EPD     .M           0.00000                    :Elevation of Permanent Datum (PDAT) above Mean Sea Level
LMF     .                                       :Logging Measured From (Name of Logging Elevation Reference) 
APD     .M          40.00000                    :Elevation of Depth Reference (LMF) Above Permanent Datum
EKB     .M          40.00000                    :Elevation of Kelly Bushing Above Mean Sea Level 
~Other Information
composite_curve_qc 
~Curve Information
#MNEM   .UNITS    API CODE                       CURVE DESCRIPTION
#----   ------    --------                       -----------------
DEPT    .M                                      :1     Index curve
GR      .GAPI                                   :2     SNAM  
DT      .US/F                                   :3     SNAM  
RHOB    .G/C3                                   :4     SNAM  
DRHO    .G/C3                                   :5     SNAM  
NPHI    .V/V                                    :6     SNAM  
~Ascii Log Data
# ...
    4765.8002     48.886406     60.629990      2.689780     -0.012536      0.095038
    4765.9002     51.719582     60.566139      2.694582     -0.012672      0.098077
    4766.0002     56.258415     61.124352      2.699119     -0.012707      0.099305
    4766.1002     61.609818     61.683723      2.701283     -0.013222      0.099109
    4766.2002     66.627426     61.621223      2.700087     -0.014130      0.097755
    4766.3002     69.939453     60.911964      2.696433     -0.014819      0.096487
    4766.4002     70.899841     60.324989      2.691229     -0.014959      0.097198
    4766.5002     70.118835     60.139229      2.685655     -0.014332      0.099816
    4766.6002     69.437317     60.131134      2.681107     -0.013108      0.102723
    4766.7002     69.480988     60.241386      2.678258     -0.011460      0.105854
    4766.8002     70.468826     60.449974      2.677785     -0.009601      0.107292
    4766.9002     71.710434     60.673584      2.679487     -0.007769      0.105253
    4767.0002     72.298508     60.629936      2.682905     -0.006164      0.101319
    4767.1002     71.863556     60.139366      2.686862     -0.005095      0.097175
    4767.2002     70.849731     59.362297      2.690375     -0.004726      0.094532
    4767.3002     68.946381     58.621689      2.693546     -0.005226      0.096886
    4767.4002     66.223190     58.309807      2.695699     -0.006423      0.104421
    4767.5002     63.554085     58.562843      2.696063     -0.007871      0.112548
    4767.6002     62.362541     59.425026      2.695232     -0.009484      0.119196
    4767.7002     62.646652     60.607056      2.693871     -0.010931      0.122468
    4767.8002     62.753563     61.597504      2.691920     -0.011854      0.122557
    4767.9002     63.331161     62.108948      2.689092     -0.012227      0.120098
    4768.0002     64.143250     62.207779      2.685409     -0.012289      0.116842
    4768.1002     64.148834     62.362961      2.681466     -0.012172      0.113885
    4768.2002     64.585617     63.007401      2.678375     -0.011467      0.111102
    4768.3002     66.269882     64.049500      2.676581     -0.009924      0.107963
    4768.4002     68.267715     64.835022      2.674517     -0.007518      0.104673
    4768.5002     69.684677     65.190918      2.667788     -0.003874      0.103916
    4768.6002     70.481552     65.116577      2.652661      0.000826      0.107115
    4768.7002     71.418381     64.586548      2.627038      0.006301      0.113137
    4768.8002     71.818634     64.201691      2.590491      0.013559      0.118910
    4768.9002     71.910507     64.383911      2.550522      0.024034      0.121009
    4769.0002     73.293808     64.918549      2.519412      0.039273      0.117578
    4769.1002     74.487228     65.507156      2.509029      0.056456      0.111899
    4769.2002     74.108292     65.983414      2.518649      0.071375      0.107453
    4769.3002     72.430588     66.408432      2.541061      0.080164      0.103533
    4769.4002     68.756424     66.640793      2.559375      0.080083      0.096177
    4769.5002     63.416481     66.510941      2.564099      0.073672      0.087669
    4769.6002     57.720764     65.635162      2.554063      0.065952      0.094719
    4769.7002     53.348396     64.738358      2.537858      0.061147      0.125056
    4769.8002     51.174507     64.332687      2.524652      0.060238      0.166481
    4769.9002     53.111382     63.858887      2.524673      0.063618      0.175105
    4770.0002     57.197327     63.250320      2.536945      0.068792      0.165744
    4770.1002     61.306427     62.680054      2.555651      0.073473      0.161933
    4770.2002     65.998932     62.462646      2.582327      0.074305      0.161296
    4770.3002     71.682861     62.193123      2.611194      0.074922      0.162898
    4770.4002     78.575699     61.547951      2.639346      0.078332      0.166766
    4770.5002     87.106094     61.540848      2.645700      0.077046      0.162283
    4770.6002     94.980972     61.838478      2.629101      0.069789      0.152976
    4770.7002    101.240845     62.027687      2.592372      0.057140      0.142768
    4770.8002    104.535110     62.385414      2.538234      0.044993      0.147939
    4770.9002    106.711090     62.847855      2.484616      0.038616      0.154073
    4771.0002    109.217545     63.334930      2.439227      0.040141      0.148159
    4771.1002    112.807388     63.540024      2.410371      0.045745      0.139385
    4771.2002    116.149826     63.416512      2.390909      0.049051      0.134275
    4771.3002    118.076645     62.908768      2.375557      0.045874      0.135562
    4771.4002    119.046249     61.789375      2.378748      0.045324      0.139031
    4771.5002    119.780716     60.409485      2.394015      0.048597      0.143533
    4771.6002    120.586487     59.114822      2.414976      0.054984      0.150142
    4771.7002    119.946075     59.470428      2.435498      0.060991      0.154737
    4771.8002    118.392136     60.799149      2.452823      0.064770      0.158299
    4771.9002    116.807953     62.113243      2.462671      0.063812      0.163319
    4772.0002    113.652313     63.509911      2.467242      0.060882      0.168759
    4772.1002    109.975800     65.051468      2.472038      0.058938      0.173231
    4772.2002    108.530563     66.684067      2.484566      0.062039      0.174111
    4772.3002    107.417206     67.870102      2.504528      0.069142      0.176247
    4772.4002    106.560883     68.443207      2.528350      0.077353      0.183674
    4772.5002    108.739120     67.874405      2.551724      0.081900      0.207422
    4772.6002    111.897568     67.990555      2.578082      0.082531      0.225576
    4772.7002    114.856537     68.994766      2.607561      0.080467      0.231660
    4772.8002    116.673553     69.692841      2.637015      0.076242      0.222418
    4772.9002    117.518753     69.456604      2.669158      0.071422      0.204986
    4773.0000    117.609055     68.391571      2.704576      0.066444      0.184294
    4773.1000    116.320450     66.911987      2.745134      0.059847      0.169347
    4773.2000    115.390213     65.660400      2.773867      0.048101      0.175525
    4773.3000    115.453873     64.851685      2.784667      0.031785      0.200055
    4773.4000    114.988693     64.221024      2.786767      0.022495      0.140898
    4773.5000    115.461304     63.804726      2.787529      0.019674      0.085570
    4773.6000    117.673828     63.653191      2.788836      0.020820      0.089966
    4773.7000    117.318726     63.051117      2.779430      0.020967      0.099504
    4773.8000    115.099533     62.205154      2.758637      0.020938      0.101088
    4773.9000    112.309418     61.385513      2.728343      0.022222      0.099519
    4774.0000    107.753220     60.859070      2.697272      0.024560      0.099357
    4774.1000    104.180466     60.558044      2.673993      0.025855      0.099317
    4774.2000    104.060837     60.405640      2.663290      0.024663      0.097193
    4774.3000    109.009674     60.548622      2.674044      0.022971      0.095594
    4774.4000    116.099670     60.779770      2.693386      0.020202      0.095551
    4774.5000    122.932312     60.884079      2.709027      0.014336      0.096843
    4774.6000    127.245132     60.884735      2.714127      0.005506      0.097441
    4774.7000    129.255219     60.838882      2.712114     -0.003442      0.096662
    4774.8000    129.865875     60.736595      2.708159     -0.009984      0.094884
    4774.9000    129.367645     60.414070      2.705157     -0.013202      0.093952
    4775.0000    127.882660     59.861031      2.703053     -0.014219      0.094074
    4775.1000    124.873367     59.162170      2.699807     -0.013840      0.094153
    4775.2000    120.289764     58.615952      2.692846     -0.013170      0.093876
    4775.3000    114.985962     58.418274      2.681822     -0.012227      0.093540
