# LAS format data
~Version Information
VERS.     2.00: CWLS LOG ASCII STANDARD - VERSION 2.0
WRAP.       NO: ONE LINE PER DEPTH STEP
~Well Information
#MNEM   .UNITS    DATA                           DESCRIPTION
#----   ------    ----                           -----------
STRT    .M        81.0000                       :First Index Value
STOP    .M        4879.7006                     :Last Index Value
STEP    .M        0.0000                        :Frame Spacing
NULL    .         -999.2500                     :Absent Value
WELL    .         L05-B-01                      :Well Name   
FLD     .         FINDER_composites_22-02-2005  :Field Name  
CNTY    .                                       :County
STAT    .                                       :State
CTRY    .                                       :Country
LOC     .                                       :Location
API     .                                       :API Number
DATE    .                                       :Date
COMP    .         WIN                           :Company Name
SRVC    .                                       :Service Company
~Parameter Information
#MNEM   .UNITS    VALUE                          DESCRIPTION
#----   ------    -----                          -----------
TDD     .M        4906.00000                    :Total Depth (Driller)   
UBID    .         8552                          :Unique Borehole Id  
PDAT    .         Mean Sea Level                :Permanent Datum 
EPD     .M           0.00000                    :Elevation of Permanent Datum (PDAT) above Mean Sea Level
LMF     .                                       :Logging Measured From (Name of Logging Elevation Reference) 
APD     .M          40.00000                    :Elevation of Depth Reference (LMF) Above Permanent Datum
EKB     .M          40.00000                    :Elevation of Kelly Bushing Above Mean Sea Level 
~Other Information
composite_curve_qc 
~Curve Information
#MNEM   .UNITS    API CODE                       CURVE DESCRIPTION
#----   ------    --------                       -----------------
DEPT    .M                                      :1     Index curve
GR      .GAPI                                   :2     SNAM  
DT      .US/F                                   :3     SNAM  
RHOB    .G/C3                                   :4     SNAM  
DRHO    .G/C3                                   :5     SNAM  
NPHI    .V/V                                    :6     SNAM  
~Ascii Log Data
# ...
    4660.2006    103.006760     66.342697      2.770545      0.107658      0.122616
    4660.3006    107.428680     67.128342      2.778525      0.111583      0.112311
    4660.4006    109.771545     67.327042      2.772927      0.100005      0.100883
    4660.5006    110.014648     67.504257      2.756741      0.083643      0.095753
    4660.6006    108.471008     67.980957      2.730319      0.063295      0.097507
    4660.7006    106.218201     68.821381      2.699041      0.040065      0.101503
    4660.8006    103.964264     69.710587      2.671706      0.018025      0.103438
    4660.9006    102.024338     70.158905      2.657382      0.002768      0.103678
    4661.0006    100.329697     69.763412      2.655201     -0.004994      0.103847
    4661.1006     98.749298     68.499832      2.655327     -0.009666      0.102634
    4661.2006     97.283325     66.900177      2.653836     -0.013057      0.099263
    4661.3006     95.978058     65.828659      2.651763     -0.015555      0.094446
    4661.4006     95.033951     65.503448      2.652395     -0.015999      0.089694
    4661.5006     94.891205     65.858597      2.655632     -0.014783      0.086351
    4661.6006     95.971695     66.359573      2.658585     -0.013544      0.085985
    4661.7006     98.618118     66.734680      2.660556     -0.012366      0.091384
    4661.8006    102.128616     67.144180      2.661309     -0.011415      0.102353
    4661.9006    104.898056     67.886612      2.661561     -0.010795      0.114040
    4662.0006    106.273956     68.623520      2.661951     -0.010572      0.121898
    4662.1006    106.580368     69.176605      2.662853     -0.010723      0.123031
    4662.2006    106.946915     69.717285      2.664044     -0.011130      0.119495
    4662.3006    107.659973     70.494766      2.665298     -0.011760      0.116298
    4662.4006    109.591568     71.369370      2.667060     -0.012284      0.119969
    4662.5006    112.994598     71.895248      2.669824     -0.012388      0.131183
    4662.6006    116.131958     72.057068      2.672746     -0.012350      0.140938
    4662.7006    118.037231     71.936966      2.675306     -0.012478      0.140841
    4662.8006    119.282013     71.648056      2.677317     -0.012708      0.134004
    4662.9006    119.969498     71.351181      2.677558     -0.012339      0.137826
    4663.0006    120.495438     71.836288      2.676960     -0.010776      0.154523
    4663.1006    121.247833     73.607437      2.678593     -0.008138      0.166400
    4663.2006    122.473358     75.049149      2.685758     -0.005103      0.166174
    4663.3006    123.521515     75.466461      2.697640     -0.002637      0.155901
    4663.4006    123.299774     75.836166      2.710017     -0.001218      0.143417
    4663.5006    121.832901     75.989105      2.717365     -0.001400      0.131438
    4663.6006    119.141022     75.843994      2.718433     -0.003007      0.121098
    4663.7006    114.096664     75.526855      2.716207     -0.005797      0.111122
    4663.8006    105.052322     74.796188      2.711474     -0.009613      0.100039
    4663.9006     93.054199     73.673264      2.707407     -0.013320      0.087225
    4664.0006     79.987427     72.339264      2.708205     -0.015421      0.072581
    4664.1006     68.704956     70.944809      2.710046     -0.015447      0.061235
    4664.2006     60.442932     69.474396      2.710991     -0.013944      0.054365
    4664.3006     55.417564     67.605133      2.714791     -0.010883      0.048984
    4664.4006     51.610634     65.421524      2.718010     -0.006345      0.050295
    4664.5006     47.590370     63.205101      2.717099     -0.000596      0.060176
    4664.6006     44.294434     61.393097      2.708808      0.006693      0.077308
    4664.7006     44.546410     59.646851      2.700403      0.016161      0.081420
    4664.8006     48.980988     57.765785      2.695297      0.026351      0.068413
    4664.9006     57.994965     56.416168      2.687247      0.029823      0.058807
    4665.0006     67.750732     56.626907      2.681942      0.028814      0.055179
    4665.1006     76.194550     58.302551      2.682147      0.026607      0.053697
    4665.2006     80.827515     59.636269      2.683317      0.022895      0.052887
    4665.3006     82.805588     60.842934      2.682515      0.017657      0.052141
    4665.4006     83.461075     62.343117      2.679504      0.011201      0.051448
    4665.5006     82.833923     63.678146      2.676142      0.003643      0.051148
    4665.6006     82.271423     65.049347      2.676733     -0.003075      0.051485
    4665.7006     82.373596     66.627975      2.682839     -0.008082      0.052503
    4665.8006     84.277802     67.240158      2.694530     -0.010312      0.053259
    4665.9006     87.186981     67.270157      2.708553     -0.010920      0.052731
    4666.0006     90.510010     67.056198      2.723066     -0.010439      0.050464
    4666.1006     90.636215     66.231628      2.734334     -0.009341      0.048624
    4666.2006     88.028656     65.300720      2.740194     -0.007742      0.047484
    4666.3006     83.262177     64.666489      2.738774     -0.005542      0.046886
    4666.4006     78.108383     66.085754      2.729749     -0.002534      0.046317
    4666.5006     73.025162     67.344040      2.716932      0.000965      0.045609
    4666.6006     68.016830     66.170746      2.702313      0.004728      0.044742
    4666.7006     62.116463     64.660126      2.690817      0.013916      0.044127
    4666.8006     56.186401     63.519295      2.684298      0.026627      0.043802
    4666.9006     51.491150     62.765625      2.685264      0.040424      0.043786
    4667.0006     50.785019     62.053352      2.689117      0.048858      0.043748
    4667.1006     53.329666     61.520340      2.693271      0.051041      0.042903
    4667.2006     59.116333     61.608620      2.697133      0.044935      0.039709
    4667.3006     65.454529     61.822517      2.696306      0.032746      0.039334
    4667.4006     70.873550     62.027603      2.692482      0.018486      0.043270
    4667.5006     74.213791     62.438835      2.689274      0.004546      0.054551
    4667.6006     75.501740     62.625832      2.687143     -0.006568      0.066046
    4667.7006     75.649826     62.561378      2.686436     -0.014497      0.075352
    4667.8006     75.518463     62.441292      2.690405     -0.017174      0.082927
    4667.9006     76.362885     62.516205      2.694281     -0.017292      0.086193
    4668.0006     78.266678     62.803772      2.696287     -0.016679      0.085421
    4668.1006     81.005661     63.301865      2.696696     -0.015829      0.080859
    4668.2006     82.616409     63.678604      2.698081     -0.014438      0.080442
    4668.3006     82.630569     63.893196      2.701089     -0.012563      0.086221
    4668.4006     80.761856     64.529785      2.704462     -0.011815      0.097361
    4668.5006     78.588455     65.210297      2.706743     -0.012068      0.105875
    4668.6006     76.887573     65.658401      2.707723     -0.012820      0.108946
    4668.7006     76.926865     65.264297      2.707779     -0.012824      0.107111
    4668.8006     76.639664     64.647552      2.705415     -0.010927      0.105281
    4668.9006     74.612213     64.223816      2.699944     -0.007004      0.105454
    4669.0006     67.898819     63.708351      2.694458     -0.004514      0.101572
    4669.1006     58.452080     63.346283      2.690135     -0.004098      0.096892
    4669.2006     48.317932     63.390312      2.687317     -0.005092      0.095139
    4669.3006     39.511696     63.270042      2.694149     -0.005087      0.088871
    4669.4006     33.062187     62.734467      2.707535     -0.004014      0.078176
    4669.5006     29.528366     61.914581      2.721282     -0.003007      0.066859
    4669.6006     28.338684     62.052460      2.726501     -0.003777      0.062243
    4669.7006     28.410229     62.635117      2.721080     -0.005900      0.061280
