# LAS format data
~Version Information
VERS.     2.00: CWLS LOG ASCII STANDARD - VERSION 2.0
WRAP.       NO: ONE LINE PER DEPTH STEP
~Well Information
#MNEM   .UNITS    DATA                           DESCRIPTION
#----   ------    ----                           -----------
STRT    .M        81.0000                       :First Index Value
STOP    .M        4879.7006                     :Last Index Value
STEP    .M        0.0000                        :Frame Spacing
NULL    .         -999.2500                     :Absent Value
WELL    .         L05-B-01                      :Well Name   
FLD     .         FINDER_composites_22-02-2005  :Field Name  
CNTY    .                                       :County
STAT    .                                       :State
CTRY    .                                       :Country
LOC     .                                       :Location
API     .                                       :API Number
DATE    .                                       :Date
COMP    .         WIN                           :Company Name
SRVC    .                                       :Service Company
~Parameter Information
#MNEM   .UNITS    VALUE                          DESCRIPTION
#----   ------    -----                          -----------
TDD     .M        4906.00000                    :Total Depth (Driller)   
UBID    .         8552                          :Unique Borehole Id  
PDAT    .         Mean Sea Level                :Permanent Datum 
EPD     .M           0.00000                    :Elevation of Permanent Datum (PDAT) above Mean Sea Level
LMF     .                                       :Logging Measured From (Name of Logging Elevation Reference) 
APD     .M          40.00000                    :Elevation of Depth Reference (LMF) Above Permanent Datum
EKB     .M          40.00000                    :Elevation of Kelly Bushing Above Mean Sea Level 
~Other Information
composite_curve_qc 
~Curve Information
#MNEM   .UNITS    API CODE                       CURVE DESCRIPTION
#----   ------    --------                       -----------------
DEPT    .M                                      :1     Index curve
GR      .GAPI                                   :2     SNAM  
DT      .US/F                                   :3     SNAM  
RHOB    .G/C3                                   :4     SNAM  
DRHO    .G/C3                                   :5     SNAM  
NPHI    .V/V                                    :6     SNAM  
~Ascii Log Data
# ...
    4602.6000     82.521591     53.697762   -999.250000   -999.250000      0.266928
    4602.7000     82.802673     54.226341   -999.250000   -999.250000      0.266325
    4602.8000     83.749298     54.448250   -999.250000   -999.250000      0.263175
    4602.9000     84.891937     54.133560   -999.250000   -999.250000      0.257315
    4603.0000     87.766235     54.296906   -999.250000   -999.250000      0.254573
    4603.1000     91.414261     54.616791   -999.250000   -999.250000      0.254374
    4603.2000     95.102264     54.579666   -999.250000   -999.250000      0.255378
    4603.3000     99.316589     54.224258   -999.250000   -999.250000      0.258218
    4603.4000    102.590118     53.783073   -999.250000   -999.250000      0.261285
    4603.5000    102.676331     53.385056   -999.250000   -999.250000      0.262776
    4603.6000    100.921997     53.392746   -999.250000   -999.250000      0.263528
    4603.7000     98.450424     53.883011   -999.250000   -999.250000      0.263393
    4603.8000     95.594254     55.173805   -999.250000   -999.250000      0.260646
    4603.9000     93.052170     56.519722   -999.250000   -999.250000      0.254748
    4604.0000     90.729218     57.529709   -999.250000   -999.250000      0.248838
    4604.1000     88.346085     57.522537   -999.250000   -999.250000      0.250771
    4604.2000     86.621246     57.153999   -999.250000   -999.250000      0.252215
    4604.3000     85.703461     56.795425   -999.250000   -999.250000      0.249398
    4604.4000     86.319351     56.701317   -999.250000   -999.250000      0.237173
    4604.5000     87.972168     56.725220   -999.250000   -999.250000      0.226578
    4604.6000     90.082611     56.944946   -999.250000   -999.250000      0.222669
    4604.7000     91.862411     58.653435   -999.250000   -999.250000      0.232075
    4604.8000     93.281235     59.987518   -999.250000   -999.250000      0.245897
    4604.9000     94.479736     60.235588   -999.250000   -999.250000      0.258840
    4605.0000     95.878906     61.085091   -999.250000   -999.250000      0.265088
    4605.1000     96.268005     61.667175   -999.250000   -999.250000      0.267035
    4605.2000     95.110870     61.350060   -999.250000   -999.250000      0.266841
    4605.3000     91.938354     59.956276   -999.250000   -999.250000      0.268343
    4605.4000     87.804199     59.404030   -999.250000   -999.250000      0.270491
    4605.5000     83.268845     60.690880   -999.250000   -999.250000      0.271983
    4605.6000     79.581390     61.000824   -999.250000   -999.250000      0.272954
    4605.7000     76.677811     60.429764   -999.250000   -999.250000      0.274378
    4605.8000     74.371689     59.934898   -999.250000   -999.250000      0.276618
    4605.9000     73.183945     60.056168   -999.250000   -999.250000      0.274644
    4606.0000     72.834412     60.585159   -999.250000   -999.250000      0.270581
    4606.1000     73.033478     61.119431   -999.250000   -999.250000      0.268247
    4606.2000     74.488708     61.210205   -999.250000   -999.250000      0.264249
    4606.3000     77.429642     60.923248   -999.250000   -999.250000      0.260974
    4606.4000     82.077087     60.549438   -999.250000   -999.250000      0.263611
    4606.5000     88.248688     60.364449   -999.250000   -999.250000      0.270198
    4606.6000     94.663956     60.240417   -999.250000   -999.250000      0.276648
    4606.7000    100.375778     59.815224   -999.250000   -999.250000      0.281332
    4606.8000    104.481476     59.445930   -999.250000   -999.250000      0.284732
    4606.9000    107.086838     59.467644   -999.250000   -999.250000      0.287118
    4607.0000    108.747360     59.931114   -999.250000   -999.250000      0.286920
    4607.1000    109.624115     60.924103   -999.250000   -999.250000      0.282632
    4607.2000    109.413101     62.258644   -999.250000   -999.250000      0.275266
    4607.3000    106.673859     63.570770   -999.250000   -999.250000      0.266908
    4607.4000    100.581085     64.571655   -999.250000   -999.250000      0.256473
    4607.5000     92.051865     65.237457   -999.250000   -999.250000      0.243751
    4607.6000     82.653091     65.641083   -999.250000   -999.250000      0.232602
    4607.7000     74.341599     65.915405   -999.250000   -999.250000      0.225048
    4607.8000     68.242035     66.029877   -999.250000   -999.250000      0.218628
    4607.9000     64.439621     65.536682   -999.250000   -999.250000      0.209266
    4608.0000     62.336433     64.618988   -999.250000   -999.250000      0.200743
    4608.1000     60.668808     63.933548   -999.250000   -999.250000      0.198864
    4608.2000     59.503616     63.709908   -999.250000   -999.250000      0.200702
    4608.3000     59.762878     63.985229   -999.250000   -999.250000      0.203962
    4608.4000     62.653542     64.529480   -999.250000   -999.250000      0.206078
    4608.5000     69.012543     65.354721   -999.250000   -999.250000      0.200468
    4608.6000     78.282745     66.406265   -999.250000   -999.250000      0.187356
    4608.7000     88.032578     67.504303   -999.250000   -999.250000      0.177442
    4608.8000     94.937927     68.276611   -999.250000   -999.250000      0.178922
    4608.9000     97.419601     68.631836   -999.250000   -999.250000      0.182792
    4609.0000     97.291672     68.868073   -999.250000   -999.250000      0.171103
    4609.1000     95.060562     68.970245   -999.250000   -999.250000      0.159330
    4609.2000     91.753403     69.053375   -999.250000   -999.250000      0.158543
    4609.3000     88.184753     69.243683      2.485675      0.061233      0.158700
    4609.4000     85.300476     69.279877      2.482826      0.051101      0.156290
    4609.5000     83.935013     68.876541      2.483629      0.042760      0.152002
    4609.6000     84.255646     68.174240      2.484703      0.035367      0.149463
    4609.7000     86.346344     67.754318      2.484109      0.027051      0.143494
    4609.8008     89.059479     67.669571      2.483700      0.018494      0.129119
    4609.9008     90.721848     67.060181      2.489308      0.013656      0.108034
    4610.0008     90.709061     66.332123      2.501088      0.011289      0.085650
    4610.1008     89.568954     66.223099      2.515450      0.008615      0.070332
    4610.2008     88.169571     66.705551      2.530982      0.005628      0.065343
    4610.3008     86.943130     67.237823      2.543377      0.001724      0.066881
    4610.4008     86.172943     67.531052      2.550319     -0.002829      0.067540
    4610.5008     86.267899     68.183243      2.555398     -0.006574      0.065946
    4610.6008     87.750702     68.546539      2.564067     -0.008947      0.063870
    4610.7008     90.922546     68.219681      2.578216     -0.010293      0.063689
    4610.8008     96.706329     68.100571      2.594251     -0.010780      0.065422
    4610.9008    103.944885     67.189743      2.609079     -0.010619      0.066976
    4611.0008    110.541641     65.228973      2.620780     -0.010406      0.067302
    4611.1008    114.522415     65.447815      2.625953     -0.011523      0.069457
    4611.2008    114.972168     66.802185      2.627867     -0.013730      0.072726
    4611.3008    112.531113     67.011368      2.630867     -0.016134      0.074935
    4611.4008    107.224686     66.704330      2.632452     -0.018843      0.074907
    4611.5008    100.468719     66.549988      2.631668     -0.021676      0.072669
    4611.6008     93.338989     66.679886      2.629122     -0.024517      0.069173
    4611.7008     86.763000     66.032547      2.625657     -0.027334      0.067728
    4611.8008     81.809006     65.062912      2.622439     -0.029702      0.067761
    4611.9008     78.878494     64.583420      2.620022     -0.031294      0.067500
    4612.0008     78.342575     65.176224      2.619733     -0.031345      0.067797
    4612.1008     78.692719     66.307602      2.621410     -0.030566      0.070993
