# LAS format data
~Version Information
VERS.     2.00: CWLS LOG ASCII STANDARD - VERSION 2.0
WRAP.       NO: ONE LINE PER DEPTH STEP
~Well Information
#MNEM   .UNITS    DATA                           DESCRIPTION
#----   ------    ----                           -----------
STRT    .M        63.1000                       :First Index Value
STOP    .M        4298.0000                     :Last Index Value
STEP    .M        0.0000                        :Frame Spacing
NULL    .         -999.2500                     :Absent Value
WELL    .         L05-07                        :Well Name   
FLD     .         FINDER_composites_22-02-2005  :Field Name  
CNTY    .                                       :County
STAT    .                                       :State
CTRY    .                                       :Country
LOC     .                                       :Location
API     .                                       :API Number
DATE    .                                       :Date
COMP    .         MOB                           :Company Name
SRVC    .                                       :Service Company
~Parameter Information
#MNEM   .UNITS    VALUE                          DESCRIPTION
#----   ------    -----                          -----------
TDD     .M        4287.00000                    :Total Depth (Driller)   
UBID    .         8132                          :Unique Borehole Id  
PDAT    .         Mean Sea Level                :Permanent Datum 
EPD     .M           0.00000                    :Elevation of Permanent Datum (PDAT) above Mean Sea Level
LMF     .         Rotary Table                  :Logging Measured From (Name of Logging Elevation Reference) 
APD     .M          36.80000                    :Elevation of Depth Reference (LMF) Above Permanent Datum
EGL     .M         -37.20000                    :Elevation of Ground Level Above Mean Sea Level  
~Curve Information
#MNEM   .UNITS    API CODE                       CURVE DESCRIPTION
#----   ------    --------                       -----------------
DEPT    .M                                      :1     Index curve
GR      .GAPI                                   :2     L05-07
DT      .US/F                                   :3     L05-07
RHOB    .G/C3                                   :4     L05-07
DRHO    .G/C3                                   :5     L05-07
NPHI    .V/V                                    :6     L05-07
~Ascii Log Data
# ...
    2914.3003     86.082382     85.614594      2.742451     -0.008009   -999.250000
    2914.4003     86.211029     85.327209      2.732162     -0.009312   -999.250000
    2914.5003     85.871628     85.260101      2.705695     -0.010365   -999.250000
    2914.6003     85.266937     85.467361      2.673963     -0.009848   -999.250000
    2914.7003     84.694916     85.974274      2.643782     -0.007769   -999.250000
    2914.8003     84.762634     86.588516      2.617080     -0.005041   -999.250000
    2914.9003     85.761444     87.009583      2.597750     -0.002340   -999.250000
    2915.0003     87.088577     87.185593      2.589012      0.000207   -999.250000
    2915.1003     88.552521     87.268967      2.589027      0.002600   -999.250000
    2915.2003     90.402832     87.347870      2.592040      0.004633   -999.250000
    2915.3003     92.075684     87.412186      2.593410      0.005961   -999.250000
    2915.4003     93.149200     87.484268      2.591487      0.006173   -999.250000
    2915.5003     93.956360     87.577682      2.587188      0.005210   -999.250000
    2915.6003     94.170258     87.586594      2.583268      0.003554   -999.250000
    2915.7003     93.374146     87.468155      2.582381      0.001789   -999.250000
    2915.8003     92.070908     87.332230      2.584825      0.000095   -999.250000
    2915.9003     90.722565     87.230911      2.588623     -0.001440   -999.250000
    2916.0003     89.213654     87.127045      2.591327     -0.002657   -999.250000
    2916.1003     87.521805     87.010651      2.591758     -0.003436   -999.250000
    2916.2003     86.413467     86.909180      2.590154     -0.003631   -999.250000
    2916.3003     86.339874     86.839920      2.587544     -0.003365   -999.250000
    2916.4003     86.981735     86.794449      2.585187     -0.002991   -999.250000
    2916.5003     88.295029     86.746246      2.584578     -0.002575   -999.250000
    2916.6003     89.872620     86.715912      2.586787     -0.002006   -999.250000
    2916.7003     90.405411     86.797577      2.591574     -0.001522   -999.250000
    2916.8003     89.672882     86.996811      2.595830     -0.001806   -999.250000
    2916.9003     88.477524     87.023041      2.597410     -0.003083   -999.250000
    2917.0003     87.104843     86.369659      2.598726     -0.004687   -999.250000
    2917.1003     86.217606     85.177353      2.603103     -0.005748   -999.250000
    2917.2003     86.236298     83.983932      2.612746     -0.005837   -999.250000
    2917.3003     86.206131     83.040726      2.628282     -0.004847   -999.250000
    2917.4003     85.614105     82.411026      2.643313     -0.003599   -999.250000
    2917.5003     84.505997     82.087860      2.649676     -0.003029   -999.250000
    2917.6003     82.270615     82.122253      2.642116     -0.003189   -999.250000
    2917.7003     80.179596     82.501694      2.623134     -0.003792   -999.250000
    2917.8003     80.405807     83.201050      2.598939     -0.004586   -999.250000
    2917.9003     83.283325     84.121262      2.581639     -0.004683   -999.250000
    2918.0003     88.199036     85.088593      2.575310     -0.003597   -999.250000
    2918.1003     93.904602     85.874054      2.576595     -0.001540   -999.250000
    2918.2003     96.942123     86.380737      2.584620      0.001239   -999.250000
    2918.3003     96.602524     86.642899      2.594391      0.003784   -999.250000
    2918.4003     95.150116     86.672501      2.598052      0.004600   -999.250000
    2918.5003     93.884369     86.654831      2.598375      0.004100   -999.250000
    2918.6003     93.739716     86.816803      2.597391      0.003195   -999.250000
    2918.7003     95.493668     87.255905      2.591231      0.002157   -999.250000
    2918.8003     97.737061     87.761841      2.578277      0.001479   -999.250000
    2918.9003     98.663376     88.144379      2.562225      0.001543   -999.250000
    2919.0003     97.784897     88.512314      2.547427      0.002378   -999.250000
    2919.1001     95.245880     88.752029      2.540528      0.002582   -999.250000
    2919.2001     91.926849     88.849060      2.543504      0.001764   -999.250000
    2919.3001     88.237625     89.090515      2.552040      0.001687   -999.250000
    2919.4001     85.402008     89.279205      2.562691      0.002177   -999.250000
    2919.5001     84.070923     89.189957      2.571056      0.002314   -999.250000
    2919.6001     83.072403     88.884064      2.574027      0.001541   -999.250000
    2919.7001     82.048752     88.645767      2.574985     -0.000495   -999.250000
    2919.8001     81.392715     88.590103      2.577847     -0.002746   -999.250000
    2919.9001     81.782776     88.381943      2.582780     -0.002556   -999.250000
    2920.0001     83.634262     88.092239      2.587522     -0.000607   -999.250000
    2920.1001     86.406265     87.957062      2.590588      0.001035   -999.250000
    2920.2001     89.169983     87.964539      2.593790      0.002779   -999.250000
    2920.3001     91.469482     88.107498      2.597637      0.004135   -999.250000
    2920.4001     93.292938     88.362823      2.600787      0.004211   -999.250000
    2920.5001     94.294067     88.651978      2.601183      0.002900   -999.250000
    2920.6001     94.482132     88.809448      2.599343      0.000798   -999.250000
    2920.7001     94.068771     88.757385      2.595794     -0.000994   -999.250000
    2920.8001     92.468582     88.559402      2.585927     -0.000953   -999.250000
    2920.9001     90.389633     88.325699      2.570351     -0.000206   -999.250000
    2921.0001     89.273529     88.062912      2.553329     -0.001054   -999.250000
    2921.1001     89.903931     87.712509      2.538517     -0.003454   -999.250000
    2921.2001     91.561996     87.419861      2.531735     -0.005117   -999.250000
    2921.3001     93.059006     87.399506      2.536718     -0.004460   -999.250000
    2921.4001     93.775803     87.670715      2.550439     -0.002641   -999.250000
    2921.5001     93.693115     88.050629      2.565606     -0.002261   -999.250000
    2921.6001     93.217651     88.339584      2.578057     -0.004200   -999.250000
    2921.7001     93.056320     88.408615      2.587334     -0.006523   -999.250000
    2921.8001     93.546204     88.270828      2.593679     -0.007707   -999.250000
    2921.9001     94.387009     88.023346      2.595918     -0.007999   -999.250000
    2922.0001     95.098495     87.754654      2.594520     -0.007777   -999.250000
    2922.1001     95.537079     87.469131      2.590373     -0.006951   -999.250000
    2922.2001     95.749023     87.168350      2.583271     -0.005083   -999.250000
    2922.3001     95.658417     86.932678      2.572197     -0.001535   -999.250000
    2922.4001     95.225220     86.804123      2.553412      0.003646   -999.250000
    2922.5001     94.440674     86.709045      2.524198      0.009832   -999.250000
    2922.6001     93.140839     86.572845      2.490443      0.016368   -999.250000
    2922.7001     91.386246     86.449692      2.461772      0.021504   -999.250000
    2922.8001     89.474655     86.441223      2.444154      0.023238   -999.250000
    2922.9001     87.468399     86.532349      2.442299      0.021984   -999.250000
    2923.0001     85.589996     86.670883      2.458160      0.019331   -999.250000
    2923.1001     84.323441     86.885529      2.485522      0.015435   -999.250000
    2923.2001     83.630264     87.191132      2.514033      0.009648   -999.250000
    2923.3001     83.230255     87.510635      2.537057      0.002706   -999.250000
    2923.4001     83.138123     87.816544      2.552591     -0.003443   -999.250000
    2923.5001     83.321930     88.198990      2.559845     -0.007577   -999.250000
    2923.6001     83.643433     88.568542      2.560756     -0.009427   -999.250000
    2923.7001     84.113007     88.618271      2.560977     -0.009006   -999.250000
    2923.8001     84.638474     88.310730      2.563434     -0.006933   -999.250000
