# LAS format data
~Version Information
VERS.     2.00: CWLS LOG ASCII STANDARD - VERSION 2.0
WRAP.       NO: ONE LINE PER DEPTH STEP
~Well Information
#MNEM   .UNITS    DATA                           DESCRIPTION
#----   ------    ----                           -----------
STRT    .M        63.1000                       :First Index Value
STOP    .M        4298.0000                     :Last Index Value
STEP    .M        0.0000                        :Frame Spacing
NULL    .         -999.2500                     :Absent Value
WELL    .         L05-07                        :Well Name   
FLD     .         FINDER_composites_22-02-2005  :Field Name  
CNTY    .                                       :County
STAT    .                                       :State
CTRY    .                                       :Country
LOC     .                                       :Location
API     .                                       :API Number
DATE    .                                       :Date
COMP    .         MOB                           :Company Name
SRVC    .                                       :Service Company
~Parameter Information
#MNEM   .UNITS    VALUE                          DESCRIPTION
#----   ------    -----                          -----------
TDD     .M        4287.00000                    :Total Depth (Driller)   
UBID    .         8132                          :Unique Borehole Id  
PDAT    .         Mean Sea Level                :Permanent Datum 
EPD     .M           0.00000                    :Elevation of Permanent Datum (PDAT) above Mean Sea Level
LMF     .         Rotary Table                  :Logging Measured From (Name of Logging Elevation Reference) 
APD     .M          36.80000                    :Elevation of Depth Reference (LMF) Above Permanent Datum
EGL     .M         -37.20000                    :Elevation of Ground Level Above Mean Sea Level  
~Curve Information
#MNEM   .UNITS    API CODE                       CURVE DESCRIPTION
#----   ------    --------                       -----------------
DEPT    .M                                      :1     Index curve
GR      .GAPI                                   :2     L05-07
DT      .US/F                                   :3     L05-07
RHOB    .G/C3                                   :4     L05-07
DRHO    .G/C3                                   :5     L05-07
NPHI    .V/V                                    :6     L05-07
~Ascii Log Data
# ...
    4277.5000     56.581161     69.574112      2.447826      0.004633      0.050642
    4277.6000     57.175461     69.604691      2.444832      0.003387      0.032862
    4277.7000     56.847389     69.910049      2.445395      0.001848      0.017997
    4277.8000     55.560905     70.075760      2.451661      0.000209      0.009059
    4277.9000     55.184547     68.808762      2.462654     -0.000874      0.005144
    4278.0000     56.261093     66.051422      2.475163     -0.001407      0.003356
    4278.1000     56.496300     63.850891      2.484872     -0.002165      0.002680
    4278.2000     56.193260     62.414238      2.489773     -0.003037      0.002870
    4278.3000     56.396965     61.118401      2.489377     -0.003488      0.004213
    4278.4000     56.704948     60.575180      2.478696     -0.002813      0.008311
    4278.5000     57.235916     60.659096      2.460252     -0.001741      0.019871
    4278.6000     58.090721     60.820038      2.438833     -0.001290      0.039621
    4278.7000     58.588531     60.909294      2.413721     -0.002148      0.061926
    4278.8000     58.718330     61.867287      2.391832     -0.002766      0.084225
    4278.9000     58.850441     64.128983      2.381540     -0.001753      0.102446
    4279.0000     59.502914     66.863220      2.381960      0.000180      0.109769
    4279.1000     60.455032     69.603546      2.390316      0.001189      0.110373
    4279.2000     61.029297     72.060349      2.402985      0.000400      0.110895
    4279.3000     60.416092     73.808105      2.416279     -0.000069      0.108669
    4279.4000     59.314827     74.756409      2.426185      0.000144      0.107067
    4279.5000     58.886055     74.944855      2.430282      0.000154      0.110310
    4279.6000     59.039993     74.538956      2.430940      0.000172      0.113932
    4279.7000     59.630821     74.074722      2.430480     -0.000111      0.116340
    4279.8000     60.499146     74.000656      2.430722     -0.000800      0.118907
    4279.9000     61.124359     74.077606      2.435075     -0.000084      0.119496
    4280.0000     61.558388     73.983200      2.438446      0.001392      0.119904
    4280.1000     61.902435     73.717178      2.433078      0.001284      0.123306
    4280.2000     60.860573     73.648209      2.422435     -0.000522      0.125537
    4280.3000     58.899948     73.725662      2.413632     -0.003115      0.123370
    4280.4000     57.718842     73.572678      2.411615     -0.005386      0.117762
    4280.5000     57.407745     73.282364      2.421857     -0.005432      0.110117
    4280.6000     57.674133     73.144424      2.440187     -0.003428      0.103114
    4280.7000     58.551933     73.155731      2.455774     -0.001511      0.098769
    4280.8000     59.320168     72.997849      2.460427     -0.001077      0.097081
    4280.9000     59.577385     72.615280      2.452338     -0.002433      0.098416
    4281.0000     59.891205     72.327301      2.434724     -0.005180      0.104370
    4281.1000     60.692932     72.327103      2.415691     -0.008069      0.114244
    4281.2000     61.649796     72.554306      2.402336     -0.010284      0.125598
    4281.3000     62.142357     72.939163      2.395832     -0.012195      0.136719
    4281.4000     62.007751     73.548904      2.395751     -0.013912      0.145398
    4281.5000     61.518974     74.443420      2.400289     -0.014715      0.150483
    4281.6000   -999.250000   -999.250000      2.406216     -0.013571      0.151868
    4281.7000   -999.250000   -999.250000      2.409456     -0.010619      0.149796
    4281.8000   -999.250000   -999.250000      2.407937     -0.007357      0.145498
    4281.9000   -999.250000   -999.250000      2.402486     -0.005091      0.141121
    4282.0000   -999.250000   -999.250000      2.395817     -0.003660      0.138338
    4282.1000   -999.250000   -999.250000      2.390435     -0.002731      0.137825
    4282.2000   -999.250000   -999.250000      2.387925     -0.003205      0.139837
    4282.3000   -999.250000   -999.250000      2.388810     -0.005510      0.143215
    4282.4000   -999.250000   -999.250000      2.393960     -0.008568      0.145734
    4282.5000   -999.250000   -999.250000      2.404242     -0.010733      0.145539
    4282.6000   -999.250000   -999.250000      2.417603     -0.011472      0.142223
    4282.7000   -999.250000   -999.250000      2.428205     -0.011925      0.136954
    4282.8000   -999.250000   -999.250000      2.431065     -0.013536      0.132241
    4282.9000   -999.250000   -999.250000      2.427003     -0.015808      0.130186
    4283.0000   -999.250000   -999.250000      2.421177     -0.016924      0.130584
    4283.1000   -999.250000   -999.250000      2.418603     -0.016207      0.130749
    4283.2000   -999.250000   -999.250000      2.421118     -0.014465      0.128455
    4283.3000   -999.250000   -999.250000      2.428501     -0.012700      0.122699
    4283.4000   -999.250000   -999.250000      2.440314     -0.011299      0.112561
    4283.5000   -999.250000   -999.250000      2.455028     -0.009959      0.099114
    4283.6000   -999.250000   -999.250000      2.469517     -0.008200      0.086048
    4283.7000   -999.250000   -999.250000      2.480144     -0.006079      0.077187
    4283.8000   -999.250000   -999.250000      2.483461     -0.004192      0.075304
    4283.9000   -999.250000   -999.250000      2.478233     -0.002931      0.081006
    4284.0000   -999.250000   -999.250000      2.466981     -0.002093      0.092218
    4284.1000   -999.250000   -999.250000      2.455142     -0.001082      0.105232
    4284.2000   -999.250000   -999.250000      2.447297      0.000417      0.116225
    4284.3000   -999.250000   -999.250000      2.443891      0.001787      0.122614
    4284.4000   -999.250000   -999.250000      2.440804      0.001425      0.125766
    4284.5000   -999.250000   -999.250000      2.431663     -0.003345      0.129136
    4284.6000   -999.250000   -999.250000      2.413356     -0.014584      0.133782
    4284.7000   -999.250000   -999.250000      2.392043     -0.030403      0.140034
    4284.8000   -999.250000   -999.250000      2.380234     -0.045249      0.150008
    4284.9000   -999.250000   -999.250000      2.385591     -0.054672      0.164203
    4285.0000   -999.250000   -999.250000      2.406662     -0.057293      0.179582
    4285.1000   -999.250000   -999.250000      2.433649     -0.053701      0.191530
    4285.2000   -999.250000   -999.250000      2.453005     -0.045638      0.196449
    4285.3000   -999.250000   -999.250000      2.456666     -0.035347      0.192131
    4285.4000   -999.250000   -999.250000      2.447336     -0.025162      0.178695
    4285.5000   -999.250000   -999.250000      2.433085     -0.017300      0.160817
    4285.6000   -999.250000   -999.250000      2.421889     -0.012244      0.145347
    4285.7000   -999.250000   -999.250000      2.419874     -0.008752      0.136917
    4285.8000   -999.250000   -999.250000      2.425919     -0.006139      0.134984
    4285.9000   -999.250000   -999.250000      2.432264     -0.005263      0.135888
    4286.0000   -999.250000   -999.250000      2.431661     -0.006977      0.136541
    4286.1000   -999.250000   -999.250000      2.422686     -0.010793      0.136131
    4286.2000   -999.250000   -999.250000      2.408625     -0.015821      0.137233
    4286.3000   -999.250000   -999.250000      2.393396     -0.021974      0.143826
    4286.4000   -999.250000   -999.250000      2.380689     -0.028585      0.154854
    4286.5000   -999.250000   -999.250000      2.373510     -0.034104      0.164667
    4286.6000   -999.250000   -999.250000      2.370365     -0.038649      0.170922
    4286.7000   -999.250000   -999.250000      2.368048     -0.042993      0.174014
    4286.8000   -999.250000   -999.250000      2.365777     -0.046799      0.174371
    4286.9000   -999.250000   -999.250000   -999.250000   -999.250000   -999.250000
    4287.0000   -999.250000   -999.250000   -999.250000   -999.250000   -999.250000
