# LAS format data
~Version Information
VERS.     2.00: CWLS LOG ASCII STANDARD - VERSION 2.0
WRAP.       NO: ONE LINE PER DEPTH STEP
~Well Information
#MNEM   .UNITS    DATA                           DESCRIPTION
#----   ------    ----                           -----------
STRT    .M        63.1000                       :First Index Value
STOP    .M        4298.0000                     :Last Index Value
STEP    .M        0.0000                        :Frame Spacing
NULL    .         -999.2500                     :Absent Value
WELL    .         L05-07                        :Well Name   
FLD     .         FINDER_composites_22-02-2005  :Field Name  
CNTY    .                                       :County
STAT    .                                       :State
CTRY    .                                       :Country
LOC     .                                       :Location
API     .                                       :API Number
DATE    .                                       :Date
COMP    .         MOB                           :Company Name
SRVC    .                                       :Service Company
~Parameter Information
#MNEM   .UNITS    VALUE                          DESCRIPTION
#----   ------    -----                          -----------
TDD     .M        4287.00000                    :Total Depth (Driller)   
UBID    .         8132                          :Unique Borehole Id  
PDAT    .         Mean Sea Level                :Permanent Datum 
EPD     .M           0.00000                    :Elevation of Permanent Datum (PDAT) above Mean Sea Level
LMF     .         Rotary Table                  :Logging Measured From (Name of Logging Elevation Reference) 
APD     .M          36.80000                    :Elevation of Depth Reference (LMF) Above Permanent Datum
EGL     .M         -37.20000                    :Elevation of Ground Level Above Mean Sea Level  
~Curve Information
#MNEM   .UNITS    API CODE                       CURVE DESCRIPTION
#----   ------    --------                       -----------------
DEPT    .M                                      :1     Index curve
GR      .GAPI                                   :2     L05-07
DT      .US/F                                   :3     L05-07
RHOB    .G/C3                                   :4     L05-07
DRHO    .G/C3                                   :5     L05-07
NPHI    .V/V                                    :6     L05-07
~Ascii Log Data
# ...
    3125.5001    108.989227     85.314423      2.619484      0.003299      0.276055
    3125.6001    107.880951     85.476974      2.622134      0.003087      0.279628
    3125.7001    107.203796     85.723633      2.633726      0.002624      0.279782
    3125.8001    107.113159     85.723923      2.660028      0.002414      0.275275
    3125.9001    107.620117     85.081772      2.701839      0.003825      0.266793
    3126.0001    108.510513     83.879089      2.749881      0.007050      0.257415
    3126.1001    109.456253     82.639252      2.785393      0.009724      0.251510
    3126.2001    110.246536     81.737747      2.789756      0.009039      0.252227
    3126.3001    110.580765     81.104752      2.760955      0.004652      0.258819
    3126.4001    110.151794     80.670303      2.714034     -0.001254      0.267815
    3126.5001    109.447220     80.687927      2.668554     -0.005705      0.275727
    3126.6001    109.065475     81.342850      2.636699     -0.007242      0.278653
    3126.7001    108.585678     82.263229      2.621500     -0.006891      0.272934
    3126.8001    107.451935     82.909042      2.617229     -0.006718      0.261481
    3126.9001    105.548111     83.131729      2.615894     -0.007829      0.251147
    3127.0001    102.896561     83.184875      2.614275     -0.009646      0.245255
    3127.1001     99.937836     83.227921      2.612616     -0.011142      0.243869
    3127.2001     97.811310     83.259018      2.611926     -0.011626      0.246771
    3127.3001     98.059448     83.420105      2.613824     -0.010877      0.253266
    3127.4001    100.560455     83.812454      2.619157     -0.010311      0.261021
    3127.5001    103.624054     84.303284      2.628588     -0.010963      0.267300
    3127.6001    105.704254     84.613342      2.642917     -0.010682      0.269757
    3127.7001    106.853958     84.733353      2.660029     -0.008331      0.268003
    3127.8001    107.700241     84.900406      2.672831     -0.005701      0.263776
    3127.9001    107.794067     85.187973      2.673655     -0.004235      0.260137
    3128.0001    107.421051     85.460739      2.662099     -0.004656      0.258697
    3128.1001    107.702499     85.576050      2.644353     -0.007027      0.259521
    3128.2001    107.915100     85.656891      2.626561     -0.009095      0.262884
    3128.3001    107.329193     85.809830      2.614224     -0.009370      0.265891
    3128.4001    106.627991     85.947617      2.612961     -0.008419      0.264069
    3128.5001    106.329712     86.080124      2.620297     -0.006229      0.262209
    3128.6001    106.185410     86.229324      2.630067     -0.003334      0.264501
    3128.7001    105.733582     86.340988      2.639159     -0.001254      0.267147
    3128.8001    106.067490     86.418152      2.642578     -0.000639      0.268632
    3128.9001    107.852432     86.505798      2.640182     -0.000681      0.268543
    3129.0001    110.119141     86.642517      2.640125      0.000197      0.264511
    3129.1001    112.383972     86.787109      2.642134      0.001190      0.258895
    3129.2001    114.291428     86.899200      2.642206      0.000982      0.255513
    3129.3001    115.165161     87.079544      2.641356     -0.000064      0.253942
    3129.4001    115.306152     87.269730      2.639718     -0.000970      0.256990
    3129.5001    115.649780     87.397186      2.637567     -0.001085      0.264594
    3129.6001    117.253006     87.659576      2.639425      0.000467      0.267904
    3129.7001    120.320251     88.217529      2.643788      0.002538      0.268542
    3129.8001    123.846970     88.922409      2.646496      0.003668      0.272565
    3129.9001    124.463623     88.404755      2.649106      0.005104      0.272772
    3130.0001    121.697083     87.182861      2.650527      0.007133      0.271439
    3130.1001    117.704742     86.544769      2.649065      0.009163      0.274680
    3130.2001    112.654541     85.672073      2.642580      0.009203      0.274244
    3130.3001    108.137680     84.612701      2.633657      0.007715      0.267470
    3130.4001    105.009613     83.882477      2.625620      0.006423      0.257550
    3130.5001    102.982605     83.880096      2.618684      0.004978      0.249205
    3130.6001    101.780182     84.133896      2.616673      0.004205      0.245797
    3130.7001    101.437576     83.969345      2.622264      0.004984      0.247462
    3130.8001    102.570496     83.658081      2.627898      0.005568      0.257024
    3130.9001    104.661957     83.516983      2.630034      0.005574      0.267889
    3131.0001    106.707504     83.537735      2.632166      0.006173      0.271375
    3131.1001    108.037003     83.628174      2.634081      0.006498      0.270346
    3131.2001    107.886032     83.611725      2.636919      0.006230      0.268854
    3131.3001    105.511597     83.333435      2.643928      0.006079      0.266159
    3131.4001    102.065460     82.821823      2.656136      0.005897      0.262279
    3131.5001     98.761658     82.254593      2.667761      0.005014      0.257545
    3131.6001     96.448654     81.820908      2.669783      0.003044      0.252170
    3131.7001     96.780121     81.530457      2.663182      0.000654      0.247179
    3131.8001    100.101669     81.402679      2.652685     -0.001097      0.244375
    3131.9001    104.917679     81.574890      2.640077     -0.001541      0.245646
    3132.0001    109.192566     81.947510      2.628419     -0.001297      0.249852
    3132.1001    111.322922     82.282745      2.621509     -0.001218      0.254568
    3132.2001    110.850220     82.457397      2.620440     -0.001552      0.258740
    3132.3001    108.408508     82.526245      2.623629     -0.002317      0.262561
    3132.4001    105.595016     82.567856      2.629052     -0.003173      0.264687
    3132.5001    104.150467     82.604813      2.634297     -0.003755      0.262056
    3132.6001    104.310379     82.637650      2.635032     -0.004750      0.253636
    3132.7001    105.143860     82.592117      2.629302     -0.006725      0.241788
    3132.8001    105.777374     82.340973      2.621151     -0.008974      0.231090
    3132.9001    105.943161     81.927597      2.616185     -0.010490      0.226457
    3133.0001    105.578796     81.514114      2.616326     -0.010901      0.229220
    3133.1001    104.756805     81.159348      2.619105     -0.010573      0.236130
    3133.2001    104.110703     80.828735      2.621371     -0.010211      0.244391
    3133.3001    103.867783     80.490295      2.621472     -0.010403      0.252168
    3133.4001    103.283478     80.174652      2.619870     -0.011086      0.257291
    3133.5001    102.278229     79.939270      2.619431     -0.011463      0.259993
    3133.6001    101.385239     79.771698      2.622816     -0.010996      0.261275
    3133.7001    100.429047     79.577286      2.629242     -0.010136      0.259047
    3133.8001     99.180618     79.328369      2.635744     -0.009399      0.251294
    3133.9001     98.016785     79.153290      2.639227     -0.008913      0.239597
    3134.0001     97.426758     79.215500      2.637572     -0.008776      0.227572
    3134.1001     97.737610     79.503845      2.630917     -0.008965      0.218451
    3134.2001     99.400330     79.857758      2.620965     -0.009366      0.214435
    3134.3001    102.811661     80.166580      2.609742     -0.009825      0.216955
    3134.4001    107.408279     80.403549      2.600486     -0.009696      0.224705
    3134.5001    111.799240     80.571228      2.596133     -0.008546      0.234106
    3134.6001    114.587326     80.686371      2.597217     -0.007158      0.241787
    3134.7001    114.940720     80.816330      2.602464     -0.006482      0.245599
    3134.8001    112.797195     81.040833      2.610561     -0.006432      0.245925
    3134.9001    109.223267     81.379898      2.619786     -0.006387      0.246658
    3135.0001    105.793243     81.789871      2.628528     -0.005939      0.251286
