# LAS format data
~Version Information
VERS.     2.00: CWLS LOG ASCII STANDARD - VERSION 2.0
WRAP.       NO: ONE LINE PER DEPTH STEP
~Well Information
#MNEM   .UNITS    DATA                           DESCRIPTION
#----   ------    ----                           -----------
STRT    .M        81.0000                       :First Index Value
STOP    .M        4879.7006                     :Last Index Value
STEP    .M        0.0000                        :Frame Spacing
NULL    .         -999.2500                     :Absent Value
WELL    .         L05-B-01                      :Well Name   
FLD     .         FINDER_composites_22-02-2005  :Field Name  
CNTY    .                                       :County
STAT    .                                       :State
CTRY    .                                       :Country
LOC     .                                       :Location
API     .                                       :API Number
DATE    .                                       :Date
COMP    .         WIN                           :Company Name
SRVC    .                                       :Service Company
~Parameter Information
#MNEM   .UNITS    VALUE                          DESCRIPTION
#----   ------    -----                          -----------
TDD     .M        4906.00000                    :Total Depth (Driller)   
UBID    .         8552                          :Unique Borehole Id  
PDAT    .         Mean Sea Level                :Permanent Datum 
EPD     .M           0.00000                    :Elevation of Permanent Datum (PDAT) above Mean Sea Level
LMF     .                                       :Logging Measured From (Name of Logging Elevation Reference) 
APD     .M          40.00000                    :Elevation of Depth Reference (LMF) Above Permanent Datum
EKB     .M          40.00000                    :Elevation of Kelly Bushing Above Mean Sea Level 
~Other Information
composite_curve_qc 
~Curve Information
#MNEM   .UNITS    API CODE                       CURVE DESCRIPTION
#----   ------    --------                       -----------------
DEPT    .M                                      :1     Index curve
GR      .GAPI                                   :2     SNAM  
DT      .US/F                                   :3     SNAM  
RHOB    .G/C3                                   :4     SNAM  
DRHO    .G/C3                                   :5     SNAM  
NPHI    .V/V                                    :6     SNAM  
~Ascii Log Data
# ...
    4804.2000     34.824272   -999.250000      2.639507     -0.020091      0.103685
    4804.3000     35.291893   -999.250000      2.640692     -0.019779      0.104036
    4804.4000     36.518997   -999.250000      2.641310     -0.018860      0.104411
    4804.5000     36.909538   -999.250000      2.643474     -0.017985      0.103488
    4804.6000     37.109245   -999.250000      2.645554     -0.017202      0.100996
    4804.7000     37.424599   -999.250000      2.646996     -0.016536      0.097695
    4804.8000     37.045341   -999.250000      2.649350     -0.016680      0.096409
    4804.9000     35.911415   -999.250000      2.651396     -0.016628      0.092590
    4805.0000     34.344086   -999.250000      2.652754     -0.015948      0.084834
    4805.1000     35.300888   -999.250000      2.656177     -0.014651      0.079876
    4805.2000     36.910675   -999.250000      2.659659     -0.013897      0.077632
    4805.3000     37.914650   -999.250000      2.662004     -0.014102      0.076725
    4805.4000     38.823898   -999.250000      2.665601     -0.014815      0.080642
    4805.5000     39.051376   -999.250000      2.669723     -0.015055      0.083288
    4805.6000     38.153374   -999.250000      2.673543     -0.014411      0.080758
    4805.7000     38.118904   -999.250000      2.675407     -0.013403      0.077762
    4805.8000     41.234634   -999.250000      2.675029     -0.013293      0.076092
    4805.9000     49.139740   -999.250000      2.672421     -0.014820      0.075514
    4806.0000     66.057220   -999.250000      2.669830     -0.015569      0.074743
    4806.1000     89.457672   -999.250000      2.669261     -0.015447      0.073666
    4806.2000    116.735367   -999.250000      2.671851     -0.015366      0.072901
    4806.3000    140.433746   -999.250000      2.675202     -0.015918      0.074715
    4806.4000    157.793427   -999.250000      2.679486     -0.016767      0.077151
    4806.5000    167.375824   -999.250000      2.686700     -0.017290      0.077021
    4806.6000    169.448700   -999.250000      2.693721     -0.017463      0.077223
    4806.7000    166.500244   -999.250000      2.699263     -0.017740      0.078596
    4806.8000    158.379395   -999.250000      2.704175     -0.018545      0.079283
    4806.9000    144.166718   -999.250000      2.709540     -0.018815      0.079728
    4807.0000    125.804214   -999.250000      2.716444     -0.018154      0.079901
    4807.1000    106.461472   -999.250000      2.725370     -0.017334      0.078560
    4807.2000     88.542404   -999.250000      2.732847     -0.016961      0.077562
    4807.3000     74.433060   -999.250000      2.736427     -0.017004      0.078319
    4807.4000     66.335846   -999.250000      2.737030     -0.016884      0.079785
    4807.5000     62.387596   -999.250000      2.734829     -0.016911      0.080893
    4807.6000     59.624176   -999.250000      2.731577     -0.017301      0.081306
    4807.7000     58.650970   -999.250000      2.730994     -0.017346      0.081528
    4807.8000     59.790680   -999.250000      2.733753     -0.016579      0.081031
    4807.9000     63.470451   -999.250000      2.736735     -0.015287      0.079618
    4808.0000     72.365707   -999.250000      2.736099     -0.014286      0.078921
    4808.1000     85.831589   -999.250000      2.730295     -0.014134      0.080060
    4808.2000     99.825684   -999.250000      2.721595     -0.014660      0.082366
    4808.3000    111.426361   -999.250000      2.712468     -0.015399      0.083810
    4808.4000    118.481995   -999.250000      2.705042     -0.016090      0.083671
    4808.5000    121.603500   -999.250000      2.699943     -0.016757      0.083056
    4808.6000    122.036179   -999.250000      2.697823     -0.017185      0.082181
    4808.7000    121.298264   -999.250000      2.697760     -0.017485      0.081461
    4808.8000    120.348999   -999.250000      2.697705     -0.018113      0.081188
    4808.9000    120.248978   -999.250000      2.697999     -0.019114      0.081487
    4809.0000    120.812897   -999.250000      2.698726     -0.020299      0.082789
    4809.1000    119.869156   -999.250000      2.699802     -0.021169      0.085598
    4809.2000    115.637878   -999.250000      2.701846     -0.021155      0.089633
    4809.3000    107.219894   -999.250000      2.703989     -0.020779      0.093207
    4809.4000     95.761734   -999.250000      2.704598     -0.021400      0.094418
    4809.5000     84.023849   -999.250000      2.705279     -0.022245      0.092836
    4809.6000     75.612915   -999.250000      2.706715     -0.022464      0.091230
    4809.7000     71.231064   -999.250000      2.706872     -0.022551      0.093093
    4809.8000     70.841995   -999.250000      2.706160     -0.022966   -999.250000
    4809.9000     71.971756   -999.250000      2.704846     -0.024104   -999.250000
    4810.0000     72.332550   -999.250000      2.701878     -0.025803   -999.250000
    4810.1000     71.323212   -999.250000      2.699296     -0.027069   -999.250000
    4810.2000     69.320251   -999.250000      2.698787     -0.027408   -999.250000
    4810.3000     66.700623   -999.250000      2.698545     -0.027819   -999.250000
    4810.4000     64.513046   -999.250000      2.697083     -0.028787   -999.250000
    4810.5000     63.410461   -999.250000      2.694709     -0.029878   -999.250000
    4810.6000     62.912109   -999.250000      2.693844     -0.030041   -999.250000
    4810.7000     63.071404   -999.250000      2.694833     -0.029728   -999.250000
    4810.8000     63.667480   -999.250000      2.696639     -0.029634   -999.250000
    4810.9000     63.788704   -999.250000      2.699231     -0.028874   -999.250000
    4811.0000     63.684151   -999.250000      2.702546     -0.027299   -999.250000
    4811.1000     64.244064   -999.250000      2.705847     -0.025505   -999.250000
    4811.2000     66.727692   -999.250000      2.707373     -0.024161   -999.250000
    4811.3000     74.247345   -999.250000      2.708561     -0.023550   -999.250000
    4811.4000     87.278534   -999.250000      2.711112     -0.023492   -999.250000
    4811.5000    101.773224   -999.250000      2.712651     -0.024087   -999.250000
    4811.6000    112.817886   -999.250000      2.711092     -0.025405   -999.250000
    4811.7000    118.094696   -999.250000      2.706342     -0.027384   -999.250000
    4811.8000    109.938263   -999.250000      2.700038     -0.029936   -999.250000
    4811.9000     94.303955   -999.250000      2.694778     -0.031922   -999.250000
    4812.0000     79.644089   -999.250000      2.691905     -0.032527   -999.250000
    4812.1000     70.463074   -999.250000      2.692212     -0.032444   -999.250000
    4812.2000     66.226746   -999.250000      2.694555     -0.031720   -999.250000
    4812.3000     65.347000   -999.250000      2.698007     -0.029918   -999.250000
    4812.4000     65.275223   -999.250000      2.696565     -0.029336   -999.250000
    4812.5000     64.793335   -999.250000      2.692379     -0.029368   -999.250000
    4812.6000     64.010941   -999.250000      2.689546     -0.028366   -999.250000
    4812.7000     62.895485   -999.250000      2.688569     -0.027549   -999.250000
    4812.8000     61.603783   -999.250000      2.689757     -0.026858   -999.250000
    4812.9000     60.141113   -999.250000      2.694492     -0.025412   -999.250000
    4813.0000     57.347870   -999.250000      2.697569     -0.024524   -999.250000
    4813.1000     53.905624   -999.250000      2.699205     -0.024110   -999.250000
    4813.2000     51.155197   -999.250000      2.702294     -0.023436   -999.250000
    4813.3000     50.112228   -999.250000      2.704500     -0.023349   -999.250000
    4813.4000     50.748215   -999.250000      2.706043     -0.023794   -999.250000
    4813.5000     54.099792   -999.250000      2.709126     -0.024332   -999.250000
    4813.6000     59.961815   -999.250000      2.708790     -0.024985   -999.250000
    4813.7000     68.562653   -999.250000      2.705306     -0.025797   -999.250000
