# LAS format data
~Version Information
VERS.     2.00: CWLS LOG ASCII STANDARD - VERSION 2.0
WRAP.       NO: ONE LINE PER DEPTH STEP
~Well Information
#MNEM   .UNITS    DATA                           DESCRIPTION
#----   ------    ----                           -----------
STRT    .M        81.0000                       :First Index Value
STOP    .M        4879.7006                     :Last Index Value
STEP    .M        0.0000                        :Frame Spacing
NULL    .         -999.2500                     :Absent Value
WELL    .         L05-B-01                      :Well Name   
FLD     .         FINDER_composites_22-02-2005  :Field Name  
CNTY    .                                       :County
STAT    .                                       :State
CTRY    .                                       :Country
LOC     .                                       :Location
API     .                                       :API Number
DATE    .                                       :Date
COMP    .         WIN                           :Company Name
SRVC    .                                       :Service Company
~Parameter Information
#MNEM   .UNITS    VALUE                          DESCRIPTION
#----   ------    -----                          -----------
TDD     .M        4906.00000                    :Total Depth (Driller)   
UBID    .         8552                          :Unique Borehole Id  
PDAT    .         Mean Sea Level                :Permanent Datum 
EPD     .M           0.00000                    :Elevation of Permanent Datum (PDAT) above Mean Sea Level
LMF     .                                       :Logging Measured From (Name of Logging Elevation Reference) 
APD     .M          40.00000                    :Elevation of Depth Reference (LMF) Above Permanent Datum
EKB     .M          40.00000                    :Elevation of Kelly Bushing Above Mean Sea Level 
~Other Information
composite_curve_qc 
~Curve Information
#MNEM   .UNITS    API CODE                       CURVE DESCRIPTION
#----   ------    --------                       -----------------
DEPT    .M                                      :1     Index curve
GR      .GAPI                                   :2     SNAM  
DT      .US/F                                   :3     SNAM  
RHOB    .G/C3                                   :4     SNAM  
DRHO    .G/C3                                   :5     SNAM  
NPHI    .V/V                                    :6     SNAM  
~Ascii Log Data
# ...
    4621.8008     60.271996     55.346336      2.737109     -0.011130      0.035438
    4621.9008     58.140419     55.604630      2.733421     -0.012684      0.034065
    4622.0008     57.462746     56.295280      2.724080     -0.012317      0.033939
    4622.1008     59.432579     57.155396      2.698557     -0.011244      0.034724
    4622.2008     65.739197     58.703087      2.635929     -0.014478      0.035812
    4622.3008     75.230743     60.757072      2.556304     -0.020484      0.037345
    4622.4008     86.936707     62.910713      2.491815     -0.024179      0.040231
    4622.5008     97.752274     64.556885      2.471399     -0.022504      0.042386
    4622.6008    105.412735     65.913330      2.484111     -0.018289      0.050972
    4622.7008    107.478470     67.648010      2.510115     -0.016440      0.082156
    4622.8008    103.321472     68.732712      2.532121     -0.016312      0.096825
    4622.9008     95.974731     69.062057      2.550118     -0.016231      0.091159
    4623.0008     88.641586     69.128418      2.575641     -0.015256      0.092256
    4623.1008     84.084732     69.795547      2.609621     -0.012716      0.095676
    4623.2008     82.145386     70.780365      2.647082     -0.009208      0.096976
    4623.3008     83.554245     70.440720      2.675976     -0.006224      0.097675
    4623.4008     87.247772     69.744583      2.697299     -0.003746      0.099345
    4623.5008     92.218872     69.399826      2.714056     -0.001423      0.104639
    4623.6008     98.099792     70.079346      2.717579      0.000428      0.127746
    4623.7008    104.270844     71.885101      2.710940      0.002100      0.141121
    4623.8008    110.290009     74.599518      2.698237      0.003775      0.135371
    4623.9008    115.129044     78.618942      2.681250      0.005778      0.117418
    4624.0008    118.539001     81.557190      2.664249      0.009662      0.101259
    4624.1008    120.575348     82.586594      2.649178      0.015799      0.091369
    4624.2008    119.777222     82.546188      2.641975      0.027742      0.088785
    4624.3008    117.913406     81.855881      2.639519      0.043065      0.088593
    4624.4008    115.962845     80.619537      2.639837      0.059622      0.088701
    4624.5008    114.787994     78.711029      2.637801      0.072147      0.086079
    4624.6008    113.432892     76.319092      2.637351      0.082189      0.083058
    4624.7008    111.344284     73.531998      2.641106      0.090970      0.081119
    4624.8008    106.661850     70.359436      2.650579      0.099885      0.080554
    4624.9008    100.923874     67.393112      2.660116      0.106862      0.080537
    4625.0008     95.292557     65.072739      2.665989      0.110006      0.080660
    4625.1008     91.657990     64.370850      2.668562      0.111270      0.080349
    4625.2008     89.915436     64.655472      2.669713      0.112576      0.080146
    4625.3008     90.062622     65.531067      2.670263      0.114898      0.080623
    4625.4008     91.405655     67.392303      2.673618      0.119767      0.081406
    4625.5008     93.599426     69.377930      2.678640      0.125796      0.082397
    4625.6008     97.112015     70.613449      2.683969      0.131909      0.083840
    4625.7008    101.052216     71.282700      2.683902      0.134148      0.084871
    4625.8008    104.793884     71.784775      2.679872      0.133383      0.087621
    4625.9008    108.246048     72.403198      2.674196      0.131072      0.096920
    4626.0008    111.487930     73.382980      2.666687      0.126894      0.115365
    4626.1008    114.506882     74.535492      2.658212      0.121277      0.135202
    4626.2008    117.247406     75.600601      2.649338      0.113733      0.143588
    4626.3008    119.321442     76.178711      2.640157      0.100626      0.141269
    4626.4008    120.780930     76.366455      2.633679      0.083492      0.134159
    4626.5008    121.604752     76.469452      2.641867      0.066053      0.126403
    4626.6008    121.715225     75.944336      2.662584      0.048813      0.125713
    4626.7008    121.130020     74.802231      2.688977      0.031685      0.133218
    4626.8008    119.065277     73.661987      2.713708      0.017250      0.149662
    4626.9008    115.834579     72.694122      2.725129      0.007925      0.156992
    4627.0008    111.919983     71.843063      2.722817      0.002862      0.149050
    4627.1008    107.600876     71.346085      2.711571      0.000426      0.132269
    4627.2008    103.630615     71.080399      2.674692     -0.003350      0.121910
    4627.3008    100.510620     70.926300      2.603494     -0.010594      0.122675
    4627.4008     98.830521     71.197433      2.504509     -0.023160      0.113557
    4627.5008     98.348267     71.558731      2.410889     -0.038193      0.099988
    4627.6008     98.698303     71.671494      2.350987     -0.050986      0.094526
    4627.7008    100.090363     71.834869      2.358521     -0.050692      0.094380
    4627.8008    101.929565     72.036453      2.408724     -0.041586      0.094509
    4627.9008    103.480484     72.088074      2.461669     -0.033222      0.092152
    4628.0008    103.897842     72.007584      2.502935     -0.027123      0.086370
    4628.1008    102.616821     72.108856      2.531540     -0.022262      0.079773
    4628.2008     99.624374     72.421066      2.556159     -0.016906      0.076044
    4628.3008     95.600311     71.347061      2.575222     -0.012923      0.076023
    4628.4008     91.769073     69.197769      2.589574     -0.011034      0.077354
    4628.5008     88.936050     67.985168      2.602352     -0.010149      0.076998
    4628.6008     87.377609     67.611221      2.616718     -0.009686      0.075466
    4628.7008     86.063736     66.588043      2.633489     -0.008786      0.073027
    4628.8008     83.337646     63.707832      2.648319     -0.006665      0.068585
    4628.9008     78.951981     61.011841      2.655116     -0.002691      0.062606
    4629.0008     74.518021     60.170715      2.651013      0.002511      0.056559
    4629.1008     72.848511     60.183296      2.638058      0.007825      0.051495
    4629.2008     76.217697     61.291351      2.619401      0.014392      0.048037
    4629.3008     84.220596     63.720116      2.603459      0.024809      0.045579
    4629.4008     94.489990     67.066757      2.597475      0.041409      0.043636
    4629.5008    104.464920     70.152115      2.601610      0.060964      0.046627
    4629.6008    111.726288     71.914398      2.607408      0.074788      0.062905
    4629.7008    116.170410     72.961136      2.609420      0.078627      0.094574
    4629.8008    117.417099     73.452560      2.610868      0.077338      0.113443
    4629.9008    115.524521     73.535858      2.614998      0.080247      0.097982
    4630.0008    109.555481     73.497375      2.609388      0.084088      0.086117
    4630.1008     99.762238     73.333466      2.587997      0.085738      0.091765
    4630.2008     88.523468     72.921494      2.559835      0.085797      0.099321
    4630.3008     78.569138     72.363937      2.540956      0.089650      0.100795
    4630.4008     72.160660     71.400665      2.539821      0.098461      0.096594
    4630.5008     69.000626     69.936554      2.547064      0.107106      0.097171
    4630.6008     68.992371     68.846283      2.553126      0.111808      0.107665
    4630.7008     71.565308     68.036743      2.553626      0.111741      0.127053
    4630.8008     75.952454     66.747437      2.553611      0.110577      0.144302
    4630.9008     82.646912     66.168884      2.554543      0.109483      0.148078
    4631.0008     91.019165     66.836731      2.558247      0.110055      0.142144
    4631.1008     99.162643     67.971588      2.565166      0.112811      0.144259
    4631.2008    104.366394     69.218964      2.573979      0.116642      0.153396
    4631.3008    104.815018     70.583405      2.581330      0.118787      0.161632
