# LAS format data
~Version Information
VERS.     2.00: CWLS LOG ASCII STANDARD - VERSION 2.0
WRAP.       NO: ONE LINE PER DEPTH STEP
~Well Information
#MNEM   .UNITS    DATA                           DESCRIPTION
#----   ------    ----                           -----------
STRT    .M        63.1000                       :First Index Value
STOP    .M        4298.0000                     :Last Index Value
STEP    .M        0.0000                        :Frame Spacing
NULL    .         -999.2500                     :Absent Value
WELL    .         L05-07                        :Well Name   
FLD     .         FINDER_composites_22-02-2005  :Field Name  
CNTY    .                                       :County
STAT    .                                       :State
CTRY    .                                       :Country
LOC     .                                       :Location
API     .                                       :API Number
DATE    .                                       :Date
COMP    .         MOB                           :Company Name
SRVC    .                                       :Service Company
~Parameter Information
#MNEM   .UNITS    VALUE                          DESCRIPTION
#----   ------    -----                          -----------
TDD     .M        4287.00000                    :Total Depth (Driller)   
UBID    .         8132                          :Unique Borehole Id  
PDAT    .         Mean Sea Level                :Permanent Datum 
EPD     .M           0.00000                    :Elevation of Permanent Datum (PDAT) above Mean Sea Level
LMF     .         Rotary Table                  :Logging Measured From (Name of Logging Elevation Reference) 
APD     .M          36.80000                    :Elevation of Depth Reference (LMF) Above Permanent Datum
EGL     .M         -37.20000                    :Elevation of Ground Level Above Mean Sea Level  
~Curve Information
#MNEM   .UNITS    API CODE                       CURVE DESCRIPTION
#----   ------    --------                       -----------------
DEPT    .M                                      :1     Index curve
GR      .GAPI                                   :2     L05-07
DT      .US/F                                   :3     L05-07
RHOB    .G/C3                                   :4     L05-07
DRHO    .G/C3                                   :5     L05-07
NPHI    .V/V                                    :6     L05-07
~Ascii Log Data
# ...
    3970.3001     57.407806     72.930008      2.723823     -0.004077      0.168453
    3970.4001     58.724747     73.893951      2.704138     -0.005792      0.187096
    3970.5001     60.253075     74.990814      2.683299     -0.007222      0.203407
    3970.6001     61.491913     76.204758      2.661638     -0.007972      0.216548
    3970.7001     62.211014     77.329208      2.639880     -0.008757      0.224597
    3970.8001     63.451233     78.407059      2.616104     -0.009721      0.229579
    3970.9001     65.829788     79.572266      2.592192     -0.010184      0.235247
    3971.0001     68.195145     80.826492      2.574443     -0.009765      0.242490
    3971.1001     69.867096     82.156921      2.561358     -0.008442      0.250334
    3971.2001     70.859940     83.458923      2.548112     -0.006581      0.257862
    3971.3001     70.763901     84.722565      2.534864     -0.004569      0.266668
    3971.4001     70.226089     86.089783      2.520579     -0.002686      0.276278
    3971.5001     70.282303     87.628525      2.504046     -0.000974      0.284304
    3971.6001     70.476883     88.997223      2.491633      0.000447      0.287877
    3971.7001     69.910080     90.239914      2.485836      0.001407      0.285868
    3971.8001     68.422028     91.748642      2.483134      0.001953      0.279581
    3971.9001     66.990799     93.369705      2.485488      0.002280      0.270718
    3972.0001     66.619965     94.719727      2.490790      0.002261      0.265217
    3972.1001     67.392700     95.726364      2.494340      0.001538      0.267531
    3972.2001     67.902237     96.099869      2.497752      0.000258      0.268559
    3972.3001     67.621078     95.965042      2.502531     -0.001166      0.264584
    3972.4001     67.158844     95.658997      2.508268     -0.002557      0.260449
    3972.5001     65.121384     95.571930      2.517750     -0.003127      0.248857
    3972.6001     62.140419     95.839920      2.533341     -0.002584      0.232931
    3972.7001     60.751221     96.363113      2.557662     -0.001104      0.226909
    3972.8001     59.316315     96.613266      2.580185      0.000117      0.225999
    3972.9001     57.094376     96.260452      2.593611      0.000750      0.225847
    3973.0001     56.726418     95.207474      2.594641      0.001636      0.235162
    3973.1001     57.629837     92.664246      2.579342      0.001986      0.242508
    3973.2001     58.660378     89.179657      2.551487      0.000686      0.237895
    3973.3001     60.362152     87.191116      2.516669     -0.003866      0.220646
    3973.4001     62.324501     87.458527      2.464592     -0.016468      0.200590
    3973.5001     63.809090     89.307587      2.391870     -0.037259      0.187312
    3973.6001     63.719658     92.310089      2.315857     -0.060057      0.188137
    3973.7001     61.427589     94.048340      2.255447     -0.079385      0.202289
    3973.8001     57.142982     93.254425      2.216685     -0.093743      0.221169
    3973.9001     51.161156     90.586563      2.212450     -0.099392      0.233931
    3974.0001     44.644539     86.069809      2.244576     -0.095852      0.237984
    3974.1001     39.363937     80.804962      2.303204     -0.084380      0.235047
    3974.2001     36.701729     78.642609      2.374838     -0.065271      0.225792
    3974.3001     37.051735     81.114822      2.454134     -0.041628      0.218777
    3974.4001     39.896858     86.118179      2.529613     -0.019942      0.219719
    3974.5001     44.185028     89.084229      2.582455     -0.005287      0.220689
    3974.6001     49.249756     89.105576      2.611375      0.002935      0.223333
    3974.7001     54.257568     88.269302      2.622911      0.007145      0.236305
    3974.8001     57.986717     88.070038      2.618238      0.008489      0.263762
    3974.9001     60.246407     88.740067      2.602574      0.008487      0.302773
    3975.0001     61.834229     89.824265      2.584818      0.008748      0.342049
    3975.1001     62.849648     91.178894      2.567995      0.008835      0.362386
    3975.2001     63.340492     92.435303      2.557505      0.007697      0.347385
    3975.3001     62.877182     93.006088      2.562261      0.005409      0.296005
    3975.4001     59.656609     92.052017      2.591251      0.003683      0.222074
    3975.5001     53.072021     87.969116      2.647200      0.004218      0.148835
    3975.6001     44.369514     80.243912      2.723345      0.006844      0.094135
    3975.7001     35.613152     71.853195      2.799893      0.009347      0.066817
    3975.8001     29.103771     66.135025      2.855580      0.009654      0.061144
    3975.9001     25.979046     63.555168      2.882586      0.007842      0.064920
    3976.0001     25.700321     62.970413      2.885716      0.005624      0.071369
    3976.1001     27.005211     63.059029      2.878914      0.004476      0.080406
    3976.2001     29.216362     63.214798      2.873804      0.004611      0.095291
    3976.3001     32.010628     63.411209      2.873238      0.005824      0.117118
    3976.4001     35.407150     63.993690      2.872524      0.007547      0.142227
    3976.5001     39.333458     65.259079      2.864352      0.008787      0.162801
    3976.6001     42.384811     66.880768      2.845307      0.008575      0.168120
    3976.7001     43.035004     68.334091      2.820621      0.006764      0.153820
    3976.8001     40.871445     69.448792      2.802173      0.004338      0.124569
    3976.9001     36.580795     70.244415      2.800343      0.002970      0.090041
    3977.0001     31.487621     70.633713      2.817440      0.003536      0.059387
    3977.1001     27.266907     70.347275      2.848363      0.005524      0.040052
    3977.2001     24.922592     69.104248      2.882338      0.007606      0.033367
    3977.3001     24.087528     66.711609      2.909027      0.008588      0.034603
    3977.4001     23.907459     63.577309      2.922993      0.008102      0.038395
    3977.5001     24.011562     60.912209      2.926086      0.006992      0.041221
    3977.6001     24.416691     59.619843      2.922769      0.006261      0.041592
    3977.7001     24.994595     59.302139      2.916139      0.005932      0.039969
    3977.8001     25.609241     59.241226      2.907357      0.005475      0.038298
    3977.9001     26.013367     59.227783      2.897127      0.004669      0.038896
    3978.0001     25.758072     59.146790      2.886429      0.003673      0.042665
    3978.1001     24.792603     58.894165      2.877275      0.002814      0.047858
    3978.2001     23.709064     58.652000      2.871598      0.002212      0.051059
    3978.3001     23.209499     58.702988      2.869770      0.001730      0.050056
    3978.4001     23.782856     59.051880      2.871773      0.001453      0.045625
    3978.5001     25.481327     59.441216      2.876703      0.001557      0.040774
    3978.6001     27.718479     59.683731      2.880788      0.001824      0.038638
    3978.7001     29.562656     59.834419      2.879238      0.002011      0.040247
    3978.8001     30.343853     60.057846      2.868143      0.002004      0.043391
    3978.9001     29.914246     60.406082      2.839284      0.000620      0.043551
    3979.0001     28.701778     60.741905      2.776301     -0.005117      0.037409
    3979.1001     27.522984     61.006538      2.667477     -0.017825      0.025646
    3979.2001     27.072857     61.479721      2.523288     -0.036385      0.012133
    3979.3001     27.419006     62.474350      2.373666     -0.055481      0.000644
    3979.4001     27.990311     63.775124      2.246542     -0.069510     -0.007414
    3979.5001     28.014137     64.729172      2.156255     -0.076250     -0.012529
    3979.6001     26.867989     65.215057      2.103918     -0.076231     -0.015632
    3979.7001     24.211533     65.814255      2.080234     -0.070497     -0.017512
    3979.8001     20.327969     66.754608      2.072812     -0.060708     -0.018559
