# LAS format data
~Version Information
VERS.     2.00: CWLS LOG ASCII STANDARD - VERSION 2.0
WRAP.       NO: ONE LINE PER DEPTH STEP
~Well Information
#MNEM   .UNITS    DATA                           DESCRIPTION
#----   ------    ----                           -----------
STRT    .M        63.1000                       :First Index Value
STOP    .M        4298.0000                     :Last Index Value
STEP    .M        0.0000                        :Frame Spacing
NULL    .         -999.2500                     :Absent Value
WELL    .         L05-07                        :Well Name   
FLD     .         FINDER_composites_22-02-2005  :Field Name  
CNTY    .                                       :County
STAT    .                                       :State
CTRY    .                                       :Country
LOC     .                                       :Location
API     .                                       :API Number
DATE    .                                       :Date
COMP    .         MOB                           :Company Name
SRVC    .                                       :Service Company
~Parameter Information
#MNEM   .UNITS    VALUE                          DESCRIPTION
#----   ------    -----                          -----------
TDD     .M        4287.00000                    :Total Depth (Driller)   
UBID    .         8132                          :Unique Borehole Id  
PDAT    .         Mean Sea Level                :Permanent Datum 
EPD     .M           0.00000                    :Elevation of Permanent Datum (PDAT) above Mean Sea Level
LMF     .         Rotary Table                  :Logging Measured From (Name of Logging Elevation Reference) 
APD     .M          36.80000                    :Elevation of Depth Reference (LMF) Above Permanent Datum
EGL     .M         -37.20000                    :Elevation of Ground Level Above Mean Sea Level  
~Curve Information
#MNEM   .UNITS    API CODE                       CURVE DESCRIPTION
#----   ------    --------                       -----------------
DEPT    .M                                      :1     Index curve
GR      .GAPI                                   :2     L05-07
DT      .US/F                                   :3     L05-07
RHOB    .G/C3                                   :4     L05-07
DRHO    .G/C3                                   :5     L05-07
NPHI    .V/V                                    :6     L05-07
~Ascii Log Data
# ...
    4066.3000     68.611237     76.727509      2.641412      0.001086      0.206035
    4066.4000     70.813049     75.668350      2.633319     -0.001207      0.222515
    4066.5000     73.494980     75.299515      2.618191     -0.003799      0.238430
    4066.6000     75.452499     75.385437      2.600470     -0.006596      0.250943
    4066.7000     78.362793     75.724594      2.582363     -0.008662      0.258458
    4066.8000     82.641266     76.580276      2.567673     -0.009185      0.261719
    4066.9000     86.897751     78.185562      2.559902     -0.008111      0.262502
    4067.0000     89.663132     80.184784      2.566327     -0.004262      0.256992
    4067.1000     90.536484     82.136841      2.580980     -0.000055      0.245975
    4067.2000     90.218124     83.913300      2.591218      0.001071      0.234092
    4067.3000     87.718292     84.860153      2.595767      0.001062      0.222323
    4067.4000     84.659546     84.886307      2.595653      0.001381      0.214615
    4067.5000     83.695679     84.553848      2.591248      0.001248      0.214219
    4067.6000     83.522278     83.622955      2.585615     -0.000329      0.214811
    4067.7000     82.994659     82.284943      2.583056     -0.002710      0.213169
    4067.8000     82.755692     80.870331      2.585783     -0.004648      0.213117
    4067.9000     83.038208     80.261551      2.590380     -0.004924      0.215001
    4068.0000     83.250214     80.414627      2.593102     -0.004198      0.217731
    4068.1000     82.576706     80.615891      2.593723     -0.004014      0.220949
    4068.2000     82.839127     80.942352      2.589152     -0.004607      0.223646
    4068.3000     84.347778     81.501144      2.580021     -0.005633      0.226052
    4068.4000     85.113373     82.169662      2.570446     -0.006743      0.229464
    4068.5000     86.047836     82.763931      2.563208     -0.006923      0.236549
    4068.6000     88.006256     83.200836      2.559993     -0.005576      0.248266
    4068.7000     90.044037     83.397217      2.564167     -0.002516      0.262595
    4068.8000     91.809189     83.279465      2.573494      0.001618      0.273048
    4068.9000     93.460693     82.915390      2.583572      0.005710      0.276838
    4069.0000     94.700867     82.467499      2.591637      0.008465      0.275566
    4069.1000     94.754898     82.124908      2.595244      0.010192      0.269105
    4069.2000     93.250748     82.020523      2.594512      0.011526      0.258602
    4069.3000     90.653717     82.131332      2.593517      0.012270      0.248002
    4069.4000     87.637375     82.161591      2.594254      0.012148      0.236366
    4069.5000     85.002090     81.945038      2.596364      0.011278      0.223207
    4069.6000     83.811050     81.701492      2.599262      0.010235      0.214126
    4069.7000     84.716614     81.414780      2.601089      0.009530      0.211050
    4069.8000     87.159241     81.038284      2.598861      0.009020      0.212863
    4069.9000     89.201859     80.901794      2.590098      0.007873      0.219783
    4070.0000     90.189072     81.132217      2.577388      0.006351      0.230357
    4070.1000     90.522583     81.601486      2.565449      0.005396      0.240137
    4070.2000     90.176208     82.270767      2.555233      0.005070      0.245047
    4070.3000     89.234604     83.130112      2.547267      0.005076      0.246614
    4070.4000     88.371689     83.981003      2.543742      0.005426      0.247131
    4070.5000     88.126221     84.465927      2.546818      0.006432      0.242487
    4070.6000     88.121613     84.399673      2.555579      0.007964      0.231697
    4070.7000     88.102066     83.980103      2.566310      0.009443      0.218057
    4070.8000     88.915085     83.540436      2.575423      0.010547      0.201877
    4070.9000     90.185089     83.276932      2.578390      0.011286      0.186258
    4071.0000     90.310577     83.056503      2.572571      0.011787      0.177978
    4071.1000     88.832382     82.555283      2.560387      0.011956      0.181871
    4071.2000     86.285904     81.664566      2.547187      0.011680      0.196301
    4071.3000     83.038895     80.648071      2.536675      0.011234      0.215255
    4071.4000     79.826218     79.906448      2.531515      0.011250      0.231419
    4071.5000     77.667465     79.538345      2.531788      0.011932      0.241631
    4071.6000     77.036880     79.424042      2.534123      0.012471      0.247522
    4071.7000     77.572708     79.638199      2.534178      0.011742      0.251275
    4071.8000     78.609146     80.359314      2.530597      0.009583      0.255291
    4071.9000     79.658875     81.529266      2.525928      0.007039      0.260704
    4072.0000     80.338654     82.831680      2.523298      0.005275      0.265316
    4072.1000     80.534485     83.934586      2.523891      0.004842      0.267132
    4072.2000     80.564987     84.623001      2.527057      0.005522      0.267226
    4072.3000     80.774658     84.885406      2.530733      0.006348      0.266984
    4072.4000     81.039841     84.914383      2.532406      0.006620      0.266423
    4072.5000     81.033035     84.933472      2.530958      0.006568      0.265645
    4072.6000     80.885681     85.004974      2.527688      0.006557      0.265105
    4072.7000     81.229706     85.061707      2.524830      0.006383      0.264763
    4072.8000     82.512131     85.089493      2.523508      0.005537      0.263833
    4072.9000     84.492676     85.155640      2.523576      0.003762      0.261303
    4073.0000     86.334518     85.311264      2.524100      0.001532      0.257209
    4073.1000     87.035019     85.572678      2.524035     -0.000206      0.253439
    4073.2000     86.163544     85.962723      2.523170     -0.001098      0.252683
    4073.3000     84.640320     86.437210      2.521802     -0.001720      0.256484
    4073.4000     84.214478     86.867508      2.520265     -0.002746      0.263806
    4073.5000     85.531570     87.214691      2.519804     -0.004071      0.271300
    4073.6000     87.854431     87.522202      2.522288     -0.004914      0.274927
    4073.7000     90.289185     87.743744      2.527508     -0.004900      0.272164
    4073.8000     91.958878     87.720901      2.531898     -0.004798      0.262870
    4073.9000     92.253311     87.309357      2.531679     -0.005817      0.248021
    4074.0000     91.591339     86.450424      2.526291     -0.008406      0.228293
    4074.1000     90.741913     85.205414      2.517787     -0.011912      0.206815
    4074.2000     89.948425     83.649017      2.509470     -0.015064      0.189958
    4074.3000     89.160446     81.817352      2.504999     -0.016736      0.184009
    4074.4000     88.358398     79.966187      2.505574     -0.016765      0.191128
    4074.5000     87.481445     78.483856      2.508630     -0.015739      0.208321
    4074.6000     86.660889     77.741440      2.511317     -0.013920      0.228755
    4074.7000     86.284027     78.022934      2.513729     -0.011423      0.244743
    4074.8000     86.357346     79.414352      2.518050     -0.008656      0.251621
    4074.9000     86.040527     81.344925      2.525075     -0.006247      0.249306
    4075.0000     84.771591     82.863159      2.533282     -0.004801      0.241355
    4075.1000     83.012344     83.313950      2.540706     -0.004711      0.231821
    4075.2000     81.477081     82.704193      2.546429     -0.005469      0.224791
    4075.3000     80.665863     81.643417      2.550735     -0.006076      0.222278
    4075.4000     81.069962     80.782013      2.553732     -0.006203      0.223523
    4075.5000     82.591492     80.232971      2.554693     -0.006428      0.226651
    4075.6000     84.198898     79.876358      2.553165     -0.006879      0.229334
    4075.7000     84.573578     79.865158      2.550202     -0.006510      0.228692
    4075.8000     83.763290     80.116409      2.547972     -0.004961      0.224290
