# LAS format data
~Version Information
VERS.     2.00: CWLS LOG ASCII STANDARD - VERSION 2.0
WRAP.       NO: ONE LINE PER DEPTH STEP
~Well Information
#MNEM   .UNITS    DATA                           DESCRIPTION
#----   ------    ----                           -----------
STRT    .M        81.0000                       :First Index Value
STOP    .M        4879.7006                     :Last Index Value
STEP    .M        0.0000                        :Frame Spacing
NULL    .         -999.2500                     :Absent Value
WELL    .         L05-B-01                      :Well Name   
FLD     .         FINDER_composites_22-02-2005  :Field Name  
CNTY    .                                       :County
STAT    .                                       :State
CTRY    .                                       :Country
LOC     .                                       :Location
API     .                                       :API Number
DATE    .                                       :Date
COMP    .         WIN                           :Company Name
SRVC    .                                       :Service Company
~Parameter Information
#MNEM   .UNITS    VALUE                          DESCRIPTION
#----   ------    -----                          -----------
TDD     .M        4906.00000                    :Total Depth (Driller)   
UBID    .         8552                          :Unique Borehole Id  
PDAT    .         Mean Sea Level                :Permanent Datum 
EPD     .M           0.00000                    :Elevation of Permanent Datum (PDAT) above Mean Sea Level
LMF     .                                       :Logging Measured From (Name of Logging Elevation Reference) 
APD     .M          40.00000                    :Elevation of Depth Reference (LMF) Above Permanent Datum
EKB     .M          40.00000                    :Elevation of Kelly Bushing Above Mean Sea Level 
~Other Information
composite_curve_qc 
~Curve Information
#MNEM   .UNITS    API CODE                       CURVE DESCRIPTION
#----   ------    --------                       -----------------
DEPT    .M                                      :1     Index curve
GR      .GAPI                                   :2     SNAM  
DT      .US/F                                   :3     SNAM  
RHOB    .G/C3                                   :4     SNAM  
DRHO    .G/C3                                   :5     SNAM  
NPHI    .V/V                                    :6     SNAM  
~Ascii Log Data
# ...
    4497.0004    115.089600     76.261078   -999.250000   -999.250000   -999.250000
    4497.1004    116.119995     75.610489   -999.250000   -999.250000   -999.250000
    4497.2004    115.647217     74.830780   -999.250000   -999.250000   -999.250000
    4497.3004    114.355118     74.028809   -999.250000   -999.250000   -999.250000
    4497.4004    113.966797     72.507751   -999.250000   -999.250000   -999.250000
    4497.5004    113.971039     70.928146   -999.250000   -999.250000   -999.250000
    4497.6004    113.899185     69.728363   -999.250000   -999.250000   -999.250000
    4497.7004    109.919418     70.279449   -999.250000   -999.250000   -999.250000
    4497.8004    104.014374     71.382462   -999.250000   -999.250000   -999.250000
    4497.9004     97.689545     72.226883   -999.250000   -999.250000   -999.250000
    4498.0004     91.462769     72.420670   -999.250000   -999.250000   -999.250000
    4498.1004     86.433838     72.333359   -999.250000   -999.250000   -999.250000
    4498.2004     83.832077     72.187820   -999.250000   -999.250000   -999.250000
    4498.3004     82.951263     72.052811   -999.250000   -999.250000   -999.250000
    4498.4004     83.534744     72.022781   -999.250000   -999.250000   -999.250000
    4498.5004     86.242569     72.217850   -999.250000   -999.250000   -999.250000
    4498.6004     89.899979     72.871933   -999.250000   -999.250000   -999.250000
    4498.7004     93.296677     73.808350   -999.250000   -999.250000   -999.250000
    4498.8004     95.236206     74.846451   -999.250000   -999.250000   -999.250000
    4498.9004     98.421021     75.275467   -999.250000   -999.250000   -999.250000
    4499.0004    102.577515     75.481674   -999.250000   -999.250000   -999.250000
    4499.1004    105.935989     76.438812   -999.250000   -999.250000   -999.250000
    4499.2004    109.937515     77.095932   -999.250000   -999.250000   -999.250000
    4499.3004    113.792892     77.242477   -999.250000   -999.250000   -999.250000
    4499.4004    114.051849     77.248444   -999.250000   -999.250000   -999.250000
    4499.5004    112.502060     77.247559   -999.250000   -999.250000   -999.250000
    4499.6004    110.675735     77.295761   -999.250000   -999.250000   -999.250000
    4499.7004    108.623505     77.627045   -999.250000   -999.250000   -999.250000
    4499.8004    108.175491     77.512512   -999.250000   -999.250000   -999.250000
    4499.9004    109.344055     76.764465   -999.250000   -999.250000   -999.250000
    4500.0004    109.067734     75.639572   -999.250000   -999.250000   -999.250000
    4500.1004    107.747604     74.828491   -999.250000   -999.250000   -999.250000
    4500.2004    106.399597     74.488052   -999.250000   -999.250000   -999.250000
    4500.3004    107.068878     73.784317   -999.250000   -999.250000      0.319310
    4500.4004    111.062134     73.024399   -999.250000   -999.250000      0.283188
    4500.5004    118.117126     72.570511   -999.250000   -999.250000      0.247309
    4500.6004    123.499451     72.562531   -999.250000   -999.250000      0.233532
    4500.7004    125.865707     72.761658   -999.250000   -999.250000      0.241635
    4500.8004    125.972168     72.949753   -999.250000   -999.250000      0.263429
    4500.9004    123.121643     72.897263   -999.250000   -999.250000      0.289885
    4501.0004    121.080475     72.479187   -999.250000   -999.250000      0.305723
    4501.1004    123.156189     71.708191   -999.250000   -999.250000      0.301595
    4501.2004    125.981705     71.013733   -999.250000   -999.250000      0.282445
    4501.3004    128.492615     70.981476   -999.250000   -999.250000      0.259942
    4501.4004    131.849731     72.115753   -999.250000   -999.250000      0.242040
    4501.5004    132.200409     74.770096   -999.250000   -999.250000      0.239880
    4501.6004    129.135284     77.635254   -999.250000   -999.250000      0.259484
    4501.7004    125.535034     78.855667   -999.250000   -999.250000      0.299677
    4501.8004    123.177322     78.251846   -999.250000   -999.250000      0.329743
    4501.9004    123.045593     76.647949   -999.250000   -999.250000      0.334494
    4502.0004    125.275375     74.607239   -999.250000   -999.250000      0.327677
    4502.1004    127.704651     72.868149   -999.250000   -999.250000      0.320755
    4502.2004    127.565933     71.779083   -999.250000   -999.250000      0.319783
    4502.3004    123.480499     71.067566   -999.250000   -999.250000      0.317711
    4502.4004    115.347473     70.649460   -999.250000   -999.250000      0.301911
    4502.5004    105.365143     70.433563   -999.250000   -999.250000      0.273060
    4502.6004     95.841705     70.301453   -999.250000   -999.250000      0.252267
    4502.7004     87.800034     70.079590   -999.250000   -999.250000      0.246896
    4502.8004     81.266846     69.653748   -999.250000   -999.250000      0.247503
    4502.9004     76.238495     69.052948   -999.250000   -999.250000      0.239831
    4503.0004     72.954285     68.339478   -999.250000   -999.250000      0.221272
    4503.1004     71.487671     67.766479   -999.250000   -999.250000      0.203799
    4503.2004     71.856766     67.740112   -999.250000   -999.250000      0.196258
    4503.3004     73.549057     68.312897   -999.250000   -999.250000      0.199791
    4503.4004     75.608963     69.062225   -999.250000   -999.250000      0.204628
    4503.5004     78.223862     69.921402   -999.250000   -999.250000      0.206887
    4503.6004     81.435516     70.939529   -999.250000   -999.250000      0.209818
    4503.7004     85.184219     72.072311   -999.250000   -999.250000      0.222604
    4503.8004     89.586441     72.771057   -999.250000   -999.250000      0.245031
    4503.9004     93.116730     72.775101   -999.250000   -999.250000      0.262060
    4504.0004     93.877731     72.507935   -999.250000   -999.250000      0.258238
    4504.1004     93.262131     72.329788   -999.250000   -999.250000      0.253190
    4504.2004     92.047714     72.157700   -999.250000   -999.250000      0.260544
    4504.3004     89.695633     71.454849   -999.250000   -999.250000      0.271102
    4504.4004     87.887421     70.542862   -999.250000   -999.250000      0.280611
    4504.5004     87.103973     69.745682   -999.250000   -999.250000      0.287410
    4504.6004     85.802322     69.029907   -999.250000   -999.250000      0.291549
    4504.7004     85.202530     68.736252   -999.250000   -999.250000      0.280846
    4504.8004     86.280792     68.907776   -999.250000   -999.250000      0.256493
    4504.9004     88.224579     69.147202   -999.250000   -999.250000      0.237155
    4505.0004     89.694336     69.459213   -999.250000   -999.250000      0.226381
    4505.1004     89.580841     69.848877   -999.250000   -999.250000      0.220814
    4505.2004     87.870041     70.190262   -999.250000   -999.250000      0.218646
    4505.3004     85.770782     70.286896   -999.250000   -999.250000      0.222815
    4505.4004     84.851685     70.150543   -999.250000   -999.250000      0.232916
    4505.5004     85.801041     69.931686   -999.250000   -999.250000      0.243764
    4505.6004     87.269897     69.280655   -999.250000   -999.250000      0.245060
    4505.7004     87.789978     68.146469   -999.250000   -999.250000      0.236454
    4505.8004     87.048981     67.001358   -999.250000   -999.250000      0.229310
    4505.9004     83.595901     65.967407   -999.250000   -999.250000      0.222774
    4506.0004     78.130554     65.046616   -999.250000   -999.250000      0.213092
    4506.1004     74.377136     64.493179   -999.250000   -999.250000      0.200903
    4506.2004     71.113831     64.694672   -999.250000   -999.250000      0.188487
    4506.3004     67.125183     65.626465   -999.250000   -999.250000      0.178343
    4506.4004     66.308899     66.837967   -999.250000   -999.250000      0.175233
    4506.5004     67.453918     68.022980   -999.250000   -999.250000      0.178735
