# LAS format data
~Version Information
VERS.     2.00: CWLS LOG ASCII STANDARD - VERSION 2.0
WRAP.       NO: ONE LINE PER DEPTH STEP
~Well Information
#MNEM   .UNITS    DATA                           DESCRIPTION
#----   ------    ----                           -----------
STRT    .M        63.1000                       :First Index Value
STOP    .M        4298.0000                     :Last Index Value
STEP    .M        0.0000                        :Frame Spacing
NULL    .         -999.2500                     :Absent Value
WELL    .         L05-07                        :Well Name   
FLD     .         FINDER_composites_22-02-2005  :Field Name  
CNTY    .                                       :County
STAT    .                                       :State
CTRY    .                                       :Country
LOC     .                                       :Location
API     .                                       :API Number
DATE    .                                       :Date
COMP    .         MOB                           :Company Name
SRVC    .                                       :Service Company
~Parameter Information
#MNEM   .UNITS    VALUE                          DESCRIPTION
#----   ------    -----                          -----------
TDD     .M        4287.00000                    :Total Depth (Driller)   
UBID    .         8132                          :Unique Borehole Id  
PDAT    .         Mean Sea Level                :Permanent Datum 
EPD     .M           0.00000                    :Elevation of Permanent Datum (PDAT) above Mean Sea Level
LMF     .         Rotary Table                  :Logging Measured From (Name of Logging Elevation Reference) 
APD     .M          36.80000                    :Elevation of Depth Reference (LMF) Above Permanent Datum
EGL     .M         -37.20000                    :Elevation of Ground Level Above Mean Sea Level  
~Curve Information
#MNEM   .UNITS    API CODE                       CURVE DESCRIPTION
#----   ------    --------                       -----------------
DEPT    .M                                      :1     Index curve
GR      .GAPI                                   :2     L05-07
DT      .US/F                                   :3     L05-07
RHOB    .G/C3                                   :4     L05-07
DRHO    .G/C3                                   :5     L05-07
NPHI    .V/V                                    :6     L05-07
~Ascii Log Data
# ...
    2607.1002     45.119820   -999.250000   -999.250000   -999.250000   -999.250000
    2607.2002     43.839920   -999.250000   -999.250000   -999.250000   -999.250000
    2607.3002     43.097672   -999.250000   -999.250000   -999.250000   -999.250000
    2607.4002     43.429604   -999.250000   -999.250000   -999.250000   -999.250000
    2607.5002     44.619865   -999.250000   -999.250000   -999.250000   -999.250000
    2607.6002     46.034904   -999.250000   -999.250000   -999.250000   -999.250000
    2607.7002     47.157486   -999.250000   -999.250000   -999.250000   -999.250000
    2607.8002     47.858109   -999.250000   -999.250000   -999.250000   -999.250000
    2607.9002     48.241898   -999.250000   -999.250000   -999.250000   -999.250000
    2608.0002     48.377930   -999.250000   -999.250000   -999.250000   -999.250000
    2608.1002     48.262016   -999.250000   -999.250000   -999.250000   -999.250000
    2608.2002     47.959229   -999.250000   -999.250000   -999.250000   -999.250000
    2608.3002     47.482445   -999.250000   -999.250000   -999.250000   -999.250000
    2608.4002     46.721642   -999.250000   -999.250000   -999.250000   -999.250000
    2608.5002     45.682304   -999.250000   -999.250000   -999.250000   -999.250000
    2608.6002     44.549004   -999.250000   -999.250000   -999.250000   -999.250000
    2608.7002     43.574142   -999.250000   -999.250000   -999.250000   -999.250000
    2608.8002     43.018867   -999.250000   -999.250000   -999.250000   -999.250000
    2608.9002     43.047997   -999.250000   -999.250000   -999.250000   -999.250000
    2609.0002     43.622536   -999.250000   -999.250000   -999.250000   -999.250000
    2609.1002     44.618057   -999.250000   -999.250000   -999.250000   -999.250000
    2609.2002     46.032120   -999.250000   -999.250000   -999.250000   -999.250000
    2609.3002     47.847656   -999.250000   -999.250000   -999.250000   -999.250000
    2609.4002     49.719582   -999.250000   -999.250000   -999.250000   -999.250000
    2609.5002     51.092232   -999.250000   -999.250000   -999.250000   -999.250000
    2609.6002     51.539589   -999.250000   -999.250000   -999.250000   -999.250000
    2609.7002     51.067284   -999.250000   -999.250000   -999.250000   -999.250000
    2609.8002     50.026230   -999.250000   -999.250000   -999.250000   -999.250000
    2609.9002     48.914940   -999.250000   -999.250000   -999.250000   -999.250000
    2610.0002     48.194855   -999.250000   -999.250000   -999.250000   -999.250000
    2610.1002     47.955894   -999.250000   -999.250000   -999.250000   -999.250000
    2610.2002     47.774010   -999.250000   -999.250000   -999.250000   -999.250000
    2610.3002     47.404182   -999.250000   -999.250000   -999.250000   -999.250000
    2610.4002     47.078644   -999.250000   -999.250000   -999.250000   -999.250000
    2610.5002     47.009171   -999.250000   -999.250000   -999.250000   -999.250000
    2610.6002     47.396828   -999.250000   -999.250000   -999.250000   -999.250000
    2610.7002     48.653473   -999.250000   -999.250000   -999.250000   -999.250000
    2610.8002     51.154335   -999.250000   -999.250000   -999.250000   -999.250000
    2610.9002     54.245682   -999.250000   -999.250000   -999.250000   -999.250000
    2611.0002     56.905067   -999.250000   -999.250000   -999.250000   -999.250000
    2611.1002     59.182564   -999.250000   -999.250000   -999.250000   -999.250000
    2611.2002     61.005356   -999.250000   -999.250000   -999.250000   -999.250000
    2611.3002     61.691101   -999.250000   -999.250000   -999.250000   -999.250000
    2611.4002     61.914627   -999.250000   -999.250000   -999.250000   -999.250000
    2611.5002     62.637993   -999.250000      1.844121     -0.046917   -999.250000
    2611.6002     63.618523   -999.250000      1.819873     -0.047595   -999.250000
    2611.7002     64.998657   -999.250000      1.802919     -0.050290   -999.250000
    2611.8002     67.121094   -999.250000      1.787912     -0.057633   -999.250000
    2611.9002     69.670685   -999.250000      1.779507     -0.064050   -999.250000
    2612.0002     71.638168   -999.250000      1.785063     -0.062862   -999.250000
    2612.1002     72.686508   -999.250000      1.803784     -0.053658   -999.250000
    2612.2002     73.606430   -999.250000      1.827892     -0.040994   -999.250000
    2612.3002     73.795914     90.310074      1.849695     -0.031243   -999.250000
    2612.4002     72.463165     88.464676      1.867211     -0.026335   -999.250000
    2612.5002     71.452881     87.145966      1.876649     -0.022436   -999.250000
    2612.6002     71.553757     89.163498      1.877539     -0.018939   -999.250000
    2612.7002     72.063965     94.280273      1.874551     -0.017783   -999.250000
    2612.8002     73.072296     98.993484      1.885714     -0.016596   -999.250000
    2612.9002     73.821899     99.981277      1.926679     -0.012679   -999.250000
    2613.0002     73.319595     96.635956      2.002194     -0.005350   -999.250000
    2613.1002     72.223511     93.063934      2.079626      0.001615   -999.250000
    2613.2002     71.300949     90.192764      2.135907      0.005583   -999.250000
    2613.3002     70.734390     85.253525      2.168000      0.006428   -999.250000
    2613.4002     70.862473     80.726013      2.178909      0.005944   -999.250000
    2613.5002     70.720383     78.710785      2.185253      0.005108   -999.250000
    2613.6002     68.767380     79.930298      2.197948      0.002947   -999.250000
    2613.7002     67.158081     80.592636      2.204327      0.002451   -999.250000
    2613.8002     67.081482     80.858032      2.188649      0.001979   -999.250000
    2613.9002     67.759048     84.967621      2.144107     -0.003985   -999.250000
    2614.0002     68.804062     86.264267      2.104750     -0.010270   -999.250000
    2614.1002     69.590363     83.290833      2.092442     -0.013276   -999.250000
    2614.2002     69.412720     83.841843      2.093600     -0.016176   -999.250000
    2614.3002     68.642715     86.578033      2.101885     -0.019439   -999.250000
    2614.4002     68.408997     88.065414      2.116407     -0.022432   -999.250000
    2614.5002     69.747910     88.560928      2.142608     -0.024648   -999.250000
    2614.6002     71.787674     88.757767      2.195239     -0.021410   -999.250000
    2614.7002     73.436981     88.357468      2.271921     -0.011882   -999.250000
    2614.8002     74.668533     86.275696      2.349567     -0.001891   -999.250000
    2614.9002     74.300964     84.245834      2.396796      0.004962   -999.250000
    2615.0002     71.943115     83.577850      2.399347      0.008215   -999.250000
    2615.1002     69.059631     82.637161      2.373894      0.009151   -999.250000
    2615.2002     66.332458     82.029099      2.345969      0.008759   -999.250000
    2615.3002     64.225800     82.765793      2.337451      0.008283   -999.250000
    2615.4002     63.985947     83.437714      2.362566      0.009385   -999.250000
    2615.5002     64.635880     83.384323      2.416951      0.012247   -999.250000
    2615.6002     64.526505     83.090012      2.479188      0.014852   -999.250000
    2615.7002     64.176773     82.591370      2.529596      0.014526   -999.250000
    2615.8002     63.557350     81.744675      2.557183      0.011166   -999.250000
    2615.9002     62.392609     80.713028      2.565379      0.006975   -999.250000
    2616.0002     61.678947     79.987976      2.561777      0.003740   -999.250000
    2616.1002     61.215744     79.698013      2.554997      0.001918   -999.250000
    2616.2002     59.829147     79.557159      2.550159      0.001233   -999.250000
    2616.3002     57.859940     79.434448      2.548113      0.001658   -999.250000
    2616.4002     56.642082     79.371170      2.546790      0.002530   -999.250000
    2616.5002     56.803566     79.300293      2.545313      0.003040   -999.250000
    2616.6002     57.998016     78.977600      2.546008      0.003301   -999.250000
