# LAS format data
~Version Information
VERS.     2.00: CWLS LOG ASCII STANDARD - VERSION 2.0
WRAP.       NO: ONE LINE PER DEPTH STEP
~Well Information
#MNEM   .UNITS    DATA                           DESCRIPTION
#----   ------    ----                           -----------
STRT    .M        81.0000                       :First Index Value
STOP    .M        4879.7006                     :Last Index Value
STEP    .M        0.0000                        :Frame Spacing
NULL    .         -999.2500                     :Absent Value
WELL    .         L05-B-01                      :Well Name   
FLD     .         FINDER_composites_22-02-2005  :Field Name  
CNTY    .                                       :County
STAT    .                                       :State
CTRY    .                                       :Country
LOC     .                                       :Location
API     .                                       :API Number
DATE    .                                       :Date
COMP    .         WIN                           :Company Name
SRVC    .                                       :Service Company
~Parameter Information
#MNEM   .UNITS    VALUE                          DESCRIPTION
#----   ------    -----                          -----------
TDD     .M        4906.00000                    :Total Depth (Driller)   
UBID    .         8552                          :Unique Borehole Id  
PDAT    .         Mean Sea Level                :Permanent Datum 
EPD     .M           0.00000                    :Elevation of Permanent Datum (PDAT) above Mean Sea Level
LMF     .                                       :Logging Measured From (Name of Logging Elevation Reference) 
APD     .M          40.00000                    :Elevation of Depth Reference (LMF) Above Permanent Datum
EKB     .M          40.00000                    :Elevation of Kelly Bushing Above Mean Sea Level 
~Other Information
composite_curve_qc 
~Curve Information
#MNEM   .UNITS    API CODE                       CURVE DESCRIPTION
#----   ------    --------                       -----------------
DEPT    .M                                      :1     Index curve
GR      .GAPI                                   :2     SNAM  
DT      .US/F                                   :3     SNAM  
RHOB    .G/C3                                   :4     SNAM  
DRHO    .G/C3                                   :5     SNAM  
NPHI    .V/V                                    :6     SNAM  
~Ascii Log Data
# ...
    4746.6002     54.756813     68.838028      2.436240      0.087180      0.128203
    4746.7002     58.419693     69.010269      2.456435      0.071147      0.130889
    4746.8002     61.251335     68.243774      2.487897      0.053282      0.125667
    4746.9002     62.894951     66.743744      2.526472      0.035033      0.119403
    4747.0002     63.819046     65.365829      2.565617      0.018199      0.118306
    4747.1002     64.903625     64.734695      2.595758      0.005290      0.123267
    4747.2002     66.264648     64.133759      2.609893     -0.001487      0.128215
    4747.3002     67.595551     63.557274      2.603843     -0.001922      0.129755
    4747.4002     67.963150     63.322777      2.583739      0.001673      0.128137
    4747.5002     65.612167     63.452080      2.557328      0.010089      0.124730
    4747.6002     60.769501     63.926140      2.533616      0.024743      0.121784
    4747.7002     55.300873     64.610001      2.517355      0.044494      0.120288
    4747.8002     50.398872     65.383362      2.509053      0.065740      0.118304
    4747.9002     47.377327     66.245255      2.507547      0.084236      0.116424
    4748.0002     46.295288     67.296524      2.510563      0.098398      0.115845
    4748.1002     45.473618     68.720306      2.516900      0.107091      0.114305
    4748.2002     43.969894     70.150208      2.521361      0.110379      0.111546
    4748.3002     41.994354     71.121277      2.519913      0.109025      0.108937
    4748.4002     40.577553     71.098877      2.511130      0.101268      0.109355
    4748.5002     40.072899     70.546616      2.502000      0.092853      0.110910
    4748.6002     40.237877     70.096588      2.499141      0.089580      0.110703
    4748.7002     41.115746     69.533951      2.503847      0.092774      0.112268
    4748.8002     41.908928     68.918610      2.508882      0.098176      0.116202
    4748.9002     41.831032     68.472412      2.507377      0.101646      0.121209
    4749.0002     40.351295     68.835129      2.503441      0.101964      0.126665
    4749.1002     37.697510     69.487686      2.502885      0.099903      0.130490
    4749.2002     33.989601     69.623260      2.509673      0.095930      0.130358
    4749.3002     30.531445     69.260986      2.524631      0.093089      0.130277
    4749.4002     28.275639     68.863235      2.541167      0.092361      0.130450
    4749.5002     28.282639     68.885818      2.550997      0.093988      0.127977
    4749.6002     29.531158     68.953049      2.545843      0.095642      0.124577
    4749.7002     30.822803     68.855392      2.531156      0.097765      0.121266
    4749.8002     31.327744     68.529312      2.514151      0.103245      0.117945
    4749.9002     31.789131     68.347717      2.496723      0.110377      0.116877
    4750.0002     32.524628     68.434113      2.477604      0.116036      0.116985
    4750.1002     33.497742     68.891144      2.452205      0.114410      0.114579
    4750.2002     34.757370     69.358551      2.428292      0.106755      0.112223
    4750.3002     36.072533     69.689758      2.412231      0.096496      0.111236
    4750.4002     36.757065     69.845154      2.418886      0.087593      0.112232
    4750.5002     37.028023     69.840057      2.447376      0.085021      0.110900
    4750.6002     37.270744     69.708084      2.487296      0.088243      0.107011
    4750.7002     38.727524     69.357925      2.520461      0.094842      0.104273
    4750.8002     39.928741     69.021469      2.533180      0.098727      0.104024
    4750.9002     40.303619     68.783508      2.527250      0.098508      0.105911
    4751.0002     40.041611     68.558762      2.513361      0.093314      0.110992
    4751.1002     39.470947     68.238876      2.507233      0.086851      0.113952
    4751.2002     38.754715     67.812592      2.512307      0.080731      0.113219
    4751.3002     39.089760     67.460129      2.525826      0.075130      0.115394
    4751.4002     39.424919     67.201019      2.535393      0.071146      0.119880
    4751.5002     39.199799     67.012146      2.536649      0.069065      0.125802
    4751.6002     40.150810     67.367386      2.510907      0.065654      0.122992
    4751.7002     41.712379     67.992981      2.471556      0.063068      0.117894
    4751.8002     43.450005     68.735001      2.424942      0.062937      0.114865
    4751.9002     45.035378     68.559204      2.386770      0.066119      0.114520
    4752.0002     44.892372     68.583969      2.357623      0.068594      0.114510
    4752.1002     41.663979     69.797852      2.335505      0.067602      0.113439
    4752.2002     37.261940     69.775513      2.321957      0.064246      0.111190
    4752.3002     33.219276     69.151932      2.314191      0.061141      0.110073
    4752.4002     30.408840     69.160599      2.311940      0.060236      0.112599
    4752.5002     29.679050     68.749176      2.317977      0.062323      0.113464
    4752.6002     29.980141     67.988480      2.331380      0.066302      0.112579
    4752.7002     30.393604     67.450287      2.353926      0.071706      0.111865
    4752.8002     31.048477     66.460342      2.386273      0.076850      0.113172
    4752.9002     32.149025     65.274155      2.425091      0.081677      0.115797
    4753.0002     34.176392     64.783859      2.470832      0.087241      0.118569
    4753.1002     37.054024     64.718506      2.513060      0.091738      0.117332
    4753.2002     40.424149     64.631744      2.548902      0.093450      0.112745
    4753.3002     43.756821     64.189575      2.571857      0.088139      0.107668
    4753.4002     46.258904     63.387222      2.590727      0.080405      0.103697
    4753.5002     47.715790     62.647232      2.613355      0.076353      0.101305
    4753.6002     48.016006     62.934662      2.645063      0.084413      0.101494
    4753.7002     48.658577     63.545532      2.673797      0.094302      0.102319
    4753.8002     50.355080     63.793678      2.690359      0.097294      0.103087
    4753.9002     52.570877     63.703819      2.691669      0.092047      0.107023
    4754.0002     55.510178     63.697929      2.690490      0.084622      0.111734
    4754.1002     58.916389     63.888130      2.696424      0.079913      0.114782
    4754.2002     60.957664     63.517738      2.707820      0.076757      0.117963
    4754.3002     62.043823     62.759857      2.714846      0.068397      0.120977
    4754.4002     63.279007     62.299866      2.711815      0.051681      0.122730
    4754.5002     63.487732     62.835495      2.705761      0.033714      0.123157
    4754.6002     62.810066     63.968857      2.701871      0.021191      0.122996
    4754.7002     62.174026     64.792999      2.698908      0.016198      0.123078
    4754.8002     61.707253     65.069122      2.686831      0.019516      0.123387
    4754.9002     62.116814     64.780029      2.658605      0.026976      0.122640
    4755.0002     64.116028     64.220703      2.616076      0.034009      0.120084
    4755.1002     67.590424     64.000549      2.570032      0.042132      0.118857
    4755.2002     72.028793     64.193451      2.534871      0.053334      0.120095
    4755.3002     76.039246     64.122025      2.516392      0.067854      0.121071
    4755.4002     75.094803     63.449234      2.513494      0.081981      0.119423
    4755.5002     68.298325     62.578423      2.515979      0.089572      0.115791
    4755.6002     59.812302     62.424126      2.514789      0.087110      0.113886
    4755.7002     50.437546     63.123413      2.510539      0.074284      0.114248
    4755.8002     42.757080     64.186920      2.507745      0.056276      0.115201
    4755.9002     39.573143     65.106506      2.510097      0.038261      0.115476
    4756.0002     39.454170     65.879395      2.519917      0.024486      0.117694
    4756.1002     39.559959     66.446426      2.532193      0.017588      0.122221
