# LAS format data
~Version Information
VERS.     2.00: CWLS LOG ASCII STANDARD - VERSION 2.0
WRAP.       NO: ONE LINE PER DEPTH STEP
~Well Information
#MNEM   .UNITS    DATA                           DESCRIPTION
#----   ------    ----                           -----------
STRT    .M        81.0000                       :First Index Value
STOP    .M        4879.7006                     :Last Index Value
STEP    .M        0.0000                        :Frame Spacing
NULL    .         -999.2500                     :Absent Value
WELL    .         L05-B-01                      :Well Name   
FLD     .         FINDER_composites_22-02-2005  :Field Name  
CNTY    .                                       :County
STAT    .                                       :State
CTRY    .                                       :Country
LOC     .                                       :Location
API     .                                       :API Number
DATE    .                                       :Date
COMP    .         WIN                           :Company Name
SRVC    .                                       :Service Company
~Parameter Information
#MNEM   .UNITS    VALUE                          DESCRIPTION
#----   ------    -----                          -----------
TDD     .M        4906.00000                    :Total Depth (Driller)   
UBID    .         8552                          :Unique Borehole Id  
PDAT    .         Mean Sea Level                :Permanent Datum 
EPD     .M           0.00000                    :Elevation of Permanent Datum (PDAT) above Mean Sea Level
LMF     .                                       :Logging Measured From (Name of Logging Elevation Reference) 
APD     .M          40.00000                    :Elevation of Depth Reference (LMF) Above Permanent Datum
EKB     .M          40.00000                    :Elevation of Kelly Bushing Above Mean Sea Level 
~Other Information
composite_curve_qc 
~Curve Information
#MNEM   .UNITS    API CODE                       CURVE DESCRIPTION
#----   ------    --------                       -----------------
DEPT    .M                                      :1     Index curve
GR      .GAPI                                   :2     SNAM  
DT      .US/F                                   :3     SNAM  
RHOB    .G/C3                                   :4     SNAM  
DRHO    .G/C3                                   :5     SNAM  
NPHI    .V/V                                    :6     SNAM  
~Ascii Log Data
# ...
    4698.6004     26.045300     77.528702      2.413648     -0.022568      0.165701
    4698.7004     24.720306     77.995880      2.398505     -0.021948      0.163845
    4698.8004     24.123501     78.338531      2.388550     -0.021002      0.163395
    4698.9004     23.635139     78.310745      2.382781     -0.020381      0.165125
    4699.0004     23.157276     77.625366      2.379177     -0.020371      0.166104
    4699.1004     22.708172     76.986588      2.376348     -0.020729      0.165988
    4699.2004     22.364002     77.971039      2.374019     -0.021243      0.165252
    4699.3004     22.544418     78.610916      2.372344     -0.021912      0.164109
    4699.4004     23.041668     78.550034      2.371516     -0.022618      0.163049
    4699.5004     23.189552     78.567459      2.373123     -0.022966      0.163529
    4699.6004     23.260109     78.482727      2.375965     -0.023178      0.159204
    4699.7004     23.328945     78.256622      2.378737     -0.023468      0.150375
    4699.8004     22.827244     78.289948      2.378077     -0.024201      0.145114
    4699.9004     22.217869     77.782333      2.373688     -0.025277      0.147905
    4700.0004     21.749981     76.640060      2.366811     -0.026547      0.157104
    4700.1004     21.136002     76.679611      2.360342     -0.027948      0.161859
    4700.2004     20.552361     77.949585      2.356180     -0.029140      0.162508
    4700.3004     20.116322     79.932098      2.354479     -0.029969      0.161450
    4700.4004     19.905491     80.135910      2.357278     -0.029402      0.158142
    4700.5004     20.152901     79.215973      2.362235     -0.028096      0.154142
    4700.6004     20.912395     78.097122      2.367517     -0.026677      0.150619
    4700.7004     21.461735     76.957504      2.372892     -0.025625      0.150337
    4700.8004     21.914066     76.193878      2.377764     -0.024984      0.151154
    4700.9004     22.565361     76.016556      2.381620     -0.024647      0.150603
    4701.0004     22.870972     76.143921      2.383027     -0.024804      0.148286
    4701.1004     23.019726     76.265335      2.382693     -0.025199      0.144832
    4701.2004     23.384289     76.270813      2.381763     -0.025532      0.141273
    4701.3004     23.368382     76.206589      2.380082     -0.025779      0.141198
    4701.4004     23.043915     76.154785      2.377469     -0.026040      0.144318
    4701.5004     22.884205     76.166016      2.373800     -0.026416      0.148401
    4701.6004     22.874874     76.262375      2.370345     -0.026791      0.152979
    4701.7004     22.999874     76.338730      2.368234     -0.027026      0.156176
    4701.8004     23.285339     76.266342      2.367797     -0.027044      0.155646
    4701.9004     23.200462     76.179718      2.369178     -0.026782      0.151895
    4702.0004     22.556229     76.162552      2.371738     -0.026295      0.146948
    4702.1004     21.661743     76.126328      2.375067     -0.025653      0.141893
    4702.2004     20.670403     76.113739      2.378836     -0.025086      0.139345
    4702.3004     19.877502     76.181778      2.382547     -0.024863      0.139860
    4702.4004     19.605911     76.309402      2.385647     -0.025129      0.141274
    4702.5004     19.793808     76.368073      2.385890     -0.025908      0.144209
    4702.6004     20.159645     76.238876      2.382089     -0.027036      0.148815
    4702.7004     20.701603     75.947678      2.375016     -0.028450      0.153250
    4702.8004     21.270050     75.726532      2.366529     -0.029793      0.156982
    4702.9004     21.746151     75.678101      2.358759     -0.030754      0.159601
    4703.0004     22.231636     75.533890      2.352596     -0.031327      0.158616
    4703.1004     22.775791     75.437057      2.348218     -0.031634      0.155216
    4703.2004     23.217751     75.623795      2.344404     -0.032058      0.152705
    4703.3004     23.079258     75.780457      2.340816     -0.032952      0.150074
    4703.4004     22.301132     75.716187      2.338505     -0.034134      0.145635
    4703.5004     21.632412     75.445938      2.338923     -0.035022      0.139432
    4703.6004     22.220779     74.850204      2.341706     -0.035597      0.135809
    4703.7004     25.096264     73.860504      2.345430     -0.035909      0.138234
    4703.8004     29.873440     72.597641      2.348543     -0.035933      0.145955
    4703.9004     34.967751     71.278290      2.351820     -0.035345      0.155987
    4704.0004     38.688560     70.353058      2.357046     -0.034111      0.163352
    4704.1004     40.424065     70.004715      2.366519     -0.032490      0.164570
    4704.2004     39.547569     69.637146      2.384158     -0.030108      0.158350
    4704.3004     36.970802     69.137543      2.411244     -0.026830      0.146519
    4704.4004     34.644478     69.170380      2.443936     -0.023092      0.133831
    4704.5004     32.658089     69.426437      2.479347     -0.019413      0.124601
    4704.6004     31.044136     69.663879      2.511794     -0.016485      0.120603
    4704.7004     30.085705     70.022141      2.536388     -0.014710      0.118180
    4704.8004     30.173950     70.135345      2.548863     -0.014398      0.113688
    4704.9004     31.168755     69.954468      2.550517     -0.015080      0.106588
    4705.0004     32.661095     69.933350      2.545963     -0.016091      0.101233
    4705.1004     34.881424     69.874557      2.538519     -0.017638      0.099045
    4705.2004     37.309990     69.722580      2.531692     -0.019679      0.097854
    4705.3004     38.651070     69.845291      2.526535     -0.021585      0.094114
    4705.4004     38.950470     69.948929      2.523680     -0.022439      0.090331
    4705.5004     38.653679     69.805222      2.522475     -0.022081      0.089574
    4705.6004     37.459808     69.693436      2.521939     -0.021234      0.091073
    4705.7004     36.209671     69.463348      2.522523     -0.020418      0.092510
    4705.8004     35.565361     69.061066      2.525005     -0.019688      0.091884
    4705.9004     34.874100     68.830383      2.530824     -0.018372      0.089025
    4706.0004     33.870056     68.745544      2.539917     -0.016508      0.086787
    4706.1004     32.660904     68.681702      2.549737     -0.014759      0.087623
    4706.2004     31.505131     68.763947      2.554331     -0.014442      0.092713
    4706.3004     30.773014     68.944153      2.549839     -0.015977      0.100431
    4706.4004     30.523556     69.147781      2.537473     -0.018821      0.108567
    4706.5004     30.641300     69.468979      2.519730     -0.022463      0.115001
    4706.6004     30.513226     69.723206      2.504823     -0.025601      0.116333
    4706.7004     29.811459     69.791183      2.496658     -0.027642      0.112124
    4706.8004     28.831299     69.879333      2.496874     -0.027813      0.108160
    4706.9004     27.890732     69.836288      2.498973     -0.027289      0.107602
    4707.0004     27.082649     69.505402      2.498326     -0.027051      0.110398
    4707.1004     27.309654     69.120392      2.492669     -0.027142      0.114028
    4707.2004     28.194458     68.762558      2.485764     -0.026496      0.117881
    4707.3004     29.259739     68.419342      2.480766     -0.024361      0.122322
    4707.4004     30.175671     67.740204      2.482512     -0.022292      0.119790
    4707.5004     30.704159     67.409210      2.488389     -0.021052      0.114602
    4707.6004     30.675632     68.118729      2.495934     -0.020880      0.111777
    4707.7004     30.118710     68.602112      2.505274     -0.020553      0.108303
    4707.8004     29.260006     68.797165      2.515107     -0.020024      0.103257
    4707.9004     28.183800     69.038696      2.524016     -0.019687      0.096800
    4708.0004     27.509232     69.264297      2.527588     -0.021167      0.096291
    4708.1004     27.193096     69.428726      2.526894     -0.023379      0.100920
