# LAS format data
~Version Information
VERS.     2.00: CWLS LOG ASCII STANDARD - VERSION 2.0
WRAP.       NO: ONE LINE PER DEPTH STEP
~Well Information
#MNEM   .UNITS    DATA                           DESCRIPTION
#----   ------    ----                           -----------
STRT    .M        63.1000                       :First Index Value
STOP    .M        4298.0000                     :Last Index Value
STEP    .M        0.0000                        :Frame Spacing
NULL    .         -999.2500                     :Absent Value
WELL    .         L05-07                        :Well Name   
FLD     .         FINDER_composites_22-02-2005  :Field Name  
CNTY    .                                       :County
STAT    .                                       :State
CTRY    .                                       :Country
LOC     .                                       :Location
API     .                                       :API Number
DATE    .                                       :Date
COMP    .         MOB                           :Company Name
SRVC    .                                       :Service Company
~Parameter Information
#MNEM   .UNITS    VALUE                          DESCRIPTION
#----   ------    -----                          -----------
TDD     .M        4287.00000                    :Total Depth (Driller)   
UBID    .         8132                          :Unique Borehole Id  
PDAT    .         Mean Sea Level                :Permanent Datum 
EPD     .M           0.00000                    :Elevation of Permanent Datum (PDAT) above Mean Sea Level
LMF     .         Rotary Table                  :Logging Measured From (Name of Logging Elevation Reference) 
APD     .M          36.80000                    :Elevation of Depth Reference (LMF) Above Permanent Datum
EGL     .M         -37.20000                    :Elevation of Ground Level Above Mean Sea Level  
~Curve Information
#MNEM   .UNITS    API CODE                       CURVE DESCRIPTION
#----   ------    --------                       -----------------
DEPT    .M                                      :1     Index curve
GR      .GAPI                                   :2     L05-07
DT      .US/F                                   :3     L05-07
RHOB    .G/C3                                   :4     L05-07
DRHO    .G/C3                                   :5     L05-07
NPHI    .V/V                                    :6     L05-07
~Ascii Log Data
# ...
    3336.7001    100.667389     85.586838      2.640483     -0.003758      0.330935
    3336.8001    101.140259     85.098541      2.644534     -0.003459      0.324852
    3336.9001    101.171768     84.511642      2.649500     -0.003044      0.320129
    3337.0001    100.989227     83.932739      2.654301     -0.002952      0.319837
    3337.1001    100.796051     83.333908      2.657064     -0.003731      0.323406
    3337.2001    100.850327     82.867859      2.656311     -0.005338      0.329053
    3337.3001    101.576385     82.891052      2.652288     -0.007106      0.336304
    3337.4001    102.733200     83.525787      2.646479     -0.008684      0.343397
    3337.5001    103.585815     84.323807      2.640866     -0.010248      0.347905
    3337.6001    104.079147     84.651794      2.637348     -0.011734      0.350996
    3337.7001    104.204437     84.489914      2.636312     -0.012618      0.354157
    3337.8001    103.768341     84.344986      2.634766     -0.011900      0.356094
    3337.9001    103.557480     84.389664      2.625610     -0.008299      0.355750
    3338.0001    104.266052     84.404282      2.603697     -0.002124      0.351619
    3338.1001    105.419342     84.248703      2.571466      0.004354      0.342700
    3338.2001    106.518661     83.986023      2.538956      0.008981      0.333811
    3338.3001    107.490433     83.706558      2.520857      0.012212      0.331483
    3338.4001    108.277237     83.433121      2.528366      0.016859      0.336105
    3338.5001    108.584671     83.243759      2.561498      0.024271      0.341630
    3338.6001    108.350601     83.212357      2.604499      0.030701      0.341975
    3338.7001    108.002579     83.359085      2.635299      0.029793      0.335857
    3338.8001    107.770370     83.855606      2.642111      0.020906      0.325146
    3338.9001    107.750824     84.568024      2.631784      0.010277      0.316080
    3339.0001    108.200134     84.871979      2.622012      0.003948      0.317187
    3339.1001    108.651230     84.657837      2.618073      0.002139      0.326393
    3339.2001    108.400452     84.296829      2.616237      0.001834      0.334903
    3339.3001    107.236649     83.846222      2.620675      0.003434      0.339579
    3339.4001    105.808029     83.432602      2.628835      0.006134      0.338533
    3339.5001    105.040421     83.226181      2.634508      0.007881      0.332306
    3339.6001    105.932495     83.288651      2.641100      0.007862      0.325472
    3339.7001    107.347122     83.349670      2.647945      0.006809      0.319560
    3339.8001    107.410110     83.154175      2.651229      0.005787      0.312547
    3339.9001    105.583710     83.140350      2.651249      0.005147      0.310670
    3340.0001    103.044586     83.030792      2.646909      0.003668      0.314533
    3340.1001    101.033417     82.167053      2.635379     -0.000197      0.319983
    3340.2001    100.452881     82.122757      2.622702     -0.003836      0.329130
    3340.3001    101.508331     82.971832      2.614139     -0.005913      0.338522
    3340.4001    104.180466     83.322296      2.609644     -0.007564      0.341683
    3340.5001    106.554276     83.589447      2.610726     -0.007826      0.337920
    3340.6001    107.520447     84.247833      2.615815     -0.006636      0.328413
    3340.7001    107.669586     85.261490      2.622601     -0.004790      0.312097
    3340.8001    106.791702     85.803345      2.632946     -0.002624      0.301164
    3340.9001    105.289948     85.813919      2.645403     -0.000737      0.298219
    3341.0001    103.929504     85.932434      2.653909     -0.000193      0.296521
    3341.1001    103.808533     86.143875      2.662381     -0.000065      0.299921
    3341.2001    104.420059     86.206604      2.672739      0.000215      0.305855
    3341.3001    104.085083     85.931335      2.679874     -0.000216      0.304899
    3341.4001    103.352203     85.694290      2.683062     -0.001435      0.308615
    3341.5001    102.583038     85.690857      2.684584     -0.002611      0.321588
    3341.6001    100.796295     85.637695      2.684875     -0.002796      0.330355
    3341.7001     99.060089     85.502808      2.683007     -0.003677      0.337872
    3341.8001     98.180649     85.300385      2.679449     -0.005797      0.346667
    3341.9001     96.813217     84.869171      2.676093     -0.006736      0.346249
    3342.0001     94.509888     84.316925      2.668822     -0.007241      0.339778
    3342.1001     92.278748     83.827576      2.655402     -0.008584      0.336433
    3342.2001     91.603867     83.357803      2.640622     -0.009548      0.338710
    3342.3001     92.692581     82.880707      2.627825     -0.009612      0.345619
    3342.4001     95.305267     82.559265      2.619485     -0.008766      0.354207
    3342.5001    100.118912     82.679031      2.617400     -0.006432      0.360881
    3342.6001    106.142624     83.410751      2.619882     -0.003545      0.362051
    3342.7001    111.170502     84.524124      2.623620     -0.001169      0.356719
    3342.8001    114.026962     85.548019      2.629234      0.001611      0.346872
    3342.9001    114.552826     86.142334      2.637713      0.004421      0.338424
    3343.0001    113.143921     86.405640      2.647224      0.006114      0.334797
    3343.1001    110.003036     86.640320      2.653897      0.007108      0.332256
    3343.2001    106.551483     86.775940      2.656628      0.007969      0.329123
    3343.3001    104.322937     86.587723      2.657583      0.008674      0.326238
    3343.4001    103.197495     86.157562      2.658242      0.009006      0.322646
    3343.5001    102.769302     85.536713      2.659511      0.008650      0.320752
    3343.6001    102.822189     84.717896      2.661874      0.007785      0.324196
    3343.7001    102.933990     83.958954      2.664032      0.007087      0.331760
    3343.8001    103.123138     83.486923      2.662987      0.006069      0.341525
    3343.9001    103.749710     83.289627      2.656836      0.003733      0.351494
    3344.0001    104.532257     83.358536      2.647551      0.000781      0.356069
    3344.1001    104.906082     83.724808      2.639810     -0.001398      0.353402
    3344.2001    104.590668     84.322815      2.636404     -0.002308      0.346688
    3344.3001    103.399200     84.942963      2.636487     -0.002050      0.337059
    3344.4001    101.466751     85.415421      2.637621     -0.001272      0.326450
    3344.5001     99.528595     85.745972      2.638038     -0.000533      0.318479
    3344.6001     98.465317     85.972549      2.636508      0.000372      0.312848
    3344.7001     98.228622     85.999527      2.633058      0.001618      0.307065
    3344.8001     98.048019     85.725266      2.629148      0.002911      0.301919
    3344.9001     97.552734     85.246750      2.626350      0.004263      0.299570
    3345.0001     97.066116     84.651505      2.625530      0.005771      0.300256
    3345.1001     97.049973     83.939590      2.626349      0.006945      0.302955
    3345.2001     97.736481     83.281677      2.626918      0.007376      0.306217
    3345.3001     99.031921     82.917648      2.626666      0.007379      0.308032
    3345.4001    100.580856     82.795135      2.627630      0.007518      0.307660
    3345.5001    101.989532     82.648727      2.631174      0.007808      0.307812
    3345.6001    102.808395     82.434341      2.636109      0.007663      0.311004
    3345.7001    102.751297     82.298691      2.640570      0.006621      0.316587
    3345.8001    101.932419     82.200317      2.643252      0.004906      0.323002
    3345.9001    100.576035     82.008743      2.643166      0.003196      0.326597
    3346.0001     98.750732     81.856125      2.641109      0.001816      0.321888
    3346.1001     96.694382     81.888275      2.640962      0.000654      0.308581
    3346.2001     94.792297     81.707489      2.647224      0.000033      0.293390
