# LAS format data
~Version Information
VERS.     2.00: CWLS LOG ASCII STANDARD - VERSION 2.0
WRAP.       NO: ONE LINE PER DEPTH STEP
~Well Information
#MNEM   .UNITS    DATA                           DESCRIPTION
#----   ------    ----                           -----------
STRT    .M        63.1000                       :First Index Value
STOP    .M        4298.0000                     :Last Index Value
STEP    .M        0.0000                        :Frame Spacing
NULL    .         -999.2500                     :Absent Value
WELL    .         L05-07                        :Well Name   
FLD     .         FINDER_composites_22-02-2005  :Field Name  
CNTY    .                                       :County
STAT    .                                       :State
CTRY    .                                       :Country
LOC     .                                       :Location
API     .                                       :API Number
DATE    .                                       :Date
COMP    .         MOB                           :Company Name
SRVC    .                                       :Service Company
~Parameter Information
#MNEM   .UNITS    VALUE                          DESCRIPTION
#----   ------    -----                          -----------
TDD     .M        4287.00000                    :Total Depth (Driller)   
UBID    .         8132                          :Unique Borehole Id  
PDAT    .         Mean Sea Level                :Permanent Datum 
EPD     .M           0.00000                    :Elevation of Permanent Datum (PDAT) above Mean Sea Level
LMF     .         Rotary Table                  :Logging Measured From (Name of Logging Elevation Reference) 
APD     .M          36.80000                    :Elevation of Depth Reference (LMF) Above Permanent Datum
EGL     .M         -37.20000                    :Elevation of Ground Level Above Mean Sea Level  
~Curve Information
#MNEM   .UNITS    API CODE                       CURVE DESCRIPTION
#----   ------    --------                       -----------------
DEPT    .M                                      :1     Index curve
GR      .GAPI                                   :2     L05-07
DT      .US/F                                   :3     L05-07
RHOB    .G/C3                                   :4     L05-07
DRHO    .G/C3                                   :5     L05-07
NPHI    .V/V                                    :6     L05-07
~Ascii Log Data
# ...
    2712.7003     99.832031     94.703735      2.557180      0.021204   -999.250000
    2712.8003    100.345856     94.578522      2.574458      0.014870   -999.250000
    2712.9003    100.702377     94.029251      2.593380      0.010392   -999.250000
    2713.0003    100.280731     93.313583      2.611515      0.007340   -999.250000
    2713.1003     98.705887     92.592285      2.624582      0.004984   -999.250000
    2713.2003     96.106033     91.881454      2.627409      0.001955   -999.250000
    2713.3003     93.003632     91.356979      2.619355     -0.002456   -999.250000
    2713.4003     90.229523     91.388260      2.607368     -0.006960   -999.250000
    2713.5003     88.507538     92.077789      2.597666     -0.009881   -999.250000
    2713.6003     88.015198     93.090164      2.590716     -0.011138   -999.250000
    2713.7003     88.316833     94.028503      2.583571     -0.012066   -999.250000
    2713.8003     89.075684     94.793533      2.573801     -0.013406   -999.250000
    2713.9003     90.202377     95.444839      2.563121     -0.014437   -999.250000
    2714.0003     91.617432     95.992661      2.556655     -0.014143   -999.250000
    2714.1003     93.366852     96.331970      2.557971     -0.012447   -999.250000
    2714.2003     95.485672     96.335510      2.566675     -0.010081   -999.250000
    2714.3003     97.463745     95.990631      2.581277     -0.007705   -999.250000
    2714.4003     98.288071     95.500626      2.599315     -0.005790   -999.250000
    2714.5003     97.503113     95.049835      2.616996     -0.004642   -999.250000
    2714.6003     95.645218     94.596252      2.630678     -0.004295   -999.250000
    2714.7003     93.590424     94.140823      2.638176     -0.004510   -999.250000
    2714.8003     91.998688     93.863159      2.637436     -0.005134   -999.250000
    2714.9003     91.386688     93.862717      2.626188     -0.006315   -999.250000
    2715.0003     91.745819     94.024521      2.606335     -0.008002   -999.250000
    2715.1001     92.540710     94.283875      2.584325     -0.009209   -999.250000
    2715.2001     93.333908     94.723480      2.566831     -0.008488   -999.250000
    2715.3001     94.124252     95.269806      2.556337     -0.005896   -999.250000
    2715.4001     94.765625     95.733978      2.551868     -0.002908   -999.250000
    2715.5001     94.587891     96.166565      2.551262     -0.000356   -999.250000
    2715.6001     93.473862     96.652390      2.551921      0.001943   -999.250000
    2715.7001     92.622253     97.011963      2.552045      0.004110   -999.250000
    2715.8001     93.286301     97.014435      2.551096      0.005861   -999.250000
    2715.9001     95.536804     96.438705      2.545955      0.006411   -999.250000
    2716.0001     98.234039     95.417877      2.533694      0.005213   -999.250000
    2716.1001     99.956696     94.794449      2.521204      0.003320   -999.250000
    2716.2001     99.530991     94.824982      2.519377      0.002092   -999.250000
    2716.3001     96.528671     94.660721      2.534167      0.001802   -999.250000
    2716.4001     92.533798     94.163086      2.565830      0.002447   -999.250000
    2716.5001     89.615097     94.012680      2.607393      0.003723   -999.250000
    2716.6001     88.607025     94.361618      2.641699      0.004361   -999.250000
    2716.7001     89.211960     94.340729      2.652917      0.002857   -999.250000
    2716.8001     90.068726     93.625870      2.639518     -0.000779   -999.250000
    2716.9001     89.300705     93.359909      2.615247     -0.004611   -999.250000
    2717.0001     87.134064     93.801651      2.592136     -0.007014   -999.250000
    2717.1001     85.124069     94.251999      2.574589     -0.008064   -999.250000
    2717.2001     83.611389     94.655914      2.561950     -0.009469   -999.250000
    2717.3001     83.374832     95.069855      2.552579     -0.011467   -999.250000
    2717.4001     85.171524     95.280869      2.545915     -0.012863   -999.250000
    2717.5001     88.152466     95.085144      2.540372     -0.013616   -999.250000
    2717.6001     90.770447     94.958145      2.536257     -0.014152   -999.250000
    2717.7001     92.451111     95.451157      2.534811     -0.014910   -999.250000
    2717.8001     94.180786     96.111389      2.535612     -0.017068   -999.250000
    2717.9001     95.530334     96.329208      2.538455     -0.019346   -999.250000
    2718.0001     95.233917     96.020508      2.543715     -0.019462   -999.250000
    2718.1001     94.203674     95.361282      2.551652     -0.018305   -999.250000
    2718.2001     93.151169     94.757065      2.558496     -0.017342   -999.250000
    2718.3001     91.604065     94.470139      2.559917     -0.016754   -999.250000
    2718.4001     90.908691     94.449860      2.557288     -0.016733   -999.250000
    2718.5001     91.545380     94.631760      2.553857     -0.016580   -999.250000
    2718.6001     92.485535     95.182922      2.550030     -0.014810   -999.250000
    2718.7001     93.277573     95.822739      2.548426     -0.012231   -999.250000
    2718.8001     93.658615     96.300034      2.550183     -0.009762   -999.250000
    2718.9001     93.284393     96.721558      2.555067     -0.006619   -999.250000
    2719.0001     92.708969     97.005173      2.557554     -0.004721   -999.250000
    2719.1001     92.372757     97.154877      2.554902     -0.004254   -999.250000
    2719.2001     91.893356     97.233185      2.549249     -0.002685   -999.250000
    2719.3001     91.308716     97.004135      2.540984     -0.000977   -999.250000
    2719.4001     90.869461     96.536224      2.532397     -0.000219   -999.250000
    2719.5001     91.008575     96.356827      2.530588      0.000109   -999.250000
    2719.6001     91.388412     96.247803      2.539279      0.000509   -999.250000
    2719.7001     91.562943     95.899750      2.556139      0.001383   -999.250000
    2719.8001     91.535904     95.575912      2.577267      0.003201   -999.250000
    2719.9001     91.123367     95.545486      2.593206      0.005105   -999.250000
    2720.0001     90.345871     95.710556      2.598318      0.006767   -999.250000
    2720.1001     89.735428     95.637131      2.590410      0.009573   -999.250000
    2720.2001     89.242737     95.437408      2.572736      0.012470   -999.250000
    2720.3001     88.584457     95.433624      2.553116      0.014048   -999.250000
    2720.4001     87.962555     95.533478      2.543898      0.016257   -999.250000
    2720.5001     87.896713     95.650452      2.547968      0.020307   -999.250000
    2720.6001     88.470398     95.773209      2.559900      0.024726   -999.250000
    2720.7001     88.914673     95.813583      2.571311      0.025980   -999.250000
    2720.8001     89.684692     95.821548      2.573235      0.022634   -999.250000
    2720.9001     91.160400     95.900513      2.562013      0.016542   -999.250000
    2721.0001     91.670853     96.055435      2.544219      0.011280   -999.250000
    2721.1001     91.372879     96.439377      2.526082      0.007509   -999.250000
    2721.2001     91.611420     97.203293      2.512065      0.004193   -999.250000
    2721.3001     91.683289     98.150787      2.508548      0.002031   -999.250000
    2721.4001     91.378845     98.830063      2.517219      0.001528   -999.250000
    2721.5001     91.790665     99.049850      2.531786      0.001699   -999.250000
    2721.6001     93.059555     99.097061      2.544780      0.001786   -999.250000
    2721.7001     94.462799     99.092346      2.551583      0.001793   -999.250000
    2721.8001     95.496857     98.806137      2.550951      0.002043   -999.250000
    2721.9001     96.075989     98.179199      2.542563      0.002801   -999.250000
    2722.0001     96.140854     97.462189      2.527483      0.004504   -999.250000
    2722.1001     95.758087     96.854828      2.508186      0.007940   -999.250000
    2722.2001     95.282486     96.314957      2.486890      0.013017   -999.250000
