# LAS format data
~Version Information
VERS.     2.00: CWLS LOG ASCII STANDARD - VERSION 2.0
WRAP.       NO: ONE LINE PER DEPTH STEP
~Well Information
#MNEM   .UNITS    DATA                           DESCRIPTION
#----   ------    ----                           -----------
STRT    .M        63.1000                       :First Index Value
STOP    .M        4298.0000                     :Last Index Value
STEP    .M        0.0000                        :Frame Spacing
NULL    .         -999.2500                     :Absent Value
WELL    .         L05-07                        :Well Name   
FLD     .         FINDER_composites_22-02-2005  :Field Name  
CNTY    .                                       :County
STAT    .                                       :State
CTRY    .                                       :Country
LOC     .                                       :Location
API     .                                       :API Number
DATE    .                                       :Date
COMP    .         MOB                           :Company Name
SRVC    .                                       :Service Company
~Parameter Information
#MNEM   .UNITS    VALUE                          DESCRIPTION
#----   ------    -----                          -----------
TDD     .M        4287.00000                    :Total Depth (Driller)   
UBID    .         8132                          :Unique Borehole Id  
PDAT    .         Mean Sea Level                :Permanent Datum 
EPD     .M           0.00000                    :Elevation of Permanent Datum (PDAT) above Mean Sea Level
LMF     .         Rotary Table                  :Logging Measured From (Name of Logging Elevation Reference) 
APD     .M          36.80000                    :Elevation of Depth Reference (LMF) Above Permanent Datum
EGL     .M         -37.20000                    :Elevation of Ground Level Above Mean Sea Level  
~Curve Information
#MNEM   .UNITS    API CODE                       CURVE DESCRIPTION
#----   ------    --------                       -----------------
DEPT    .M                                      :1     Index curve
GR      .GAPI                                   :2     L05-07
DT      .US/F                                   :3     L05-07
RHOB    .G/C3                                   :4     L05-07
DRHO    .G/C3                                   :5     L05-07
NPHI    .V/V                                    :6     L05-07
~Ascii Log Data
# ...
    3864.7000     75.755630     79.673660      2.612890     -0.000695   -999.250000
    3864.8000     75.842758     79.774033      2.617029     -0.000688   -999.250000
    3864.9000     74.141220     80.073212      2.625647      0.000285   -999.250000
    3865.0000     71.099884     80.363571      2.639376      0.001644   -999.250000
    3865.1000     67.624481     80.370102      2.657027      0.003050   -999.250000
    3865.2000     65.049469     80.100540      2.677083      0.004738   -999.250000
    3865.3000     63.600021     79.701492      2.696963      0.006438   -999.250000
    3865.4000     62.316650     79.085358      2.712384      0.006970   -999.250000
    3865.5000     61.250259     78.028915      2.719344      0.005853   -999.250000
    3865.6000     60.887680     76.653137      2.719116      0.003733   -999.250000
    3865.7000     61.057747     75.434158      2.716239      0.001406   -999.250000
    3865.8000     61.646187     74.580017      2.711728     -0.000422   -999.250000
    3865.9000     62.599609     73.902878      2.704756     -0.001440   -999.250000
    3866.0000     63.501122     73.374619      2.696254     -0.001633   -999.250000
    3866.1000     64.184235     73.436325      2.683274     -0.001717   -999.250000
    3866.2000     65.094315     74.310593      2.662861     -0.002345   -999.250000
    3866.3000     67.026108     75.435760      2.640331     -0.003264   -999.250000
    3866.4000     69.375900     76.636642      2.620935     -0.004475   -999.250000
    3866.5000     71.270401     78.097580      2.605282     -0.006262   -999.250000
    3866.6000     72.935349     79.204102      2.597220     -0.008174   -999.250000
    3866.7000     72.998215     79.832138      2.597817     -0.009131   -999.250000
    3866.8000     70.065872     80.374451      2.604625     -0.008593   -999.250000
    3866.9000     66.987122     80.585815      2.613293     -0.007605   -999.250000
    3867.0000     64.695602     80.425110      2.620647     -0.006808   -999.250000
    3867.1000     62.158440     80.135941      2.625756     -0.005918   -999.250000
    3867.2000     62.369431     80.260193      2.631171     -0.003734   -999.250000
    3867.3000     65.283432     80.801712      2.637608     -0.000313   -999.250000
    3867.4000     67.855011     81.270065      2.642502      0.002896   -999.250000
    3867.5000     70.815216     81.224655      2.646550      0.005179   -999.250000
    3867.6000     74.366684     80.788910      2.650222      0.006468   -999.250000
    3867.7000     77.176331     80.422333      2.652225      0.006638   -999.250000
    3867.8000     77.494385     80.517639      2.659987      0.007267   -999.250000
    3867.9000     75.008469     80.517197      2.673401      0.007874   -999.250000
    3868.0000     70.881348     79.292297      2.685182      0.006086   -999.250000
    3868.1000     65.871429     77.906738      2.698147      0.003792   -999.250000
    3868.2000     61.440010     77.250916      2.711143      0.001740   -999.250000
    3868.3000     58.844620     76.881729      2.718426     -0.002226   -999.250000
    3868.4000     57.475281     76.414261      2.727594     -0.005975   -999.250000
    3868.5000     56.130753     75.776901      2.741712     -0.007724   -999.250000
    3868.6000     54.005318     75.021225      2.754685     -0.008785   -999.250000
    3868.7000     51.822517     74.053421      2.765440     -0.008262   -999.250000
    3868.8000     50.244392     73.003143      2.773336     -0.006409   -999.250000
    3868.9000     48.843559     72.284210      2.773996     -0.005639   -999.250000
    3869.0000     47.949562     71.968445      2.772487     -0.005033   -999.250000
    3869.1000     47.681419     71.695938      2.776688     -0.003100   -999.250000
    3869.2000     47.185837     70.992691      2.788330     -0.000752   -999.250000
    3869.3000     46.174858     69.810287      2.805418      0.001603   -999.250000
    3869.4000     45.123779     69.026474      2.820327      0.003584   -999.250000
    3869.5000     44.570580     70.036575      2.821816      0.003882   -999.250000
    3869.6000     44.590027     72.340317      2.808778      0.003038   -999.250000
    3869.7000     45.087608     74.321991      2.788586      0.002490   -999.250000
    3869.8000     46.352821     75.291687      2.765915      0.002367   -999.250000
    3869.9000     48.081657     75.527847      2.747199      0.003144   -999.250000
    3870.0000     49.928017     75.593674      2.735096      0.004930   -999.250000
    3870.1000     52.236740     75.725815      2.726438      0.006200   -999.250000
    3870.2000     55.144554     76.005173      2.719180      0.006493   -999.250000
    3870.3000     58.081100     76.401840      2.715604      0.006738   -999.250000
    3870.4000     60.115494     76.735550      2.718191      0.007162   -999.250000
    3870.5000     61.117767     76.936630      2.724689      0.007450   -999.250000
    3870.6000     61.431206     76.973785      2.730376      0.007292   -999.250000
    3870.7000     61.237137     76.714432      2.732471      0.006574   -999.250000
    3870.8000     60.806488     76.223846      2.730709      0.005702   -999.250000
    3870.9000     60.613098     75.727982      2.726059      0.005288   -999.250000
    3871.0000     60.979706     75.264053      2.720598      0.005322   -999.250000
    3871.1000     61.979088     74.838715      2.716362      0.005231   -999.250000
    3871.2000     63.408279     74.598648      2.715047      0.004661   -999.250000
    3871.3000     64.715393     74.605042      2.718000      0.003895   -999.250000
    3871.4000     65.234283     74.755630      2.724875      0.003404   -999.250000
    3871.5000     64.659103     74.972626      2.732621      0.003111   -999.250000
    3871.6000     63.271500     75.346954      2.737176      0.002366   -999.250000
    3871.7000     61.844513     75.890594      2.736689      0.000741   -999.250000
    3871.8000     61.174995     76.159866      2.733801     -0.001392   -999.250000
    3871.9000     61.470222     75.464432      2.734282     -0.003103   -999.250000
    3872.0000     62.046997     73.763535      2.742779     -0.003619   -999.250000
    3872.1000     61.648827     71.850723      2.758869     -0.002849   -999.250000
    3872.2000     59.357658     70.389038      2.776588     -0.001513   -999.250000
    3872.3000     55.160034     69.474106      2.788087     -0.000754   -999.250000
    3872.4000     50.073051     68.960236      2.788667     -0.001170   -999.250000
    3872.5000     45.811714     68.784576      2.779794     -0.002058   -999.250000
    3872.6000     44.023628     69.106247      2.766349     -0.002395   -999.250000
    3872.7000     45.354713     70.165970      2.751940     -0.001876   -999.250000
    3872.8000     49.209068     71.909760      2.737635     -0.000534   -999.250000
    3872.9000     54.074738     73.943146      2.722800      0.001217   -999.250000
    3873.0000     58.622818     75.914413      2.706816      0.002528   -999.250000
    3873.1000     62.217598     77.571426      2.692488      0.003004   -999.250000
    3873.2000     64.656738     78.738037      2.685554      0.002895   -999.250000
    3873.3000     65.594315     79.346634      2.691054      0.002502   -999.250000
    3873.4000     64.772720     79.491028      2.710052      0.002314   -999.250000
    3873.5000     62.296822     79.299866      2.738998      0.002582   -999.250000
    3873.6000     58.462387     78.707047      2.770362      0.002550   -999.250000
    3873.7000     53.662308     77.517731      2.797267      0.001456   -999.250000
    3873.8000     48.308853     75.603760      2.816528     -0.000317   -999.250000
    3873.9000     43.048065     73.093842      2.827521     -0.001653   -999.250000
    3874.0000     38.668953     70.300461      2.832747     -0.001801   -999.250000
    3874.1000     36.290802     67.834564      2.832701     -0.000988   -999.250000
    3874.2000     36.857513     66.512909      2.822629     -0.000258   -999.250000
