# LAS format data
~Version Information
VERS.     2.00: CWLS LOG ASCII STANDARD - VERSION 2.0
WRAP.       NO: ONE LINE PER DEPTH STEP
~Well Information
#MNEM   .UNITS    DATA                           DESCRIPTION
#----   ------    ----                           -----------
STRT    .M        63.1000                       :First Index Value
STOP    .M        4298.0000                     :Last Index Value
STEP    .M        0.0000                        :Frame Spacing
NULL    .         -999.2500                     :Absent Value
WELL    .         L05-07                        :Well Name   
FLD     .         FINDER_composites_22-02-2005  :Field Name  
CNTY    .                                       :County
STAT    .                                       :State
CTRY    .                                       :Country
LOC     .                                       :Location
API     .                                       :API Number
DATE    .                                       :Date
COMP    .         MOB                           :Company Name
SRVC    .                                       :Service Company
~Parameter Information
#MNEM   .UNITS    VALUE                          DESCRIPTION
#----   ------    -----                          -----------
TDD     .M        4287.00000                    :Total Depth (Driller)   
UBID    .         8132                          :Unique Borehole Id  
PDAT    .         Mean Sea Level                :Permanent Datum 
EPD     .M           0.00000                    :Elevation of Permanent Datum (PDAT) above Mean Sea Level
LMF     .         Rotary Table                  :Logging Measured From (Name of Logging Elevation Reference) 
APD     .M          36.80000                    :Elevation of Depth Reference (LMF) Above Permanent Datum
EGL     .M         -37.20000                    :Elevation of Ground Level Above Mean Sea Level  
~Curve Information
#MNEM   .UNITS    API CODE                       CURVE DESCRIPTION
#----   ------    --------                       -----------------
DEPT    .M                                      :1     Index curve
GR      .GAPI                                   :2     L05-07
DT      .US/F                                   :3     L05-07
RHOB    .G/C3                                   :4     L05-07
DRHO    .G/C3                                   :5     L05-07
NPHI    .V/V                                    :6     L05-07
~Ascii Log Data
# ...
    2818.3002     84.777435     84.315094      2.602949     -0.010811   -999.250000
    2818.4002     85.416245     84.761108      2.612403     -0.009436   -999.250000
    2818.5002     84.729156     84.917908      2.627510     -0.007463   -999.250000
    2818.6002     83.562347     84.767441      2.641556     -0.005887   -999.250000
    2818.7002     83.063568     84.495697      2.647882     -0.005540   -999.250000
    2818.8002     83.623489     84.309067      2.645296     -0.006260   -999.250000
    2818.9002     84.857819     84.262268      2.639009     -0.006917   -999.250000
    2819.0002     86.322495     84.295105      2.635548     -0.006429   -999.250000
    2819.1002     87.551025     84.344299      2.637274     -0.004769   -999.250000
    2819.2002     88.040482     84.346741      2.641313     -0.002922   -999.250000
    2819.3002     87.849747     84.209351      2.643102     -0.001858   -999.250000
    2819.4002     87.820175     83.918777      2.639499     -0.001831   -999.250000
    2819.5002     88.642838     83.696182      2.630049     -0.002447   -999.250000
    2819.6002     90.175674     83.880920      2.616795     -0.003245   -999.250000
    2819.7002     91.932297     84.601959      2.602969     -0.004129   -999.250000
    2819.8002     93.210159     85.657211      2.591926     -0.004856   -999.250000
    2819.9002     93.105515     86.744110      2.585883     -0.004721   -999.250000
    2820.0002     91.568756     87.720367      2.585003     -0.003435   -999.250000
    2820.1002     89.567200     88.529221      2.588249     -0.001520   -999.250000
    2820.2002     87.828278     89.090302      2.594227      0.000429   -999.250000
    2820.3002     86.459503     89.304657      2.601527      0.002053   -999.250000
    2820.4002     85.350220     89.172653      2.608840      0.003161   -999.250000
    2820.5002     84.175705     88.826370      2.615120      0.003839   -999.250000
    2820.6002     82.760696     88.387497      2.618977      0.003982   -999.250000
    2820.7002     81.595871     87.835724      2.619533      0.003206   -999.250000
    2820.8002     81.510117     87.079163      2.617116      0.001486   -999.250000
    2820.9002     82.305420     86.147476      2.612429     -0.000486   -999.250000
    2821.0002     82.768066     85.232574      2.605686     -0.001926   -999.250000
    2821.1002     82.480255     84.689926      2.598063     -0.002538   -999.250000
    2821.2002     81.780151     84.709595      2.591018     -0.002638   -999.250000
    2821.3002     80.930099     85.215393      2.585359     -0.002603   -999.250000
    2821.4002     80.944931     86.054932      2.583077     -0.002312   -999.250000
    2821.5002     82.537064     87.105865      2.584989     -0.001440   -999.250000
    2821.6002     84.858887     88.192627      2.588631     -0.000114   -999.250000
    2821.7002     86.593292     88.966248      2.590092      0.000760   -999.250000
    2821.8002     87.358292     89.266388      2.587607      0.000498   -999.250000
    2821.9002     87.527908     89.323471      2.582454     -0.000475   -999.250000
    2822.0002     87.671249     89.477295      2.576629     -0.001207   -999.250000
    2822.1002     88.132202     89.873428      2.571184     -0.001239   -999.250000
    2822.2002     88.874420     90.404099      2.567221     -0.000945   -999.250000
    2822.3002     89.542572     90.902054      2.565295     -0.000913   -999.250000
    2822.4002     89.754990     91.288147      2.565770     -0.001118   -999.250000
    2822.5002     89.318268     91.540649      2.569585     -0.000587   -999.250000
    2822.6002     88.574036     91.708801      2.575437      0.000581   -999.250000
    2822.7002     87.887390     91.790634      2.580701      0.001265   -999.250000
    2822.8002     86.937134     91.557846      2.583654      0.000955   -999.250000
    2822.9002     85.626038     91.140961      2.584853      0.000135   -999.250000
    2823.0002     84.576920     91.011887      2.586132     -0.000139   -999.250000
    2823.1002     84.573059     91.247696      2.589019      0.001198   -999.250000
    2823.2002     85.433762     91.580170      2.591168      0.003385   -999.250000
    2823.3002     86.226334     91.750854      2.587708      0.004398   -999.250000
    2823.4002     86.776642     92.002899      2.579809      0.004738   -999.250000
    2823.5002     87.732895     92.561325      2.571716      0.005450   -999.250000
    2823.6002     89.743195     93.282837      2.566980      0.006344   -999.250000
    2823.7002     91.255905     93.863800      2.566540      0.007132   -999.250000
    2823.8002     91.957016     93.890030      2.568542      0.006939   -999.250000
    2823.9002     94.403793     92.954437      2.570421      0.004269   -999.250000
    2824.0002     95.097397     91.881287      2.570928      0.000742   -999.250000
    2824.1002     92.324966     91.371216      2.571170     -0.001335   -999.250000
    2824.2002     92.024429     90.684937      2.575434     -0.001646   -999.250000
    2824.3002     93.244965     89.862457      2.579823      0.000246   -999.250000
    2824.4002     93.302643     89.447235      2.579760      0.003496   -999.250000
    2824.5002     93.669754     89.988617      2.576753      0.006158   -999.250000
    2824.6002     93.726501     91.312531      2.571996      0.008369   -999.250000
    2824.7002     92.556061     92.536453      2.567865      0.010929   -999.250000
    2824.8002     90.334579     92.547806      2.569961      0.013352   -999.250000
    2824.9002     88.019226     91.699493      2.579686      0.016957   -999.250000
    2825.0002     86.586166     91.068802      2.591828      0.021549   -999.250000
    2825.1002     86.619553     90.610992      2.598123      0.021078   -999.250000
    2825.2002     87.269287     89.620529      2.597884      0.016670   -999.250000
    2825.3002     87.446014     87.941055      2.596289      0.013703   -999.250000
    2825.4002     87.854126     87.385620      2.594755      0.013201   -999.250000
    2825.5002     88.590042     88.283783      2.594987      0.015044   -999.250000
    2825.6002     89.409210     89.534912      2.597198      0.017888   -999.250000
    2825.7002     91.093994     90.623825      2.596843      0.017971   -999.250000
    2825.8002     93.464310     91.509216      2.591945      0.015420   -999.250000
    2825.9002     95.404266     92.430954      2.585151      0.013361   -999.250000
    2826.0002     95.626755     93.392822      2.581136      0.012780   -999.250000
    2826.1002     94.075256     93.803528      2.580845      0.012630   -999.250000
    2826.2002     91.528870     93.206070      2.582607      0.011714   -999.250000
    2826.3002     88.415070     92.269897      2.587975      0.010323   -999.250000
    2826.4002     85.592468     91.756561      2.595251      0.009090   -999.250000
    2826.5002     84.251556     91.698502      2.598977      0.008097   -999.250000
    2826.6002     84.517303     91.693741      2.596584      0.006991   -999.250000
    2826.7002     85.552887     91.541412      2.589710      0.005299   -999.250000
    2826.8002     86.759827     91.343369      2.581731      0.003151   -999.250000
    2826.9002     88.019211     91.087769      2.576163      0.001724   -999.250000
    2827.0002     88.892944     90.605728      2.571519      0.001782   -999.250000
    2827.1002     88.873077     89.810867      2.561718      0.003102   -999.250000
    2827.2002     88.704895     88.930923      2.541854      0.005175   -999.250000
    2827.3002     88.894760     88.604935      2.511534      0.007696   -999.250000
    2827.4002     88.804260     89.406677      2.475776      0.010260   -999.250000
    2827.5002     88.246246     91.058212      2.443192      0.012202   -999.250000
    2827.6002     87.442688     92.653732      2.424553      0.013248   -999.250000
    2827.7002     86.304962     93.501816      2.426794      0.014394   -999.250000
    2827.8002     85.116516     93.558044      2.448287      0.016995   -999.250000
