# LAS format data
~Version Information
VERS.     2.00: CWLS LOG ASCII STANDARD - VERSION 2.0
WRAP.       NO: ONE LINE PER DEPTH STEP
~Well Information
#MNEM   .UNITS    DATA                           DESCRIPTION
#----   ------    ----                           -----------
STRT    .M        63.1000                       :First Index Value
STOP    .M        4298.0000                     :Last Index Value
STEP    .M        0.0000                        :Frame Spacing
NULL    .         -999.2500                     :Absent Value
WELL    .         L05-07                        :Well Name   
FLD     .         FINDER_composites_22-02-2005  :Field Name  
CNTY    .                                       :County
STAT    .                                       :State
CTRY    .                                       :Country
LOC     .                                       :Location
API     .                                       :API Number
DATE    .                                       :Date
COMP    .         MOB                           :Company Name
SRVC    .                                       :Service Company
~Parameter Information
#MNEM   .UNITS    VALUE                          DESCRIPTION
#----   ------    -----                          -----------
TDD     .M        4287.00000                    :Total Depth (Driller)   
UBID    .         8132                          :Unique Borehole Id  
PDAT    .         Mean Sea Level                :Permanent Datum 
EPD     .M           0.00000                    :Elevation of Permanent Datum (PDAT) above Mean Sea Level
LMF     .         Rotary Table                  :Logging Measured From (Name of Logging Elevation Reference) 
APD     .M          36.80000                    :Elevation of Depth Reference (LMF) Above Permanent Datum
EGL     .M         -37.20000                    :Elevation of Ground Level Above Mean Sea Level  
~Curve Information
#MNEM   .UNITS    API CODE                       CURVE DESCRIPTION
#----   ------    --------                       -----------------
DEPT    .M                                      :1     Index curve
GR      .GAPI                                   :2     L05-07
DT      .US/F                                   :3     L05-07
RHOB    .G/C3                                   :4     L05-07
DRHO    .G/C3                                   :5     L05-07
NPHI    .V/V                                    :6     L05-07
~Ascii Log Data
# ...
    3653.5000      9.966810     68.094009      2.116414     -0.097317   -999.250000
    3653.6000      8.782246     68.476715      2.095572     -0.093376   -999.250000
    3653.7000      7.755136     68.805099      2.076942     -0.087516   -999.250000
    3653.8000      7.168453     68.716339      2.063615     -0.081076   -999.250000
    3653.9000      6.994673     68.361481      2.054996     -0.077049   -999.250000
    3654.0000      7.215127     68.272171      2.051887     -0.076312   -999.250000
    3654.1000      7.824119     68.471191      2.056274     -0.076783   -999.250000
    3654.2000      8.632147     68.517822      2.068045     -0.076025   -999.250000
    3654.3000      9.331511     68.346115      2.084303     -0.074000   -999.250000
    3654.4000      9.775869     68.244232      2.100300     -0.072233   -999.250000
    3654.5000     10.017670     68.406448      2.111105     -0.071618   -999.250000
    3654.6000     10.193068     68.733917      2.114437     -0.070992   -999.250000
    3654.7000     10.552330     68.978302      2.113168     -0.068235   -999.250000
    3654.8000     11.190828     68.989548      2.110287     -0.063276   -999.250000
    3654.9000     11.701183     68.746262      2.100869     -0.059769   -999.250000
    3655.0000     11.743279     68.443146      2.084049     -0.059344   -999.250000
    3655.1000     11.369665     68.337738      2.066383     -0.059642   -999.250000
    3655.2000     10.616234     68.505264      2.052795     -0.059103   -999.250000
    3655.3000      9.697697     68.830414      2.047281     -0.057247   -999.250000
    3655.4000      8.906191     69.140137      2.053771     -0.053647   -999.250000
    3655.5000      8.459208     69.121658      2.070600     -0.049752   -999.250000
    3655.6000      8.307894     68.882874      2.090738     -0.046417   -999.250000
    3655.7000      8.354782     68.940826      2.109394     -0.042467   -999.250000
    3655.8000      8.958406     69.107056      2.122949     -0.039285   -999.250000
    3655.9000      9.966932     69.060593      2.131048     -0.037505   -999.250000
    3656.0000     10.490137     68.950226      2.135498     -0.034635   -999.250000
    3656.1000     10.491064     68.803207      2.135196     -0.032980   -999.250000
    3656.2000     10.387299     68.573776      2.131233     -0.034378   -999.250000
    3656.3000     10.002316     68.277695      2.129108     -0.035921   -999.250000
    3656.4000      9.680887     68.044861      2.135786     -0.040317   -999.250000
    3656.5000      9.804411     67.922211      2.157217     -0.049225   -999.250000
    3656.6000     10.334368     67.814255      2.212884     -0.049069   -999.250000
    3656.7000     11.277805     67.727890      2.286708     -0.044023   -999.250000
    3656.8000     12.640642     67.654510      2.356815     -0.044858   -999.250000
    3656.9000     13.972452     67.031723      2.389317     -0.050664   -999.250000
    3657.0000     15.074228     66.140259      2.375800     -0.060524   -999.250000
    3657.1000     16.030422     65.541382      2.332933     -0.073731   -999.250000
    3657.2000     16.477055     65.359619      2.289415     -0.082608   -999.250000
    3657.3000     16.442806     65.440399      2.261752     -0.086710   -999.250000
    3657.4000     16.209389     65.592346      2.251922     -0.089084   -999.250000
    3657.5000     16.472988     65.664017      2.263047     -0.086254   -999.250000
    3657.6000     16.903103     65.760635      2.277198     -0.080795   -999.250000
    3657.7000     16.778362     66.083771      2.273428     -0.078396   -999.250000
    3657.8000     16.811619     66.632172      2.252444     -0.079623   -999.250000
    3657.9000     16.749706     67.224548      2.227233     -0.081229   -999.250000
    3658.0000     15.739847     67.641205      2.211989     -0.079538   -999.250000
    3658.1000     14.670864     67.836182      2.217721     -0.072735   -999.250000
    3658.2000     14.054985     67.990417      2.236804     -0.063151   -999.250000
    3658.3000     13.385218     68.286041      2.249442     -0.055093   -999.250000
    3658.4000     12.671499     68.446625      2.247966     -0.050691   -999.250000
    3658.5000     12.034781     68.104111      2.231122     -0.051545   -999.250000
    3658.6000     11.369251     67.345291      2.199953     -0.058185   -999.250000
    3658.7000     10.710186     66.943100      2.161737     -0.067180   -999.250000
    3658.8000     10.235163     67.037354      2.125084     -0.074846   -999.250000
    3658.9000     10.047028     67.016281      2.094762     -0.080016   -999.250000
    3659.0000     10.021627     67.131409      2.073562     -0.082284   -999.250000
    3659.1000      9.977825     67.690536      2.063054     -0.081532   -999.250000
    3659.2000      9.872107     68.273743      2.060759     -0.077997   -999.250000
    3659.3000      9.832832     68.469269      2.064139     -0.071243   -999.250000
    3659.4000      9.924093     68.403625      2.069092     -0.062002   -999.250000
    3659.5000      9.999825     68.478653      2.071829     -0.052326   -999.250000
    3659.6000      9.894602     68.749039      2.072942     -0.044360   -999.250000
    3659.7000      9.652168     68.969971      2.075615     -0.038481   -999.250000
    3659.8000      9.438389     68.999695      2.081430     -0.033586   -999.250000
    3659.9000      9.271032     68.869629      2.089632     -0.029583   -999.250000
    3660.0000      9.137936     68.667755      2.096983     -0.027213   -999.250000
    3660.1000      9.132509     68.434647      2.098962     -0.027232   -999.250000
    3660.2000      9.161106     68.189529      2.095406     -0.029207   -999.250000
    3660.3000      9.061073     67.968246      2.090866     -0.031900   -999.250000
    3660.4000      8.923473     67.839386      2.090114     -0.034375   -999.250000
    3660.5000      8.939920     67.857025      2.095328     -0.036605   -999.250000
    3660.6000      9.195910     68.021622      2.105410     -0.039043   -999.250000
    3660.7000      9.689962     68.253006      2.117372     -0.041430   -999.250000
    3660.8000     10.355785     68.394760      2.129117     -0.042803   -999.250000
    3660.9000     11.069824     68.328308      2.139252     -0.043205   -999.250000
    3661.0000     11.712128     68.126419      2.146322     -0.043789   -999.250000
    3661.1000     12.233343     68.026657      2.150893     -0.044262   -999.250000
    3661.2000     12.634861     68.117462      2.154380     -0.043176   -999.250000
    3661.3000     12.916107     68.252762      2.156389     -0.040576   -999.250000
    3661.4000     13.067856     68.388214      2.156476     -0.037497   -999.250000
    3661.5000     13.091602     68.573380      2.155540     -0.034583   -999.250000
    3661.6000     13.029934     68.661789      2.154481     -0.032192   -999.250000
    3661.7000     12.985506     68.528870      2.154423     -0.029996   -999.250000
    3661.8000     13.090805     68.342041      2.156902     -0.027569   -999.250000
    3661.9000     13.417631     68.308304      2.161916     -0.025851   -999.250000
    3662.0000     13.899052     68.386261      2.167475     -0.026330   -999.250000
    3662.1000     14.410576     68.451111      2.171714     -0.029033   -999.250000
    3662.2000     14.893353     68.528824      2.173856     -0.032460   -999.250000
    3662.3000     15.272364     68.674026      2.172392     -0.035191   -999.250000
    3662.4000     15.411312     68.846237      2.165489     -0.036763   -999.250000
    3662.5000     15.245783     69.010788      2.153425     -0.037367   -999.250000
    3662.6000     14.818958     69.112335      2.138145     -0.037021   -999.250000
    3662.7000     14.210949     69.060837      2.121349     -0.035148   -999.250000
    3662.8000     13.508907     68.901810      2.105358     -0.031099   -999.250000
    3662.9000     12.752689     68.764877      2.092255     -0.025631   -999.250000
    3663.0000     11.904657     68.679337      2.082430     -0.020649   -999.250000
