# LAS format data
~Version Information
VERS.     2.00: CWLS LOG ASCII STANDARD - VERSION 2.0
WRAP.       NO: ONE LINE PER DEPTH STEP
~Well Information
#MNEM   .UNITS    DATA                           DESCRIPTION
#----   ------    ----                           -----------
STRT    .M        81.0000                       :First Index Value
STOP    .M        4879.7006                     :Last Index Value
STEP    .M        0.0000                        :Frame Spacing
NULL    .         -999.2500                     :Absent Value
WELL    .         L05-B-01                      :Well Name   
FLD     .         FINDER_composites_22-02-2005  :Field Name  
CNTY    .                                       :County
STAT    .                                       :State
CTRY    .                                       :Country
LOC     .                                       :Location
API     .                                       :API Number
DATE    .                                       :Date
COMP    .         WIN                           :Company Name
SRVC    .                                       :Service Company
~Parameter Information
#MNEM   .UNITS    VALUE                          DESCRIPTION
#----   ------    -----                          -----------
TDD     .M        4906.00000                    :Total Depth (Driller)   
UBID    .         8552                          :Unique Borehole Id  
PDAT    .         Mean Sea Level                :Permanent Datum 
EPD     .M           0.00000                    :Elevation of Permanent Datum (PDAT) above Mean Sea Level
LMF     .                                       :Logging Measured From (Name of Logging Elevation Reference) 
APD     .M          40.00000                    :Elevation of Depth Reference (LMF) Above Permanent Datum
EKB     .M          40.00000                    :Elevation of Kelly Bushing Above Mean Sea Level 
~Other Information
composite_curve_qc 
~Curve Information
#MNEM   .UNITS    API CODE                       CURVE DESCRIPTION
#----   ------    --------                       -----------------
DEPT    .M                                      :1     Index curve
GR      .GAPI                                   :2     SNAM  
DT      .US/F                                   :3     SNAM  
RHOB    .G/C3                                   :4     SNAM  
DRHO    .G/C3                                   :5     SNAM  
NPHI    .V/V                                    :6     SNAM  
~Ascii Log Data
# ...
    4583.4000    110.558380     71.541046   -999.250000   -999.250000      0.325093
    4583.5000    108.161179     70.710876   -999.250000   -999.250000      0.314925
    4583.6000    105.998749     70.348251   -999.250000   -999.250000      0.297552
    4583.7000    104.519653     69.995544   -999.250000   -999.250000      0.271400
    4583.8000    100.631683     68.860321   -999.250000   -999.250000      0.239123
    4583.9000     95.298874     67.851807   -999.250000   -999.250000      0.209915
    4584.0000     89.737381     67.953506   -999.250000   -999.250000      0.189686
    4584.1000     83.381851     69.492859   -999.250000   -999.250000      0.181875
    4584.2000     78.173904     71.515259   -999.250000   -999.250000      0.183712
    4584.3000     76.966034     73.225800   -999.250000   -999.250000      0.195807
    4584.4000     80.549866     74.069504   -999.250000   -999.250000      0.228023
    4584.5000     86.840668     74.326279   -999.250000   -999.250000      0.268698
    4584.6000     94.510437     74.335571   -999.250000   -999.250000      0.299605
    4584.7000    101.821533     74.333649   -999.250000   -999.250000      0.303279
    4584.8000    107.885941     74.372681   -999.250000   -999.250000      0.290363
    4584.9000    111.659286     74.362305   -999.250000   -999.250000      0.281294
    4585.0000    113.036224     73.930176   -999.250000   -999.250000      0.280394
    4585.1000    112.673798     73.037766   -999.250000   -999.250000      0.282929
    4585.2000    110.049881     71.795822   -999.250000   -999.250000      0.283524
    4585.3000    106.481247     70.664841   -999.250000   -999.250000      0.278136
    4585.4000    102.813248     69.977737   -999.250000   -999.250000      0.267721
    4585.5000     98.396072     70.130890   -999.250000   -999.250000      0.255605
    4585.6000     94.767273     70.272446   -999.250000   -999.250000      0.244226
    4585.7000     92.807083     69.723557   -999.250000   -999.250000      0.233322
    4585.8000     91.650787     68.955658   -999.250000   -999.250000      0.220753
    4585.9000     93.068146     68.438644   -999.250000   -999.250000      0.208768
    4586.0000     98.005707     68.366837   -999.250000   -999.250000      0.203438
    4586.1000    102.964264     68.844299   -999.250000   -999.250000      0.218056
    4586.2000    106.944473     69.779770   -999.250000   -999.250000      0.249574
    4586.3000    110.741058     70.933334   -999.250000   -999.250000      0.281303
    4586.4000    112.705643     72.055328   -999.250000   -999.250000      0.294540
    4586.5000    112.351059     73.022095   -999.250000   -999.250000      0.287484
    4586.6000    110.791321     73.782059   -999.250000   -999.250000      0.276910
    4586.7000    108.937958     73.869400   -999.250000   -999.250000      0.271343
    4586.8000    107.176392     72.833130   -999.250000   -999.250000      0.271792
    4586.9000    105.255707     70.882156   -999.250000   -999.250000      0.269193
    4587.0000    104.344376     69.135468   -999.250000   -999.250000      0.261800
    4587.1000    104.184082     67.985046   -999.250000   -999.250000      0.250986
    4587.2000    102.552170     66.523239   -999.250000   -999.250000      0.238471
    4587.3000     98.569595     65.190338   -999.250000   -999.250000      0.220791
    4587.4000     92.660049     64.448135   -999.250000   -999.250000      0.197403
    4587.5000     85.981018   -999.250000   -999.250000   -999.250000      0.174877
    4587.6000     79.666916   -999.250000   -999.250000   -999.250000      0.164047
    4587.7000     75.097519   -999.250000   -999.250000   -999.250000      0.169209
    4587.8000     73.363358   -999.250000   -999.250000   -999.250000      0.179862
    4587.9000     75.868439   -999.250000   -999.250000   -999.250000      0.189403
    4588.0000     80.809265   -999.250000   -999.250000   -999.250000      0.192648
    4588.1000     84.052170     54.849541   -999.250000   -999.250000      0.189454
    4588.2000     85.509018     54.886345   -999.250000   -999.250000      0.182554
    4588.3000     86.980148     55.017807   -999.250000   -999.250000      0.178840
    4588.4000     88.133438     55.237236   -999.250000   -999.250000      0.182670
    4588.5000     89.472107     55.399048   -999.250000   -999.250000      0.191049
    4588.6000     91.264648     55.356163   -999.250000   -999.250000      0.195843
    4588.7000     91.946594     55.191261   -999.250000   -999.250000      0.195459
    4588.8000     90.796616     55.109352   -999.250000   -999.250000      0.193020
    4588.9000     88.875977     55.137115   -999.250000   -999.250000      0.195193
    4589.0000     87.701202     54.895576   -999.250000   -999.250000      0.205038
    4589.1000     87.209549     54.757614   -999.250000   -999.250000      0.216849
    4589.2000     86.220398     55.144852   -999.250000   -999.250000      0.221123
    4589.3000     85.259430     55.060249   -999.250000   -999.250000      0.216757
    4589.4000     84.944046     54.453850   -999.250000   -999.250000      0.211661
    4589.5000     85.591782     54.098076   -999.250000   -999.250000      0.214079
    4589.6000     87.671356     53.989090   -999.250000   -999.250000      0.217399
    4589.7000     91.517929     54.012886   -999.250000   -999.250000      0.213378
    4589.8000     96.415390     54.094574   -999.250000   -999.250000      0.200685
    4589.9000     97.961670     54.360596   -999.250000   -999.250000      0.192912
    4590.0000     96.031952     54.538177   -999.250000   -999.250000      0.197561
    4590.1000     93.645508     54.289574   -999.250000   -999.250000      0.211649
    4590.2000     90.190628     54.115234   -999.250000   -999.250000      0.229137
    4590.3000     86.673462     54.491180   -999.250000   -999.250000      0.238205
    4590.4000     84.802795     55.494118   -999.250000   -999.250000      0.230632
    4590.5000     83.812225     56.157288   -999.250000   -999.250000      0.215568
    4590.6000     83.140884     56.231445   -999.250000   -999.250000      0.203831
    4590.7000     83.209137     56.107491   -999.250000   -999.250000      0.199639
    4590.8000     84.588852     55.743599   -999.250000   -999.250000      0.201917
    4590.9000     86.637314     55.317627   -999.250000   -999.250000      0.204183
    4591.0000     88.400421     55.168037   -999.250000   -999.250000      0.198764
    4591.1000     90.755478     55.198967   -999.250000   -999.250000      0.190779
    4591.2000     93.130646     55.238045   -999.250000   -999.250000      0.187987
    4591.3000     92.843460     55.172218   -999.250000   -999.250000      0.203143
    4591.4000     90.948090     55.042229   -999.250000   -999.250000      0.223684
    4591.5000     88.524261     54.916565   -999.250000   -999.250000      0.239265
    4591.6000     84.826721     54.868973   -999.250000   -999.250000      0.241372
    4591.7000     81.609085     54.872353   -999.250000   -999.250000      0.232184
    4591.8000     79.465012     54.913467   -999.250000   -999.250000      0.217652
    4591.9000     78.611115     55.109406   -999.250000   -999.250000      0.208200
    4592.0000     78.519424     55.705093   -999.250000   -999.250000      0.209186
    4592.1000     79.015060     56.629433   -999.250000   -999.250000      0.217810
    4592.2000     82.534088     56.978256   -999.250000   -999.250000      0.217842
    4592.3000     86.325577     57.441826   -999.250000   -999.250000      0.209707
    4592.4000     89.103210     58.360741   -999.250000   -999.250000      0.196751
    4592.5000     89.118744     58.722626   -999.250000   -999.250000      0.191828
    4592.6000     86.505753     58.543472   -999.250000   -999.250000      0.194854
    4592.7000     81.492859     57.966278   -999.250000   -999.250000      0.204161
    4592.8000     76.401627     57.969666   -999.250000   -999.250000      0.201628
    4592.9000     72.774414     58.455040   -999.250000   -999.250000      0.188441
