# LAS format data
~Version Information
VERS.     2.00: CWLS LOG ASCII STANDARD - VERSION 2.0
WRAP.       NO: ONE LINE PER DEPTH STEP
~Well Information
#MNEM   .UNITS    DATA                           DESCRIPTION
#----   ------    ----                           -----------
STRT    .M        81.0000                       :First Index Value
STOP    .M        4879.7006                     :Last Index Value
STEP    .M        0.0000                        :Frame Spacing
NULL    .         -999.2500                     :Absent Value
WELL    .         L05-B-01                      :Well Name   
FLD     .         FINDER_composites_22-02-2005  :Field Name  
CNTY    .                                       :County
STAT    .                                       :State
CTRY    .                                       :Country
LOC     .                                       :Location
API     .                                       :API Number
DATE    .                                       :Date
COMP    .         WIN                           :Company Name
SRVC    .                                       :Service Company
~Parameter Information
#MNEM   .UNITS    VALUE                          DESCRIPTION
#----   ------    -----                          -----------
TDD     .M        4906.00000                    :Total Depth (Driller)   
UBID    .         8552                          :Unique Borehole Id  
PDAT    .         Mean Sea Level                :Permanent Datum 
EPD     .M           0.00000                    :Elevation of Permanent Datum (PDAT) above Mean Sea Level
LMF     .                                       :Logging Measured From (Name of Logging Elevation Reference) 
APD     .M          40.00000                    :Elevation of Depth Reference (LMF) Above Permanent Datum
EKB     .M          40.00000                    :Elevation of Kelly Bushing Above Mean Sea Level 
~Other Information
composite_curve_qc 
~Curve Information
#MNEM   .UNITS    API CODE                       CURVE DESCRIPTION
#----   ------    --------                       -----------------
DEPT    .M                                      :1     Index curve
GR      .GAPI                                   :2     SNAM  
DT      .US/F                                   :3     SNAM  
RHOB    .G/C3                                   :4     SNAM  
DRHO    .G/C3                                   :5     SNAM  
NPHI    .V/V                                    :6     SNAM  
~Ascii Log Data
# ...
    4516.2004    103.292450     69.611877   -999.250000   -999.250000      0.297637
    4516.3004    103.423218     69.487549   -999.250000   -999.250000      0.278576
    4516.4004    103.121948     69.668259   -999.250000   -999.250000      0.263803
    4516.5004    103.839386     69.875275   -999.250000   -999.250000      0.258782
    4516.6004    105.200211     69.987701   -999.250000   -999.250000      0.256246
    4516.7004    106.205185     69.982437   -999.250000   -999.250000      0.256191
    4516.8004    106.112946     69.887375   -999.250000   -999.250000      0.263029
    4516.9004    104.067352     69.564255   -999.250000   -999.250000      0.278737
    4517.0004    100.686584     69.130493   -999.250000   -999.250000      0.296186
    4517.1004     96.856888     68.759125   -999.250000   -999.250000      0.307205
    4517.2004     94.296280     68.570404   -999.250000   -999.250000      0.295126
    4517.3004     92.546448     68.505524   -999.250000   -999.250000      0.270693
    4517.4004     90.473389     68.486252   -999.250000   -999.250000      0.250838
    4517.5004     88.172913     68.476288   -999.250000   -999.250000      0.242916
    4517.6004     86.601318     68.394318   -999.250000   -999.250000      0.236287
    4517.7004     87.056183     68.130219   -999.250000   -999.250000      0.216396
    4517.8004     87.115738     67.942795   -999.250000   -999.250000      0.199472
    4517.9004     86.076508     68.428192   -999.250000   -999.250000      0.190863
    4518.0004     84.253876     70.723862   -999.250000   -999.250000      0.189465
    4518.1004     82.076599     71.084137   -999.250000   -999.250000      0.193122
    4518.2004     80.285294     69.914185   -999.250000   -999.250000      0.199560
    4518.3004     80.366577     70.519150   -999.250000   -999.250000      0.208911
    4518.4004     82.619827     71.560776   -999.250000   -999.250000      0.224515
    4518.5004     86.677643     72.285431   -999.250000   -999.250000      0.245694
    4518.6004     94.173233     73.020065   -999.250000   -999.250000      0.274681
    4518.7004    102.036240     73.598236   -999.250000   -999.250000      0.300534
    4518.8004    108.853104     73.868546   -999.250000   -999.250000      0.317876
    4518.9004    114.705215     73.213104   -999.250000   -999.250000      0.314869
    4519.0004    115.476730     72.089310   -999.250000   -999.250000      0.299225
    4519.1004    111.207138     70.867691   -999.250000   -999.250000      0.278779
    4519.2004    106.405090     69.910034   -999.250000   -999.250000      0.266693
    4519.3004    101.049866     69.281662   -999.250000   -999.250000      0.256073
    4519.4004     94.673721     68.914749   -999.250000   -999.250000      0.242806
    4519.5004     90.954575     69.014816   -999.250000   -999.250000      0.229649
    4519.6004     89.140915     69.374283   -999.250000   -999.250000      0.219057
    4519.7004     88.373276     69.898743   -999.250000   -999.250000      0.211046
    4519.8004     88.818665     70.173248   -999.250000   -999.250000      0.210855
    4519.9004     90.223953     70.353912   -999.250000   -999.250000      0.213611
    4520.0004     92.589951     70.580475   -999.250000   -999.250000      0.216575
    4520.1004     92.868332     70.825043   -999.250000   -999.250000      0.238461
    4520.2004     93.107620     70.999542   -999.250000   -999.250000      0.266353
    4520.3004     95.324448     71.027191   -999.250000   -999.250000      0.288302
    4520.4004     96.303619     70.927795   -999.250000   -999.250000      0.290240
    4520.5004     97.056458     70.629196   -999.250000   -999.250000      0.282696
    4520.6004     99.532562     69.976089   -999.250000   -999.250000      0.274710
    4520.7004     99.594788     69.360947   -999.250000   -999.250000      0.257084
    4520.8004     98.193008     69.117905   -999.250000   -999.250000      0.236714
    4520.9004     97.832184     69.654205   -999.250000   -999.250000      0.225904
    4521.0004     97.518173     70.580795   -999.250000   -999.250000      0.228055
    4521.1004     96.909302     71.410431   -999.250000   -999.250000      0.236439
    4521.2004     96.547684     71.668747   -999.250000   -999.250000      0.244420
    4521.3004     97.366486     71.594406   -999.250000   -999.250000      0.246910
    4521.4004     98.790985     71.547897   -999.250000   -999.250000      0.242271
    4521.5004     99.191101     71.889496   -999.250000   -999.250000      0.226503
    4521.6004    100.360016     72.816849   -999.250000   -999.250000      0.210631
    4521.7004    102.665543     74.107925   -999.250000   -999.250000      0.203887
    4521.8004    104.116440     75.215912   -999.250000   -999.250000      0.216876
    4521.9004    105.953751     75.966003   -999.250000   -999.250000      0.240545
    4522.0004    108.556793     76.377319   -999.250000   -999.250000      0.263744
    4522.1004    109.354904     76.308121   -999.250000   -999.250000      0.281023
    4522.2004    108.424164     76.052750   -999.250000   -999.250000      0.295399
    4522.3004    107.323410     75.842346   -999.250000   -999.250000      0.311542
    4522.4004    107.544617     75.314148   -999.250000   -999.250000      0.331699
    4522.5004    108.824738     74.476440   -999.250000   -999.250000      0.343586
    4522.6004    110.134369     73.613159   -999.250000   -999.250000      0.339402
    4522.7004    111.472717     73.003143   -999.250000   -999.250000      0.332523
    4522.8004    111.603104     72.626266   -999.250000   -999.250000      0.321299
    4522.9004    109.996628     72.318848   -999.250000   -999.250000      0.298616
    4523.0004    109.511490     72.370163   -999.250000   -999.250000      0.278748
    4523.1004    110.306473     72.790298   -999.250000   -999.250000      0.266932
    4523.2004    110.264694     73.354156   -999.250000   -999.250000      0.255762
    4523.3004    110.274017     73.970230   -999.250000   -999.250000      0.248456
    4523.4004    110.420441     74.405167   -999.250000   -999.250000      0.252374
    4523.5004    109.901794     74.562653   -999.250000   -999.250000      0.270502
    4523.6004    109.569275     74.754272   -999.250000   -999.250000      0.289101
    4523.7004    109.823898     75.030121   -999.250000   -999.250000      0.295892
    4523.8004    109.919144     75.084183   -999.250000   -999.250000      0.292009
    4523.9004    109.758957     75.319946   -999.250000   -999.250000      0.275468
    4524.0004    108.853210     75.899475   -999.250000   -999.250000      0.257519
    4524.1004    106.850861     76.351196   -999.250000   -999.250000      0.256389
    4524.2004    105.837433     76.721558   -999.250000   -999.250000      0.269260
    4524.3004    106.552460     77.089783   -999.250000   -999.250000      0.281460
    4524.4004    106.229355     77.309692   -999.250000   -999.250000      0.287831
    4524.5004    105.502731     77.648621   -999.250000   -999.250000      0.290080
    4524.6004    105.400589     78.291138   -999.250000   -999.250000      0.291169
    4524.7004    104.646912     78.845169   -999.250000   -999.250000      0.287665
    4524.8004    104.962448     79.142395   -999.250000   -999.250000      0.284442
    4524.9004    108.019684     79.287430   -999.250000   -999.250000      0.288283
    4525.0004    111.650543     79.399628   -999.250000   -999.250000      0.295460
    4525.1004    115.242722     79.434143   -999.250000   -999.250000      0.300871
    4525.2004    118.678619     79.221039   -999.250000   -999.250000      0.302851
    4525.3004    120.153732     78.580673   -999.250000   -999.250000      0.306883
    4525.4004    119.415497     77.427963   -999.250000   -999.250000      0.311067
    4525.5004    117.790451     76.020966   -999.250000   -999.250000      0.309119
    4525.6004    115.249023     74.841492   -999.250000   -999.250000      0.300583
    4525.7004    112.205734     74.306381   -999.250000   -999.250000      0.284711
