# LAS format data
~Version Information
VERS.     2.00: CWLS LOG ASCII STANDARD - VERSION 2.0
WRAP.       NO: ONE LINE PER DEPTH STEP
~Well Information
#MNEM   .UNITS    DATA                           DESCRIPTION
#----   ------    ----                           -----------
STRT    .M        81.0000                       :First Index Value
STOP    .M        4879.7006                     :Last Index Value
STEP    .M        0.0000                        :Frame Spacing
NULL    .         -999.2500                     :Absent Value
WELL    .         L05-B-01                      :Well Name   
FLD     .         FINDER_composites_22-02-2005  :Field Name  
CNTY    .                                       :County
STAT    .                                       :State
CTRY    .                                       :Country
LOC     .                                       :Location
API     .                                       :API Number
DATE    .                                       :Date
COMP    .         WIN                           :Company Name
SRVC    .                                       :Service Company
~Parameter Information
#MNEM   .UNITS    VALUE                          DESCRIPTION
#----   ------    -----                          -----------
TDD     .M        4906.00000                    :Total Depth (Driller)   
UBID    .         8552                          :Unique Borehole Id  
PDAT    .         Mean Sea Level                :Permanent Datum 
EPD     .M           0.00000                    :Elevation of Permanent Datum (PDAT) above Mean Sea Level
LMF     .                                       :Logging Measured From (Name of Logging Elevation Reference) 
APD     .M          40.00000                    :Elevation of Depth Reference (LMF) Above Permanent Datum
EKB     .M          40.00000                    :Elevation of Kelly Bushing Above Mean Sea Level 
~Other Information
composite_curve_qc 
~Curve Information
#MNEM   .UNITS    API CODE                       CURVE DESCRIPTION
#----   ------    --------                       -----------------
DEPT    .M                                      :1     Index curve
GR      .GAPI                                   :2     SNAM  
DT      .US/F                                   :3     SNAM  
RHOB    .G/C3                                   :4     SNAM  
DRHO    .G/C3                                   :5     SNAM  
NPHI    .V/V                                    :6     SNAM  
~Ascii Log Data
# ...
    4641.0008    104.023499     72.256180      2.644651      0.121564      0.139818
    4641.1008    102.720230     72.148849      2.643682      0.123838      0.138450
    4641.2008    102.307251     72.391739      2.629668      0.121419      0.134472
    4641.3008    102.662354     72.858185      2.603969      0.115039      0.132013
    4641.4008    103.175522     73.091248      2.566201      0.103946      0.128052
    4641.5008    103.333725     72.884674      2.522852      0.089417      0.121591
    4641.6008    103.566452     72.668472      2.482107      0.073811      0.117513
    4641.7008    104.399445     72.575699      2.451426      0.060234      0.117342
    4641.8008    106.239258     72.595215      2.435263      0.051583      0.119565
    4641.9008    109.286087     72.636505      2.433464      0.048143      0.122177
    4642.0008    113.466110     72.588531      2.446522      0.048477      0.126920
    4642.1008    117.852234     72.360413      2.471453      0.048526      0.136492
    4642.2008    121.018845     71.881866      2.509732      0.044953      0.148832
    4642.3008    122.015823     71.204285      2.557783      0.038359      0.141383
    4642.4008    121.306046     70.556915      2.607715      0.030795      0.111815
    4642.5008    119.581070     70.289322      2.649834      0.021260      0.098434
    4642.6008    117.216125     70.348770      2.671819      0.009973      0.099505
    4642.7008    114.012512     70.559677      2.674070     -0.002119      0.097272
    4642.8008    108.422363     71.202728      2.665429     -0.013937      0.095852
    4642.9008    100.071747     72.040054      2.659554     -0.021876      0.097173
    4643.0008     89.976013     72.700592      2.663010     -0.024255      0.099992
    4643.1008     79.313828     72.920090      2.674107     -0.022100      0.100407
    4643.2008     69.447174     72.294067      2.684089     -0.018083      0.101651
    4643.3008     61.193321     70.737671      2.686542     -0.014090      0.107220
    4643.4008     55.681076     68.594528      2.674995     -0.011560      0.114054
    4643.5008     52.203308     66.635529      2.654098     -0.009927      0.117531
    4643.6008     50.050446     65.264938      2.630250     -0.008346      0.115790
    4643.7008     51.054817     63.576103      2.611399     -0.006427      0.110428
    4643.8008     55.287926     61.861366      2.599214     -0.003939      0.107907
    4643.9008     62.336098     60.695480      2.592511     -0.000876      0.112114
    4644.0008     73.055405     59.900406      2.596004      0.004122      0.113503
    4644.1008     84.322083     60.463684      2.609088      0.009150      0.111497
    4644.2008     93.471222     63.564445      2.631764      0.012168      0.108816
    4644.3008     96.265625     66.141006      2.659925      0.012557      0.107891
    4644.4008     94.215714     67.404633      2.687255      0.011562      0.108097
    4644.5008     88.341446     67.614609      2.710943      0.009850      0.108335
    4644.6008     82.649033     67.453232      2.703471      0.009939      0.110985
    4644.7008     78.954803     67.234375      2.667340      0.009862      0.114677
    4644.8008     78.382935     66.928299      2.600957      0.005851      0.117194
    4644.9008     80.822296     66.521912      2.524543      0.003982      0.121484
    4645.0008     85.134903     66.090485      2.455706      0.005866      0.127837
    4645.1008     91.536530     65.700928      2.408012      0.012393      0.136440
    4645.2008     98.114746     65.546799      2.391032      0.026624      0.147676
    4645.3008    103.910751     65.648544      2.391031      0.043067      0.155872
    4645.4008    107.224060     66.166031      2.387739      0.047228      0.143124
    4645.5008    108.769516     66.931564      2.387363      0.043641      0.129516
    4645.6008    109.453018     67.877014      2.392897      0.036462      0.122754
    4645.7008    109.484467     69.235214      2.408393      0.024380      0.126955
    4645.8008    109.332764     70.850235      2.444479      0.017870      0.129450
    4645.9008    109.111435     72.543198      2.497084      0.018651      0.126278
    4646.0008    108.326736     73.437637      2.540260      0.027236      0.114313
    4646.1008    107.579559     74.196121      2.572764      0.031648      0.108410
    4646.2008    106.979019     75.129990      2.598388      0.029692      0.113366
    4646.3008    105.109818     75.680756      2.595128      0.033075      0.145848
    4646.4008    101.490829     75.741653      2.588932      0.043258      0.159009
    4646.5008     96.218063     75.341980      2.592418      0.058918      0.134137
    4646.6008     90.231079     72.443268      2.576802      0.064189      0.124386
    4646.7008     85.457855     69.179672      2.562001      0.064920      0.127538
    4646.8008     82.890015     66.842087      2.561643      0.065436      0.135950
    4646.9008     82.123459     65.593384      2.575919      0.074440      0.137657
    4647.0008     81.877777     64.762054      2.591984      0.084979      0.136350
    4647.1008     81.668579     64.087326      2.602645      0.091256      0.135904
    4647.2008     83.204788     62.895599      2.613837      0.097953      0.136457
    4647.3008     86.627930     61.754433      2.625166      0.105571      0.136357
    4647.4008     91.823776     61.379738      2.633828      0.112732      0.134233
    4647.5008     96.442764     61.781090      2.636900      0.115866      0.132367
    4647.6008     98.659348     62.441559      2.636117      0.113565      0.132168
    4647.7008     96.661057     62.989227      2.632752      0.103624      0.134628
    4647.8008     91.689636     63.216789      2.629322      0.086646      0.141525
    4647.9008     86.347168     63.239288      2.626245      0.066341      0.148219
    4648.0008     82.496552     63.203751      2.622444      0.044372      0.147728
    4648.1008     80.190781     63.181282      2.617083      0.023770      0.136694
    4648.2008     78.357361     63.184845      2.613043      0.006838      0.116808
    4648.3008     75.765167     63.208633      2.616220     -0.004675      0.087478
    4648.4008     71.082672     63.318336      2.627400     -0.010181      0.064843
    4648.5008     65.434326     63.312355      2.642428     -0.011336      0.058008
    4648.6008     61.775818     62.689285      2.656775     -0.008543      0.068922
    4648.7008     61.636681     62.127190      2.658229     -0.002699      0.095722
    4648.8008     64.453339     61.889763      2.644406      0.005094      0.123776
    4648.9008     69.760773     60.996643      2.622503      0.016139      0.129220
    4649.0008     75.870453     60.089470      2.599947      0.029809      0.121379
    4649.1008     81.168350     60.053261      2.582349      0.045138      0.118595
    4649.2008     84.619598     61.126633      2.576569      0.062984      0.121445
    4649.3008     86.803528     62.975761      2.576582      0.079096      0.124637
    4649.4008     89.296387     65.009552      2.570380      0.088310      0.124879
    4649.5008     92.899826     66.890625      2.551314      0.084087      0.128893
    4649.6008     97.954514     68.301880      2.524056      0.070096      0.134558
    4649.7008    103.999969     69.342712      2.498661      0.055756      0.135372
    4649.8008    109.466919     70.296097      2.479339      0.043684      0.132349
    4649.9008    113.336304     71.158997      2.465283      0.033565      0.128291
    4650.0008    115.803848     71.756454      2.452654      0.023428      0.125179
    4650.1008    116.817719     72.450073      2.444876      0.016490      0.121380
    4650.2008    117.153412     73.387878      2.442641      0.014190      0.113653
    4650.3008    117.270721     74.185516      2.443602      0.015345      0.101161
    4650.4008    115.666290     74.419693      2.447001      0.020166      0.089662
    4650.5008    111.367722     74.146927      2.452146      0.028107      0.082783
