# LAS format data
~Version Information
VERS.     2.00: CWLS LOG ASCII STANDARD - VERSION 2.0
WRAP.       NO: ONE LINE PER DEPTH STEP
~Well Information
#MNEM   .UNITS    DATA                           DESCRIPTION
#----   ------    ----                           -----------
STRT    .M        81.0000                       :First Index Value
STOP    .M        4879.7006                     :Last Index Value
STEP    .M        0.0000                        :Frame Spacing
NULL    .         -999.2500                     :Absent Value
WELL    .         L05-B-01                      :Well Name   
FLD     .         FINDER_composites_22-02-2005  :Field Name  
CNTY    .                                       :County
STAT    .                                       :State
CTRY    .                                       :Country
LOC     .                                       :Location
API     .                                       :API Number
DATE    .                                       :Date
COMP    .         WIN                           :Company Name
SRVC    .                                       :Service Company
~Parameter Information
#MNEM   .UNITS    VALUE                          DESCRIPTION
#----   ------    -----                          -----------
TDD     .M        4906.00000                    :Total Depth (Driller)   
UBID    .         8552                          :Unique Borehole Id  
PDAT    .         Mean Sea Level                :Permanent Datum 
EPD     .M           0.00000                    :Elevation of Permanent Datum (PDAT) above Mean Sea Level
LMF     .                                       :Logging Measured From (Name of Logging Elevation Reference) 
APD     .M          40.00000                    :Elevation of Depth Reference (LMF) Above Permanent Datum
EKB     .M          40.00000                    :Elevation of Kelly Bushing Above Mean Sea Level 
~Other Information
composite_curve_qc 
~Curve Information
#MNEM   .UNITS    API CODE                       CURVE DESCRIPTION
#----   ------    --------                       -----------------
DEPT    .M                                      :1     Index curve
GR      .GAPI                                   :2     SNAM  
DT      .US/F                                   :3     SNAM  
RHOB    .G/C3                                   :4     SNAM  
DRHO    .G/C3                                   :5     SNAM  
NPHI    .V/V                                    :6     SNAM  
~Ascii Log Data
# ...
    4785.0000     79.176880     66.593689      2.193320     -0.130033      0.209541
    4785.1000     81.153671     63.508896      2.193052     -0.132031      0.235190
    4785.2000     84.904938     65.457825      2.201419     -0.131402      0.264276
    4785.3000     89.074005     68.745682      2.221200     -0.128312      0.306193
    4785.4000     92.644760     70.702377      2.250522     -0.123345      0.337306
    4785.5000     95.368820     70.712936      2.283667     -0.117373      0.345650
    4785.6000     97.335205     68.889252      2.316164     -0.110428      0.342243
    4785.7000     98.485992     66.766937      2.343229     -0.103259      0.332222
    4785.8000     98.773102     65.715820      2.363664     -0.096237      0.316118
    4785.9000     97.726135     66.177856      2.381091     -0.087349      0.288534
    4786.0000     95.310654     66.501068      2.399434     -0.075529      0.258615
    4786.1000     92.203903     65.539856      2.421433     -0.061027      0.235727
    4786.2000     90.065643     65.176193      2.452716     -0.043345      0.215498
    4786.3000     89.449448     64.683075      2.488915     -0.025378      0.201050
    4786.4000     89.815979     62.594765      2.518649     -0.010171      0.196970
    4786.5000     91.939774     61.240219      2.518657     -0.001089      0.200915
    4786.6000     94.842667     61.148415      2.482687      0.001072      0.201293
    4786.7000     97.031326     60.948563      2.425149     -0.001207      0.189687
    4786.8000     98.870071     61.150696      2.359289     -0.005935      0.174439
    4786.9000    100.273544     61.892471      2.304136     -0.010066      0.161429
    4787.0000    100.872803     62.860657      2.268326     -0.012169      0.146679
    4787.1000    101.615997     64.257446      2.251856     -0.012216      0.127982
    4787.2000    102.356598     65.672134      2.245262     -0.011575      0.110521
    4787.3000    101.090485     66.174911      2.241992     -0.011511      0.104723
    4787.4000     96.940536     65.831604      2.241628     -0.011664      0.108278
    4787.5000     90.498398     65.163834      2.242852     -0.011586      0.112680
    4787.6000     83.928802     64.174194      2.243927     -0.011480      0.116155
    4787.7000     81.640488     62.338081      2.245054     -0.010953      0.126168
    4787.8000     86.196091     60.048805      2.245972     -0.009849      0.151288
    4787.9000     94.777573     58.916969      2.244957     -0.008855      0.184161
    4788.0000    105.129608     58.924622      2.242553     -0.008505      0.194493
    4788.1000    113.605545     59.134727      2.242091     -0.008403      0.167775
    4788.2000    117.364944     59.329071      2.247386     -0.007060      0.137694
    4788.3000    116.783539     59.499519      2.258698     -0.004223      0.116390
    4788.4000    115.308914     60.040024      2.273150     -0.000861      0.099816
    4788.5000    114.333359     61.467125      2.289932      0.002336      0.085133
    4788.6000    114.045410     63.147194      2.306697      0.005107      0.073804
    4788.7000    113.412659     64.204681      2.321662      0.007614      0.068375
    4788.8000    111.441422     65.391022      2.334855      0.009398      0.069287
    4788.9000    107.926666     67.128021      2.339746      0.008449      0.079384
    4789.0000    103.846268     68.966476      2.327669      0.002542      0.101100
    4789.1000     99.703278     70.142853      2.293408     -0.010200      0.135004
    4789.2000     95.795273     71.335480      2.241669     -0.029624      0.166136
    4789.3000     92.553085     73.134674      2.189039     -0.051488      0.175673
    4789.4000     91.170792     72.949203      2.146654     -0.071585      0.167424
    4789.5000     91.322052     72.348480      2.119871     -0.086557      0.157938
    4789.6000     91.536667     74.686981      2.104182     -0.096205      0.166605
    4789.7000     91.598526     76.662750      2.096217     -0.100519      0.210005
    4789.8000     90.947754     76.570496      2.091685     -0.101467      0.279237
    4789.9000     89.250061     75.930588      2.089166     -0.101112      0.347452
    4790.0000     87.450684     76.551147      2.091276     -0.098681      0.385383
    4790.1000     86.799469     78.379944      2.099368     -0.093775      0.398004
    4790.2000     87.852097     80.450485      2.113867     -0.086076      0.412859
    4790.3000     90.049622     85.676041      2.133364     -0.076272      0.417384
    4790.4000     91.617401     89.620895      2.150138     -0.066090      0.408771
    4790.5000     91.063126     84.466064      2.152292     -0.057619      0.393843
    4790.6000     89.599197     79.269897      2.110028     -0.059517      0.361909
    4790.7000     87.754303     76.568390      2.037654     -0.068555      0.314823
    4790.8000     84.679367     69.986084      1.974777     -0.074472      0.264192
    4790.9000     83.250061     65.441589      1.947107     -0.074485      0.232088
    4791.0000     84.030762     63.196320      1.954674     -0.069511      0.219388
    4791.1000     85.590683     56.811462      1.998880     -0.058786      0.217551
    4791.2000     88.376663     56.934692      2.058119     -0.044844      0.231514
    4791.3000     91.531448     64.609787      2.115619     -0.030397      0.255520
    4791.4000     92.033966     69.310287      2.163086     -0.017839      0.273602
    4791.5000     89.852829     70.758072      2.203364     -0.009161      0.241675
    4791.6000     86.360672     71.344391      2.240533     -0.003899      0.171832
    4791.7000     82.498749     72.364990      2.274338     -0.002197      0.130579
    4791.8000     80.122742     73.781158      2.301535     -0.003162      0.113856
    4791.9000     79.490402     75.138794      2.322507     -0.005621      0.104758
    4792.0000     80.207474     75.178329      2.339548     -0.008475      0.094994
    4792.1000     80.629150     74.857132      2.370469     -0.006349      0.116060
    4792.2000     80.316589     74.660248      2.419241      0.001658      0.171091
    4792.3000     80.602936     73.018982      2.497250      0.015064      0.207404
    4792.4000     81.696777     71.476791      2.590799      0.035152      0.221173
    4792.5000     83.397003     70.858261      2.687879      0.061173      0.220573
    4792.6000     86.630096     70.381683      2.705151      0.075029      0.218947
    4792.7000     89.949921     69.252136      2.648595      0.072680      0.218089
    4792.8000     92.514343     67.273926      2.533330      0.054896      0.217017
    4792.9000     93.897034     65.793533      2.438890      0.033911      0.214953
    4793.0000     94.920959     64.617767      2.389312      0.020778      0.211532
    4793.1000     96.067505     63.405220      2.386717      0.019540      0.206394
    4793.2000     98.312714     68.058517      2.437399      0.022660      0.179410
    4793.3000    100.289795     72.712173      2.501927      0.024871      0.147681
    4793.4000    100.943832     72.494049      2.560062      0.024420      0.123785
    4793.5000    100.788956     71.518967      2.606876      0.025264      0.118626
    4793.6000    100.071228     70.487015      2.642603      0.027649      0.119289
    4793.7000     98.512085     68.438583      2.666139      0.031328      0.114539
    4793.8000     99.837784     67.221878      2.674788      0.034725      0.106074
    4793.9000    103.070587     66.355515      2.673891      0.038150      0.098354
    4794.0000    106.824844     64.594772      2.664477      0.042838      0.094688
    4794.1000    109.653061     65.897827      2.659575      0.050666      0.089110
    4794.2000    111.714676     68.711151      2.661225      0.061376      0.086803
    4794.3000    113.111725     69.014420      2.670349      0.075210      0.103434
    4794.4000    113.878708     68.962204      2.682757      0.086613      0.105523
    4794.5000    114.424194     68.788437      2.695421      0.094675      0.093007
