~Version Information Section
 VERS.      2.0         :CWLS LOG ASCII STANDARD -VERSION 2.0
 WRAP.      NO          :One line per depth step
 MERG.      YES         :Data merged using LAS tools (www.logtechcan.com)
~Well Information Section
#MNEM.UNIT               VALUE/NAME                 DESCRIPTION
#----.----     ----------------------------------   --------------------
 STRT.m           1950.0000                         :Start Depth
 STOP.m           2686.0000                         :Stop  Depth
 STEP.m              0.1000                         :Step  Depth
 NULL.            -999.2500                         :Null value
 COMP.         PetroCanada                          :Company Name
 WELL.         P11-A-02A                            :Well Name
 PATH.         P11-A-02A                            :Path Name
 FLD .         De Ruyter                            :Field Name
 LOC .         De Ruyter                            :Location
 PROV.         Unused                               :Province
 SRVC.         BAKER HUGHES INTEQ                   :Service Company Name
DATE.DD/MM/YYYY21/05/2007                           :Date
 UWI .                                              :Unique Well ID
 ZONE.Hrs      2                                    :Time zone difference from GMT
 ZONE.Hrs      1                                    :Time zone difference from GMT
~Curve Information Section
#MNEM     .UNIT         CURVE DESCRIPTION
#----     .----         -------------------------
 DEPTH    .m            :1 Depth Hole
 APRESM   .psi          :2 Annular Pressure **MERGED**
 GRAFM    .API          :3 Gamma Ray App [RWD]
 RACELM   .ohm.m        :4 Resistivity Attenuation - Corrected - CRIM - 400kHz
 RPCELM   .ohm.m        :5 Resistivity Phase - Corrected - CRIM - 400kHz
 RACEHM   .ohm.m        :6 Resistivity Attenuation - Corrected - CRIM - 2MHz
 RPCEHM   .ohm.m        :7 Resistivity Phase - Corrected - CRIM - 2MHz
 RACESLM  .ohm.m        :8 Resistivity Attenuation Short Spaced - Corrected - CRIM - 400kHz
 RPCESLM  .ohm.m        :9 Resistivity Phase Short Spaced - Corrected - CRIM - 400kHz
 RACESHM  .ohm.m        :10 Resistivity Attenuation Short Spaced - Corrected - CRIM - 2MHz
 RPCESHM  .ohm.m        :11 Resistivity Phase Short Spaced - Corrected - CRIM - 2MHz
 RPTHM    .min          :12 Resistivity Time Since Drilled
 NPCKLFM  .pu           :13 Neutron Porosity (ls) [RWD] caliper & salinity corrected
 DPEFM    .unitless     :14 Phototelectric Cross Sect [RWD]
 BDCFM    .g/cc         :15 Bulk Density Compensated [RWD]
 DRHFM    .g/cc         :16 Delta RHO - Density Correction [RWD]
 TVD      .m            :17 True Vertical Depth
 BLOCKCOMP.m            :18 Block/Topdrive Position Compensated
 INNM     .deg          :19 Inclination - Non-Rotating **MERGED**
 ROP_AVG  .m/hr         :20 Rate of Penetration
 WOB_AVG  .klbf         :21 Weight on Bit
 TCDM     .degC         :22 Downhole Temperature **MERGED**
 ABDCUM   .g/cc         :23 Azimuthal Bulk Density - Compensated - Up
 ABDCLM   .g/cc         :24 Azimuthal Bulk Density - Compensated - Left
 ABDCRM   .g/cc         :25 Azimuthal Bulk Density - Compensated - Right
 ABDCDM   .g/cc         :26 Azimuthal Bulk Density - Compensated - Down
 ABDC1M   .g/cc         :27 Azimuthal Bulk Density - Compensated - Sector 1
 ABDC2M   .g/cc         :28 Azimuthal Bulk Density - Compensated - Sector 2
 ABDC3M   .g/cc         :29 Azimuthal Bulk Density - Compensated - Sector 3
 ABDC4M   .g/cc         :30 Azimuthal Bulk Density - Compensated - Sector 4
 ABDC5M   .g/cc         :31 Azimuthal Bulk Density - Compensated - Sector 5
 ABDC6M   .g/cc         :32 Azimuthal Bulk Density - Compensated - Sector 6
 ABDC7M   .g/cc         :33 Azimuthal Bulk Density - Compensated - Sector 7
 ABDC8M   .g/cc         :34 Azimuthal Bulk Density - Compensated - Sector 8
 ABDC9M   .g/cc         :35 Azimuthal Bulk Density - Compensated - Sector 9
 ABDC10M  .g/cc         :36 Azimuthal Bulk Density - Compensated - Sector 10
 ABDC11M  .g/cc         :37 Azimuthal Bulk Density - Compensated - Sector 11
 ABDC12M  .g/cc         :38 Azimuthal Bulk Density - Compensated - Sector 12
 ABDC13M  .g/cc         :39 Azimuthal Bulk Density - Compensated - Sector 13
 ABDC14M  .g/cc         :40 Azimuthal Bulk Density - Compensated - Sector 14
 ABDC15M  .g/cc         :41 Azimuthal Bulk Density - Compensated - Sector 15
 ABDC16M  .g/cc         :42 Azimuthal Bulk Density - Compensated - Sector 16
 ABDCM    .g/cc         :43 Azimuthal Bulk Density Compensated Image
 GRAS0M   .API          :44 Azimuthal Gamma Ray - Apparent - Sector 0
 GRAS1M   .API          :45 Azimuthal Gamma Ray - Apparent - Sector 1
 GRAS2M   .API          :46 Azimuthal Gamma Ray - Apparent - Sector 2
 GRAS3M   .API          :47 Azimuthal Gamma Ray - Apparent - Sector 3
 GRAS4M   .API          :48 Azimuthal Gamma Ray - Apparent - Sector 4
 GRAS5M   .API          :49 Azimuthal Gamma Ray - Apparent - Sector 5
 GRAS6M   .API          :50 Azimuthal Gamma Ray - Apparent - Sector 6
 GRAS7M   .API          :51 Azimuthal Gamma Ray - Apparent - Sector 7
 GRASM    .API          :52 Gamma Ray Apparent Sector Image
~Parameter Information Section
#MNEM.UNIT                  VALUE                   DESCRIPTION
#----.----     ----------------------------------   --------------------
~Other Information Section
Disclaimer
Baker Hughes INTEQ does not guarantee the accuracy  or correctness
of  interpretations  provided  in  or  from this  data. Since  all
interpretations  are  opinions based on measurements, Baker Hughes
INTEQ  shall  under no  circumstances   be  held  responsible  for
consequential damages or any other loss, costs, damages or expenses
incurred  or  sustained  in  connection  with  the use of any such
interpretations. Baker  Hughes INTEQ  disclaims  all expressed and
implied  warranties  related to  its  service which is governed by
Baker Hughes INTEQ's standard terms and conditions.
#----------------------------------------------------------------------
 

~A  DEPTH   APRESM    GRAFM     RACELM    RPCELM    RACEHM    RPCEHM     RACESLM   RPCESLM    RACESHM   RPCESHM    RPTHM     NPCKLFM   DPEFM     BDCFM     DRHFM       TVD   BLOCKCOMP   INNM     ROP_AVG   WOB_AVG    TCDM     ABDCUM    ABDCLM    ABDCRM    ABDCDM    ABDC1M    ABDC2M    ABDC3M    ABDC4M    ABDC5M    ABDC6M    ABDC7M    ABDC8M    ABDC9M    ABDC10M   ABDC11M   ABDC12M   ABDC13M   ABDC14M   ABDC15M   ABDC16M   ABDCM     GRAS0M    GRAS1M    GRAS2M    GRAS3M    GRAS4M    GRAS5M    GRAS6M    GRAS7M    GRASM   
# ...
 2308.4000 3364.0000   99.1983    3.6604    3.3586    3.5470     2.8177    4.1229     2.9195    2.8088     2.4654   19.6000   21.8258    3.2651    2.4317    0.0861 1603.4500   15.5600   89.7500   21.8200   18.5000   75.8000    2.4099    2.4557    2.3715    2.4779    2.4625    2.4164    2.3813    2.3908    2.3667    2.3506    2.4356    2.4773    2.4838    2.5209    2.4855    2.4632    2.4989    2.3835    2.3830    2.3840    2.4133   89.7849  104.0639  106.4742   88.5463   87.9062   90.6812  117.8410  100.8046   35.0721
 2308.5000 3363.0000   99.4494    5.2937    3.3716    3.5344     2.8219    3.4849     2.9301    2.8581     2.4453   19.6000   21.6256    3.2493    2.4277    0.0848 1603.4500   15.4600   89.7500   21.8500   18.3000   75.8000    2.4456    2.4573    2.3728    2.4411    2.4929    2.3606    2.4035    2.4254    2.3284    2.3406    2.3837    2.4094    2.4415    2.5375    2.4442    2.5049    2.4537    2.4324    2.5240    2.4173    2.4383  107.6502  113.3660   79.9707   75.5784   94.6988  126.5875   84.7384  101.3782   33.7005
 2308.6000 3363.0000  100.4346    5.8964    3.3669    3.5556     2.8192    2.5256     2.9163    2.9771     2.4422   19.6000   21.7423    3.2044    2.4237    0.0827 1603.4500   15.3600   89.7500   21.8900   18.0000   75.8000    2.4733    2.4862    2.4300    2.4349    2.4970    2.4452    2.5429    2.3753    2.3641    2.4668    2.3940    2.4172    2.4119    2.5304    2.4562    2.4695    2.5633    2.4643    2.4532    2.5047    2.4543   94.9130  110.0262   83.3431   82.8577   95.9303  120.0552   93.0302  102.8208   37.5014
 2308.7000 3355.0000   99.3620    4.6651    3.3788    3.5403     2.8219    3.4622     2.9152    3.0769     2.4415   19.7000   21.6808    3.1457    2.4190    0.0794 1603.4500   15.2900   89.7500   21.9200   17.8000   75.9000    2.4542    2.5041    2.3637    2.3873    2.4512    2.3810    2.3654    2.3951    2.3399    2.3590    2.3158    2.4048    2.4232    2.4077    2.5252    2.5138    2.4742    2.5062    2.4327    2.5798    2.3935   79.2454  105.9181   87.4914   91.8117   97.4452  112.0201  103.2297  104.5954   42.1768
 2308.8000 3360.0000   99.0505    3.7630    3.3884    3.8014     2.8272    3.3566     2.9322    2.9674     2.4528   19.7000   21.7789    3.0979    2.4150    0.0764 1603.4500   15.1600   89.7500   21.9600   16.5000   75.9000    2.4496    2.4997    2.3413    2.3896    2.4732    2.4243    2.3584    2.3556    2.3278    2.3306    2.3347    2.3651    2.4144    2.4509    2.4557    2.4850    2.5343    2.5354    2.4565    2.4488    2.2582  105.7270   88.0277   87.3863   96.5616   88.4703   92.7756   99.8221   92.7996   25.3893
 2308.9000 3360.0000   98.5022    3.3741    3.4005    3.5060     2.8368    3.0079     2.9408    3.2040     2.4553   19.6000   22.0837    3.0701    2.4125    0.0747 1603.4500   15.0400   89.7500   21.9800   15.2000   75.9000    2.4391    2.4778    2.4001    2.4107    2.3934    2.3719    2.4173    2.4767    2.4045    2.3174    2.3172    2.4511    2.4333    2.4513    2.4198    2.4832    2.5173    2.4938    2.4738    2.5394    2.2705  109.2722   98.2018   96.0033  103.6007   88.1630   88.2488  101.8357   95.8228   33.1388
 2309.0000 3363.0000  100.3051    4.1651    3.4127    3.8387     2.8434    3.8492     2.9537    2.8679     2.4635   19.3000   22.0723    3.0623    2.4115    0.0748 1603.4500   14.9600   89.8900   21.8400   14.9000   75.9000    2.4392    2.4952    2.3761    2.4089    2.3476    2.4229    2.3682    2.4355    2.3425    2.3663    2.3786    2.3329    2.4938    2.4474    2.4948    2.4386    2.5694    2.4852    2.5250    2.4875    2.3356  112.6644  107.9369  104.2485  110.3360   87.8689   83.9173  103.7624   98.7155   40.5540
 2309.1000 3362.0000  101.1381    4.7397    3.4005    3.6857     2.8558    5.1692     2.9387    2.9065     2.4648   19.2000   22.3524    3.0658    2.4115    0.0769 1603.4500   14.8600   90.1300   21.7400   14.5000   75.9000    2.4602    2.4488    2.3466    2.4047    2.5061    2.4120    2.3095    2.4568    2.3682    2.2723    2.2692    2.4147    2.4807    2.4812    2.4380    2.4739    2.4752    2.4137    2.4878    2.4461    2.2677  117.8674  100.1658  114.3605   90.4620  102.6026  102.5991  113.9197   97.1573   39.1345
 2309.2000 3380.0000   98.1986    5.2383    3.4261    3.6812     2.8781    2.5787     2.9462    2.9861     2.4807   18.7000   22.4534    3.0754    2.4111    0.0800 1603.4500   14.8100   89.8600   21.6400   14.3000   75.9000    2.4327    2.4605    2.3539    2.4325    2.3800    2.4260    2.3785    2.3346    2.3787    2.3297    2.4272    2.4489    2.4088    2.4526    2.4212    2.4246    2.5013    2.5027    2.4824    2.4537    2.3505  108.5431   91.9912  106.5335   94.4301   92.8840  106.7938  113.1376  103.8182   42.8673
 2309.3000 3376.0000   95.5634    6.0589    3.4322    3.5383     2.8934    3.3946     2.9559    2.9102     2.4813   18.5000   22.3585    3.0839    2.4097    0.0829 1603.4600   14.6300   89.6300   21.5400    9.2000   75.9000    2.4340    2.5220    2.3600    2.4105    2.4473    2.3498    2.3472    2.3860    2.3739    2.3402    2.3208    2.3874    2.4601    2.4829    2.4379    2.5722    2.5357    2.5585    2.4913    2.4663    2.2771  101.8672   86.1387  100.9297   97.2711   85.9259  109.7970  112.5776  108.5871   45.5397
 2309.4000 3379.0000   96.6208    4.8359    3.4372    3.5736     2.9081    3.3672     2.9646    3.2431     2.4890   18.4000   22.3136    3.0803    2.4065    0.0845 1603.4600   14.5600   89.5800   21.4400   10.3000   75.9000    2.4910    2.4693    2.3438    2.4201    2.4326    2.4730    2.3737    2.3507    2.3398    2.3152    2.3788    2.3800    2.4727    2.4651    2.3792    2.4988    2.4831    2.5284    2.5840    2.4928    2.4466  122.6233  106.3577   90.2826   90.2946  105.9061  101.8066  111.0475  107.1688   56.5599
 2309.5000 3366.0000   93.6055    3.8414    3.4695    3.5770     2.9586    3.3968     2.9766    3.0843     2.5276   18.6000   22.3067    3.0644    2.4018    0.0843 1603.4600   14.4600   89.5300   21.3400   11.9000   75.9000    2.4536    2.4901    2.3433    2.4055    2.4206    2.4384    2.4109    2.3124    2.3249    2.3257    2.3544    2.3495    2.3870    2.5550    2.5547    2.5774    2.3878    2.4729    2.5071    2.4518    2.2704  102.6549   95.0671   95.0578   70.6541   98.0094  108.4767   92.4340  108.9538   42.5710
 2309.6000 3358.0000   92.1833    4.8664    3.4795    3.4771     2.9865    4.2483     3.0020    2.9132     2.5611   18.7000   22.4059    3.0422    2.3950    0.0825 1603.4600   14.3600   89.5000   21.2400   13.5000   75.9000    2.4657    2.4792    2.3370    2.3862    2.4723    2.4373    2.3592    2.3708    2.3145    2.3161    2.3843    2.3379    2.3963    2.4285    2.4755    2.4779    2.4428    2.5261    2.5407    2.4253    2.3670  103.6180   94.9684   91.7071   76.7598   92.6242  104.5384   95.5140  107.5611   41.6472
 2309.7000 3371.0000   92.1547    4.5252    3.4921    3.5812     2.9973    3.6644     3.0109    2.9797     2.5695   18.8000   22.1267    3.0173    2.3862    0.0790 1603.4600   14.2600   89.6500   21.1300   15.1000   75.9000    2.4859    2.4513    2.3367    2.3678    2.5187    2.4054    2.2624    2.3381    2.3381    2.4223    2.3573    2.3302    2.3841    2.4023    2.3935    2.4149    2.5642    2.4475    2.4835    2.5510    2.3588  105.7964   94.7451   84.1277   90.5715   80.4423   95.6293  102.4813  104.4108   39.5573
 2309.8000 3373.0000   90.4375    4.3221    3.4959    3.3731     3.0098    2.9706     3.0076    2.8580     2.5718   18.9000   22.1863    2.9992    2.3760    0.0747 1603.4600   14.1400   89.7500   21.0300   17.0000   76.0000    2.3996    2.4522    2.3551    2.4113    2.4072    2.3519    2.4027    2.2973    2.3157    2.4160    2.3253    2.4419    2.3804    2.5174    2.3968    2.4616    2.4753    2.4894    2.4441    2.4044    2.4521   95.2582   82.9158   87.7690   87.3814   66.9987   89.3152   92.4059  103.8931   33.4787
 2309.9000 3375.0000   87.8283    4.2769    3.4883    3.5447     2.9952    3.9384     2.9942    2.8327     2.5604   19.0000   22.5332    2.9925    2.3675    0.0718 1603.4600   14.0600   89.7500   20.9300   17.5000   76.0000    2.4018    2.4592    2.2947    2.3556    2.4246    2.3640    2.2929    2.2861    2.3291    2.2841    2.2804    2.3247    2.3722    2.4592    2.4431    2.4501    2.4833    2.4633    2.4220    2.4065    2.2226   91.1734   79.4877   85.8214   84.5163   71.8583   86.2007   89.7134   98.6392   41.8992
