~Version Information Section
 VERS.      2.0         :CWLS LOG ASCII STANDARD -VERSION 2.0
 WRAP.      NO          :One line per depth step
 MERG.      YES         :Data merged using LAS tools (www.logtechcan.com)
~Well Information Section
#MNEM.UNIT               VALUE/NAME                 DESCRIPTION
#----.----     ----------------------------------   --------------------
 STRT.m           1950.0000                         :Start Depth
 STOP.m           2686.0000                         :Stop  Depth
 STEP.m              0.1000                         :Step  Depth
 NULL.            -999.2500                         :Null value
 COMP.         PetroCanada                          :Company Name
 WELL.         P11-A-02A                            :Well Name
 PATH.         P11-A-02A                            :Path Name
 FLD .         De Ruyter                            :Field Name
 LOC .         De Ruyter                            :Location
 PROV.         Unused                               :Province
 SRVC.         BAKER HUGHES INTEQ                   :Service Company Name
DATE.DD/MM/YYYY21/05/2007                           :Date
 UWI .                                              :Unique Well ID
 ZONE.Hrs      2                                    :Time zone difference from GMT
 ZONE.Hrs      1                                    :Time zone difference from GMT
~Curve Information Section
#MNEM     .UNIT         CURVE DESCRIPTION
#----     .----         -------------------------
 DEPTH    .m            :1 Depth Hole
 APRESM   .psi          :2 Annular Pressure **MERGED**
 GRAFM    .API          :3 Gamma Ray App [RWD]
 RACELM   .ohm.m        :4 Resistivity Attenuation - Corrected - CRIM - 400kHz
 RPCELM   .ohm.m        :5 Resistivity Phase - Corrected - CRIM - 400kHz
 RACEHM   .ohm.m        :6 Resistivity Attenuation - Corrected - CRIM - 2MHz
 RPCEHM   .ohm.m        :7 Resistivity Phase - Corrected - CRIM - 2MHz
 RACESLM  .ohm.m        :8 Resistivity Attenuation Short Spaced - Corrected - CRIM - 400kHz
 RPCESLM  .ohm.m        :9 Resistivity Phase Short Spaced - Corrected - CRIM - 400kHz
 RACESHM  .ohm.m        :10 Resistivity Attenuation Short Spaced - Corrected - CRIM - 2MHz
 RPCESHM  .ohm.m        :11 Resistivity Phase Short Spaced - Corrected - CRIM - 2MHz
 RPTHM    .min          :12 Resistivity Time Since Drilled
 NPCKLFM  .pu           :13 Neutron Porosity (ls) [RWD] caliper & salinity corrected
 DPEFM    .unitless     :14 Phototelectric Cross Sect [RWD]
 BDCFM    .g/cc         :15 Bulk Density Compensated [RWD]
 DRHFM    .g/cc         :16 Delta RHO - Density Correction [RWD]
 TVD      .m            :17 True Vertical Depth
 BLOCKCOMP.m            :18 Block/Topdrive Position Compensated
 INNM     .deg          :19 Inclination - Non-Rotating **MERGED**
 ROP_AVG  .m/hr         :20 Rate of Penetration
 WOB_AVG  .klbf         :21 Weight on Bit
 TCDM     .degC         :22 Downhole Temperature **MERGED**
 ABDCUM   .g/cc         :23 Azimuthal Bulk Density - Compensated - Up
 ABDCLM   .g/cc         :24 Azimuthal Bulk Density - Compensated - Left
 ABDCRM   .g/cc         :25 Azimuthal Bulk Density - Compensated - Right
 ABDCDM   .g/cc         :26 Azimuthal Bulk Density - Compensated - Down
 ABDC1M   .g/cc         :27 Azimuthal Bulk Density - Compensated - Sector 1
 ABDC2M   .g/cc         :28 Azimuthal Bulk Density - Compensated - Sector 2
 ABDC3M   .g/cc         :29 Azimuthal Bulk Density - Compensated - Sector 3
 ABDC4M   .g/cc         :30 Azimuthal Bulk Density - Compensated - Sector 4
 ABDC5M   .g/cc         :31 Azimuthal Bulk Density - Compensated - Sector 5
 ABDC6M   .g/cc         :32 Azimuthal Bulk Density - Compensated - Sector 6
 ABDC7M   .g/cc         :33 Azimuthal Bulk Density - Compensated - Sector 7
 ABDC8M   .g/cc         :34 Azimuthal Bulk Density - Compensated - Sector 8
 ABDC9M   .g/cc         :35 Azimuthal Bulk Density - Compensated - Sector 9
 ABDC10M  .g/cc         :36 Azimuthal Bulk Density - Compensated - Sector 10
 ABDC11M  .g/cc         :37 Azimuthal Bulk Density - Compensated - Sector 11
 ABDC12M  .g/cc         :38 Azimuthal Bulk Density - Compensated - Sector 12
 ABDC13M  .g/cc         :39 Azimuthal Bulk Density - Compensated - Sector 13
 ABDC14M  .g/cc         :40 Azimuthal Bulk Density - Compensated - Sector 14
 ABDC15M  .g/cc         :41 Azimuthal Bulk Density - Compensated - Sector 15
 ABDC16M  .g/cc         :42 Azimuthal Bulk Density - Compensated - Sector 16
 ABDCM    .g/cc         :43 Azimuthal Bulk Density Compensated Image
 GRAS0M   .API          :44 Azimuthal Gamma Ray - Apparent - Sector 0
 GRAS1M   .API          :45 Azimuthal Gamma Ray - Apparent - Sector 1
 GRAS2M   .API          :46 Azimuthal Gamma Ray - Apparent - Sector 2
 GRAS3M   .API          :47 Azimuthal Gamma Ray - Apparent - Sector 3
 GRAS4M   .API          :48 Azimuthal Gamma Ray - Apparent - Sector 4
 GRAS5M   .API          :49 Azimuthal Gamma Ray - Apparent - Sector 5
 GRAS6M   .API          :50 Azimuthal Gamma Ray - Apparent - Sector 6
 GRAS7M   .API          :51 Azimuthal Gamma Ray - Apparent - Sector 7
 GRASM    .API          :52 Gamma Ray Apparent Sector Image
~Parameter Information Section
#MNEM.UNIT                  VALUE                   DESCRIPTION
#----.----     ----------------------------------   --------------------
~Other Information Section
Disclaimer
Baker Hughes INTEQ does not guarantee the accuracy  or correctness
of  interpretations  provided  in  or  from this  data. Since  all
interpretations  are  opinions based on measurements, Baker Hughes
INTEQ  shall  under no  circumstances   be  held  responsible  for
consequential damages or any other loss, costs, damages or expenses
incurred  or  sustained  in  connection  with  the use of any such
interpretations. Baker  Hughes INTEQ  disclaims  all expressed and
implied  warranties  related to  its  service which is governed by
Baker Hughes INTEQ's standard terms and conditions.
#----------------------------------------------------------------------
 

~A  DEPTH   APRESM    GRAFM     RACELM    RPCELM    RACEHM    RPCEHM     RACESLM   RPCESLM    RACESHM   RPCESHM    RPTHM     NPCKLFM   DPEFM     BDCFM     DRHFM       TVD   BLOCKCOMP   INNM     ROP_AVG   WOB_AVG    TCDM     ABDCUM    ABDCLM    ABDCRM    ABDCDM    ABDC1M    ABDC2M    ABDC3M    ABDC4M    ABDC5M    ABDC6M    ABDC7M    ABDC8M    ABDC9M    ABDC10M   ABDC11M   ABDC12M   ABDC13M   ABDC14M   ABDC15M   ABDC16M   ABDCM     GRAS0M    GRAS1M    GRAS2M    GRAS3M    GRAS4M    GRAS5M    GRAS6M    GRAS7M    GRASM   
# ...
 2449.2000 3480.0000   62.9706    5.0518    5.8988    5.1085     6.7814    5.6088     5.3917    4.4204     5.8422   21.0000   25.9851    2.7692    2.1856    0.0440 1604.2100   22.1900   89.6700   16.2700    9.5000   82.1000    2.1925    2.1791    2.1593    2.1769    2.2116    2.1590    2.1547    2.1733    2.1453    2.1720    2.1358    2.1851    2.1935    2.1958    2.2013    2.1699    2.1805    2.1715    2.2385    2.1701    2.3340   55.1482   59.7834   54.4023   65.7488   68.5223   66.0412   64.8738   56.8550   42.2506
 2449.3000 3484.0000   61.9348    6.0820    5.9268    5.0274     6.8054    5.7755     5.3980    4.6414     5.8804   20.8000   25.8047    2.7571    2.1862    0.0448 1604.2100   22.0600   89.6300   15.9600    9.9000   82.1000    2.1759    2.2247    2.1621    2.2163    2.1922    2.1727    2.1593    2.1718    2.1565    2.1655    2.1723    2.2283    2.2072    2.2614    2.2690    2.2120    2.2308    2.1998    2.1755    2.1721    2.3387   56.8927   64.0086   56.2853   68.9405   67.0450   68.1939   62.8948   57.1175   39.2792
 2449.4000 3486.0000   63.6808    5.9907    5.8834    5.0106     6.6558    5.3544     5.3606    4.8132     5.7951   20.7000   25.2798    2.7420    2.1865    0.0454 1604.2100   21.9100   89.6900   15.6500   10.3000   82.1000    2.1625    2.2116    2.1710    2.2427    2.1560    2.1553    2.1854    2.1639    2.1751    2.1637    2.1950    2.2385    2.2380    2.3070    2.2510    2.2523    2.2162    2.1450    2.1739    2.1691    2.3434   60.3715   72.4342   60.0402   75.3052   64.0990   72.4867   58.9486   57.6409   33.3537
 2449.5000 3501.0000   65.5317    5.0682    5.8162    5.1433     6.4533    7.0563     5.2873    4.6525     5.6362   20.6000   25.4000    2.7316    2.1862    0.0456 1604.2100   21.8800   89.7500   15.3400   10.3000   82.1000    2.1700    2.2297    2.1556    2.2270    2.1725    2.1370    2.1371    2.1607    2.1777    2.1534    2.1808    2.2103    2.2600    2.2639    2.2711    2.2390    2.2423    2.1835    2.1584    2.2173    2.3461   66.3627   66.2043   61.9716   62.9930   83.3727   71.1694   57.0607   74.0628   52.8751
 2449.6000 3486.0000   63.5815    6.3110    5.8072    5.2501     6.4691    5.2752     5.2873    4.7420     5.6679   20.7000   25.4008    2.7336    2.1858    0.0457 1604.2100   21.8200   89.7500   15.0400   10.2000   82.1000    2.1901    2.2032    2.1681    2.2113    2.1789    2.1861    2.1784    2.1624    2.1434    2.1929    2.1833    2.2165    2.2176    2.2309    2.2305    2.2088    2.2130    2.1701    2.2010    2.1990    2.3489   59.4760   65.9228   61.7472   69.5026   81.8688   68.4172   56.2513   68.8723   50.6188
 2449.7000 3473.0000   63.0229    8.3857    5.8527    5.0717     6.5726    5.7297     5.3176    4.5970     5.8090   20.9000   25.6314    2.7427    2.1853    0.0458 1604.2100   21.7600   89.7500   14.7300   10.2000   82.1000    2.1892    2.1906    2.1607    2.1922    2.1973    2.1817    2.1553    2.1740    2.1465    2.1698    2.1883    2.1876    2.2111    2.1867    2.2216    2.2007    2.1657    2.1806    2.1979    2.1826    2.3517   40.1518   65.1330   61.1175   87.7685   77.6489   60.6945   53.9801   54.3076   44.2877
 2449.8000 3487.0000   62.6497    6.4311    5.8619    5.1422     6.7153    4.8042     5.3300    4.6108     5.8279   20.7000   26.0104    2.7489    2.1848    0.0455 1604.2100   21.6900   89.7500   14.4200   10.2000   82.1000    2.2267    2.1736    2.2015    2.1682    2.2167    2.2505    2.2177    2.2228    2.1718    2.1986    2.1449    2.1944    2.1789    2.1599    2.2035    2.2064    2.1654    2.1303    2.2004    2.2445    2.3544   44.5433   65.0845   59.6675   73.9326   73.9198   62.7343   57.0508   58.1768   45.4387
 2449.9000 3481.0000   63.4004    5.3837    5.8527    4.7767     6.7883   13.0696     5.2873    4.3939     5.7902   20.6000   26.4207    2.7414    2.1832    0.0442 1604.2100   21.6600   89.7500   14.1100   10.2000   82.1000    2.2217    2.1877    2.2023    2.1781    2.1974    2.2600    2.2712    2.2269    2.1786    2.1484    2.1567    2.1651    2.1991    2.1939    2.1789    2.1795    2.1835    2.2147    2.1837    2.2605    2.3478   53.9633   64.9806   56.5571   44.2537   65.9205   67.1098   63.6378   66.4765   47.9077
 2450.0000 3487.0000   62.1420    5.9707    5.8588    4.9496     6.7713    4.6247     5.2753    4.2546     5.7878   20.5000   26.7853    2.7306    2.1807    0.0425 1604.2100   21.5700   89.6800   13.8000   10.1000   82.1000    2.1905    2.1634    2.1522    2.1782    2.1887    2.2135    2.1807    2.1670    2.1089    2.1628    2.2074    2.1404    2.2060    2.1613    2.1639    2.1893    2.1275    2.1779    2.1291    2.2387    2.3389   57.1282   59.8565   56.9128   61.0868   60.0292   62.2260   65.2557   54.9054   44.8006
 2450.1000 3488.0000   60.6539    5.5423    5.8527    4.9622     6.8499   10.1528     5.2904    4.3263     5.8352   20.5000   27.0242    2.7327    2.1785    0.0417 1604.2200   21.5100   89.6300   13.4900   10.1000   82.1000    2.1830    2.1802    2.1669    2.1970    2.1525    2.1916    2.1843    2.1687    2.1669    2.1511    2.1653    2.2090    2.1977    2.2197    2.2248    2.1769    2.1674    2.1609    2.1832    2.2137    2.3300   60.5833   54.2625   57.3012   79.4632   53.5978   56.8944   67.0220   42.2734   41.4086
 2450.2000 3488.0000   60.0457    5.5186    5.8223    4.9927     6.8484    7.3905     5.3483    4.4812     5.8949   20.6000   27.1039    2.7468    2.1772    0.0417 1604.2200   21.4500   89.6300   13.1800   10.0000   82.1000    2.1771    2.1887    2.1509    2.2042    2.1828    2.1724    2.1868    2.1565    2.1391    2.1294    2.1697    2.2099    2.2276    2.2142    2.2138    2.1836    2.1913    2.1713    2.1661    2.1916    2.3211   58.7123   52.9581   53.3668   63.4244   67.7102   53.8641   47.1964   60.4192   33.2215
 2450.3000 3489.0000   58.1435    6.4825    5.8132    5.0171     6.7448    4.3333     5.3146    4.6021     5.8221   20.6000   26.7744    2.7616    2.1766    0.0421 1604.2200   21.4100   89.6300   12.8700   10.0000   82.1000    2.1720    2.2434    2.1400    2.2134    2.1761    2.1751    2.1630    2.1486    2.1162    2.1348    2.1417    2.1779    2.2750    2.2747    2.3533    2.2626    2.2097    2.1779    2.1715    2.1685    2.3163   58.9434   56.4185   57.1124   66.0703   68.3820   58.2669   47.6613   57.3719   35.3882
 2450.4000 3486.0000   58.7442    6.8106    5.7981    5.0124     6.6597    4.4304     5.3298    4.4864     5.8090   20.5000   26.7274    2.7647    2.1771    0.0429 1604.2200   21.2700   89.7000   12.5600   10.8000   82.1000    2.1831    2.2052    2.1407    2.2064    2.1579    2.1759    2.1756    2.1320    2.1186    2.1414    2.1552    2.2061    2.2271    2.2471    2.2026    2.2209    2.2095    2.1966    2.1920    2.2150    2.3116   59.5775   65.9130   67.3894   73.3300   70.2253   70.3472   48.9371   49.0111   41.3333
 2450.5000 3492.0000   57.5590    6.0150    5.8011    5.0750     6.7643    5.6714     5.3639    4.4906     5.9453   20.3000   26.7323    2.7544    2.1786    0.0443 1604.2200   21.1600   89.7500   12.2500   11.4000   82.1000    2.2017    2.2018    2.1485    2.1664    2.1555    2.2297    2.1997    2.1492    2.1254    2.1258    2.1326    2.1788    2.1947    2.1658    2.1910    2.2235    2.2123    2.1920    2.2122    2.2164    2.3069   52.2156   62.4175   58.5237   68.8379   66.3318   60.0886   48.5034   47.8238   38.8208
 2450.6000 3490.0000   56.4108    5.2723    5.8405    5.1128     6.8831    7.2568     5.4168    4.2864     6.0627   20.3000   27.1091    2.7482    2.1798    0.0461 1604.2200   21.1100   89.7500   11.9700   11.3000   82.1000    2.2369    2.1844    2.1656    2.1715    2.2647    2.2246    2.1991    2.1906    2.1447    2.1380    2.1337    2.1839    2.1988    2.1754    2.1731    2.1678    2.2062    2.1927    2.2310    2.2329    2.3022   38.8180   56.0562   42.3894   60.6628   59.2462   41.4193   47.7142   45.6630   34.2485
 2450.7000 3488.0000   59.1607    5.4654    5.8649    5.3181     6.9181    5.4390     5.4168    4.6852     6.0466   20.4000   27.1991    2.7549    2.1785    0.0470 1604.2200   21.0600   89.7500   12.1700   11.2000   82.2000    2.2267    2.1800    2.1846    2.1974    2.2237    2.2693    2.2466    2.2040    2.1318    2.1693    2.1829    2.2394    2.1661    2.2104    2.1554    2.1736    2.2312    2.1733    2.1970    2.2246    2.2975   52.1263   54.2191   47.8777   65.2898   64.8858   51.3135   53.2355   48.9883   34.0650
