~Version Information Section
 VERS.      2.0         :CWLS LOG ASCII STANDARD -VERSION 2.0
 WRAP.      NO          :One line per depth step
 MERG.      YES         :Data merged using LAS tools (www.logtechcan.com)
~Well Information Section
#MNEM.UNIT               VALUE/NAME                 DESCRIPTION
#----.----     ----------------------------------   --------------------
 STRT.m           1950.0000                         :Start Depth
 STOP.m           2686.0000                         :Stop  Depth
 STEP.m              0.1000                         :Step  Depth
 NULL.            -999.2500                         :Null value
 COMP.         PetroCanada                          :Company Name
 WELL.         P11-A-02A                            :Well Name
 PATH.         P11-A-02A                            :Path Name
 FLD .         De Ruyter                            :Field Name
 LOC .         De Ruyter                            :Location
 PROV.         Unused                               :Province
 SRVC.         BAKER HUGHES INTEQ                   :Service Company Name
DATE.DD/MM/YYYY21/05/2007                           :Date
 UWI .                                              :Unique Well ID
 ZONE.Hrs      2                                    :Time zone difference from GMT
 ZONE.Hrs      1                                    :Time zone difference from GMT
~Curve Information Section
#MNEM     .UNIT         CURVE DESCRIPTION
#----     .----         -------------------------
 DEPTH    .m            :1 Depth Hole
 APRESM   .psi          :2 Annular Pressure **MERGED**
 GRAFM    .API          :3 Gamma Ray App [RWD]
 RACELM   .ohm.m        :4 Resistivity Attenuation - Corrected - CRIM - 400kHz
 RPCELM   .ohm.m        :5 Resistivity Phase - Corrected - CRIM - 400kHz
 RACEHM   .ohm.m        :6 Resistivity Attenuation - Corrected - CRIM - 2MHz
 RPCEHM   .ohm.m        :7 Resistivity Phase - Corrected - CRIM - 2MHz
 RACESLM  .ohm.m        :8 Resistivity Attenuation Short Spaced - Corrected - CRIM - 400kHz
 RPCESLM  .ohm.m        :9 Resistivity Phase Short Spaced - Corrected - CRIM - 400kHz
 RACESHM  .ohm.m        :10 Resistivity Attenuation Short Spaced - Corrected - CRIM - 2MHz
 RPCESHM  .ohm.m        :11 Resistivity Phase Short Spaced - Corrected - CRIM - 2MHz
 RPTHM    .min          :12 Resistivity Time Since Drilled
 NPCKLFM  .pu           :13 Neutron Porosity (ls) [RWD] caliper & salinity corrected
 DPEFM    .unitless     :14 Phototelectric Cross Sect [RWD]
 BDCFM    .g/cc         :15 Bulk Density Compensated [RWD]
 DRHFM    .g/cc         :16 Delta RHO - Density Correction [RWD]
 TVD      .m            :17 True Vertical Depth
 BLOCKCOMP.m            :18 Block/Topdrive Position Compensated
 INNM     .deg          :19 Inclination - Non-Rotating **MERGED**
 ROP_AVG  .m/hr         :20 Rate of Penetration
 WOB_AVG  .klbf         :21 Weight on Bit
 TCDM     .degC         :22 Downhole Temperature **MERGED**
 ABDCUM   .g/cc         :23 Azimuthal Bulk Density - Compensated - Up
 ABDCLM   .g/cc         :24 Azimuthal Bulk Density - Compensated - Left
 ABDCRM   .g/cc         :25 Azimuthal Bulk Density - Compensated - Right
 ABDCDM   .g/cc         :26 Azimuthal Bulk Density - Compensated - Down
 ABDC1M   .g/cc         :27 Azimuthal Bulk Density - Compensated - Sector 1
 ABDC2M   .g/cc         :28 Azimuthal Bulk Density - Compensated - Sector 2
 ABDC3M   .g/cc         :29 Azimuthal Bulk Density - Compensated - Sector 3
 ABDC4M   .g/cc         :30 Azimuthal Bulk Density - Compensated - Sector 4
 ABDC5M   .g/cc         :31 Azimuthal Bulk Density - Compensated - Sector 5
 ABDC6M   .g/cc         :32 Azimuthal Bulk Density - Compensated - Sector 6
 ABDC7M   .g/cc         :33 Azimuthal Bulk Density - Compensated - Sector 7
 ABDC8M   .g/cc         :34 Azimuthal Bulk Density - Compensated - Sector 8
 ABDC9M   .g/cc         :35 Azimuthal Bulk Density - Compensated - Sector 9
 ABDC10M  .g/cc         :36 Azimuthal Bulk Density - Compensated - Sector 10
 ABDC11M  .g/cc         :37 Azimuthal Bulk Density - Compensated - Sector 11
 ABDC12M  .g/cc         :38 Azimuthal Bulk Density - Compensated - Sector 12
 ABDC13M  .g/cc         :39 Azimuthal Bulk Density - Compensated - Sector 13
 ABDC14M  .g/cc         :40 Azimuthal Bulk Density - Compensated - Sector 14
 ABDC15M  .g/cc         :41 Azimuthal Bulk Density - Compensated - Sector 15
 ABDC16M  .g/cc         :42 Azimuthal Bulk Density - Compensated - Sector 16
 ABDCM    .g/cc         :43 Azimuthal Bulk Density Compensated Image
 GRAS0M   .API          :44 Azimuthal Gamma Ray - Apparent - Sector 0
 GRAS1M   .API          :45 Azimuthal Gamma Ray - Apparent - Sector 1
 GRAS2M   .API          :46 Azimuthal Gamma Ray - Apparent - Sector 2
 GRAS3M   .API          :47 Azimuthal Gamma Ray - Apparent - Sector 3
 GRAS4M   .API          :48 Azimuthal Gamma Ray - Apparent - Sector 4
 GRAS5M   .API          :49 Azimuthal Gamma Ray - Apparent - Sector 5
 GRAS6M   .API          :50 Azimuthal Gamma Ray - Apparent - Sector 6
 GRAS7M   .API          :51 Azimuthal Gamma Ray - Apparent - Sector 7
 GRASM    .API          :52 Gamma Ray Apparent Sector Image
~Parameter Information Section
#MNEM.UNIT                  VALUE                   DESCRIPTION
#----.----     ----------------------------------   --------------------
~Other Information Section
Disclaimer
Baker Hughes INTEQ does not guarantee the accuracy  or correctness
of  interpretations  provided  in  or  from this  data. Since  all
interpretations  are  opinions based on measurements, Baker Hughes
INTEQ  shall  under no  circumstances   be  held  responsible  for
consequential damages or any other loss, costs, damages or expenses
incurred  or  sustained  in  connection  with  the use of any such
interpretations. Baker  Hughes INTEQ  disclaims  all expressed and
implied  warranties  related to  its  service which is governed by
Baker Hughes INTEQ's standard terms and conditions.
#----------------------------------------------------------------------
 

~A  DEPTH   APRESM    GRAFM     RACELM    RPCELM    RACEHM    RPCEHM     RACESLM   RPCESLM    RACESHM   RPCESHM    RPTHM     NPCKLFM   DPEFM     BDCFM     DRHFM       TVD   BLOCKCOMP   INNM     ROP_AVG   WOB_AVG    TCDM     ABDCUM    ABDCLM    ABDCRM    ABDCDM    ABDC1M    ABDC2M    ABDC3M    ABDC4M    ABDC5M    ABDC6M    ABDC7M    ABDC8M    ABDC9M    ABDC10M   ABDC11M   ABDC12M   ABDC13M   ABDC14M   ABDC15M   ABDC16M   ABDCM     GRAS0M    GRAS1M    GRAS2M    GRAS3M    GRAS4M    GRAS5M    GRAS6M    GRAS7M    GRASM   
# ...
 1982.0000 3307.0000  104.7386 -999.2500    2.0927    1.9124     2.6567    2.1260  -999.2500 -999.2500  -999.2500   38.9000 -999.2500 -999.2500 -999.2500 -999.2500 1595.3200    8.4600   81.7500   24.8700   34.8000   91.5000 -999.2500 -999.2500 -999.2500    2.3194 -999.2500 -999.2500 -999.2500 -999.2500 -999.2500 -999.2500 -999.2500 -999.2500 -999.2500    2.3194 -999.2500 -999.2500 -999.2500 -999.2500 -999.2500 -999.2500    2.3257   53.1084   73.6907   75.9091   73.7329   72.1411   83.3549   83.0130   78.5416   78.6517
 1982.1000 3308.0000  105.4506 -999.2500    2.0961    1.9127     2.6553    2.1217  -999.2500 -999.2500  -999.2500   38.8000 -999.2500 -999.2500 -999.2500 -999.2500 1595.3400    8.3600   83.2400   24.8300   35.2000   91.5000 -999.2500 -999.2500 -999.2500    2.3547 -999.2500 -999.2500 -999.2500 -999.2500 -999.2500 -999.2500 -999.2500 -999.2500 -999.2500    2.3547 -999.2500 -999.2500 -999.2500 -999.2500 -999.2500 -999.2500    2.3195   56.5691   70.9118   73.7906   74.3420   67.0509   75.4104   93.8843   84.7390   75.2035
 1982.2000 3309.0000  105.7203 -999.2500    2.1105    1.9157     2.6626    2.1525  -999.2500 -999.2500  -999.2500   38.8000 -999.2500 -999.2500 -999.2500 -999.2500 1595.3500    8.2600   84.5000   24.7900   35.5000   91.5000 -999.2500 -999.2500 -999.2500    2.3134 -999.2500 -999.2500 -999.2500 -999.2500 -999.2500 -999.2500 -999.2500 -999.2500 -999.2500    2.3134 -999.2500 -999.2500 -999.2500 -999.2500 -999.2500 -999.2500    2.3132   69.1861   64.1745   69.2133   56.1216   73.0632   65.3541   81.5106   83.4721   81.2843
 1982.3000 3309.0000  103.4798 -999.2500    2.1043    1.9139     2.6643    2.1533  -999.2500 -999.2500  -999.2500   38.8000 -999.2500 -999.2500 -999.2500 -999.2500 1595.3600    8.2100   79.5200   24.7600   35.7000   91.5000 -999.2500 -999.2500 -999.2500    2.3349 -999.2500 -999.2500 -999.2500 -999.2500 -999.2500 -999.2500 -999.2500 -999.2500 -999.2500    2.3349 -999.2500 -999.2500 -999.2500 -999.2500 -999.2500 -999.2500    2.3070   79.7512   58.5328   65.3804   40.8645   78.0977   56.9333   71.1493   82.4112   86.3761
 1982.4000 3309.0000  108.5120 -999.2500    2.1116    1.9131     2.6620    2.1471  -999.2500 -999.2500  -999.2500   38.7000 -999.2500 -999.2500 -999.2500 -999.2500 1595.3800    8.0600   75.5000   24.7200   35.7000   91.5000 -999.2500 -999.2500 -999.2500    2.3172 -999.2500 -999.2500 -999.2500 -999.2500 -999.2500 -999.2500 -999.2500 -999.2500 -999.2500    2.3172 -999.2500 -999.2500 -999.2500 -999.2500 -999.2500 -999.2500    2.3008   64.8804   55.5734   68.6564   48.5935   81.0334   64.4009   83.1569   84.5412   80.3834
 1982.5000 3307.0000  110.1405 -999.2500    2.1282    1.8981     2.6900    2.1067  -999.2500 -999.2500  -999.2500   40.7000 -999.2500 -999.2500 -999.2500 -999.2500 1595.3900    7.9600   75.5000   24.6800   35.7000   91.5000 -999.2500 -999.2500 -999.2500    2.3299 -999.2500 -999.2500 -999.2500 -999.2500 -999.2500 -999.2500 -999.2500 -999.2500 -999.2500    2.3299 -999.2500 -999.2500 -999.2500 -999.2500 -999.2500 -999.2500    2.2962   58.1094   54.2258   70.1480   52.1127   82.3700   67.8010   88.6242   85.5111   77.6547
 1982.6000 3309.0000  107.0835 -999.2500    2.1620    1.9218     2.6504    2.2379  -999.2500 -999.2500  -999.2500   42.5000 -999.2500 -999.2500 -999.2500 -999.2500 1595.4000    7.8600   75.5000   24.6400   35.6000   91.5000 -999.2500 -999.2500 -999.2500    2.3294 -999.2500 -999.2500 -999.2500 -999.2500 -999.2500 -999.2500 -999.2500 -999.2500 -999.2500    2.3294 -999.2500 -999.2500 -999.2500 -999.2500 -999.2500 -999.2500    2.2873   80.1687   65.2608   58.3674   51.8591   77.6554   57.5949   74.0682   90.9267   81.3612
 1982.7000 3310.0000  106.8233 -999.2500    2.1639    1.9233     2.6454    2.2365  -999.2500 -999.2500  -999.2500   42.4000 -999.2500 -999.2500 -999.2500 -999.2500 1595.4200    7.7900   73.9800   24.5900   35.6000   91.5000 -999.2500 -999.2500 -999.2500    2.3100 -999.2500 -999.2500 -999.2500 -999.2500 -999.2500 -999.2500 -999.2500 -999.2500 -999.2500    2.3100 -999.2500 -999.2500 -999.2500 -999.2500 -999.2500 -999.2500    2.2989   72.5837   65.1388   63.9434   66.7559   68.9441   71.0661   79.0091   86.0962   80.8781
 1982.8000 3310.0000  104.1117 -999.2500    2.1569    1.9293     2.6363    2.2458  -999.2500 -999.2500  -999.2500   42.2000 -999.2500 -999.2500 -999.2500 -999.2500 1595.4300    7.6600   73.0000   24.7000   34.3000   91.5000 -999.2500 -999.2500 -999.2500    2.2889 -999.2500 -999.2500 -999.2500 -999.2500 -999.2500 -999.2500 -999.2500 -999.2500 -999.2500    2.2889 -999.2500 -999.2500 -999.2500 -999.2500 -999.2500 -999.2500    2.3098   64.2948   65.0054   70.0370   83.0349   59.4245   85.7873   84.4085   80.8175   80.3502
 1982.9000 3311.0000  103.4105 -999.2500    2.1512    1.9425     2.6025    2.2279  -999.2500 -999.2500  -999.2500   42.0000 -999.2500 -999.2500 -999.2500 -999.2500 1595.4400    7.5600   80.8200   24.8500   33.2000   91.6000 -999.2500 -999.2500 -999.2500    2.2892 -999.2500 -999.2500 -999.2500 -999.2500 -999.2500 -999.2500 -999.2500 -999.2500 -999.2500    2.2892 -999.2500 -999.2500 -999.2500 -999.2500 -999.2500 -999.2500    2.3207   70.4122   49.2484   55.9122   54.0979   90.1306   90.2722   91.9358   83.3858   68.3207
 1983.0000 3309.0000  106.0987 -999.2500    2.1535    1.9600     2.5706    2.2712  -999.2500 -999.2500  -999.2500   41.9000 -999.2500 -999.2500 -999.2500 -999.2500 1595.4600    7.4500   85.2500   24.9900   32.1000   91.6000 -999.2500 -999.2500 -999.2500    2.3018 -999.2500 -999.2500 -999.2500 -999.2500 -999.2500 -999.2500 -999.2500 -999.2500 -999.2500    2.3018 -999.2500 -999.2500 -999.2500 -999.2500 -999.2500 -999.2500    2.3270   70.7355   55.0583   61.7780   54.6734   82.2751   88.4091   90.6749   86.4284   66.2931
 1983.1000 3309.0000  106.4923 -999.2500    2.1483    1.9837     2.5293    2.2828  -999.2500 -999.2500  -999.2500   41.9000 -999.2500 -999.2500 -999.2500 -999.2500 1595.4700    7.3600   85.6300   25.1400   32.2000   91.6000    2.3087    2.4278    2.2916    2.3926    2.3309    2.3430    2.2849    2.2591    2.3454    2.1366    2.3306    2.3410    2.2853    2.5540    2.4446    2.4557    2.4419    2.4364    2.2848    2.2545    2.3266   71.6128   70.8256   77.6970   56.2352   60.9563   83.3527   87.2532   94.6853   60.7906
 1983.2000 3307.0000  104.8765 -999.2500    2.1708    1.9996     2.4980    2.3443  -999.2500 -999.2500  -999.2500   41.8000 -999.2500 -999.2500 -999.2500 -999.2500 1595.4800    7.2600   83.5400   25.2800   32.4000   91.6000    2.2570    2.3924    2.2782    2.4222    2.1581    2.2961    2.2912    2.3108    2.2891    2.2861    2.4691    2.3646    2.5295    2.3376    2.4475    2.3088    2.3622    2.3910    2.2698    2.2549    2.3263   72.6370   70.5324   74.0488   55.3974   71.7072   79.1674   79.1992   90.2454   65.5179
 1983.3000 3308.0000  103.0585 -999.2500    2.1673    2.0043     2.4962    2.3214  -999.2500 -999.2500  -999.2500   41.8000 -999.2500 -999.2500 -999.2500 -999.2500 1595.5000    7.1600   77.7500   25.4200   32.6000   91.6000    2.2411    2.3736    2.2674    2.3679    2.2083    2.2344    2.3435    2.2173    2.2194    2.3859    2.2830    2.3904    2.3996    2.4080    2.3371    2.4481    2.4034    2.3384    2.2381    2.2689    2.3260   74.1692   70.0937   68.5907   54.1440   87.7921   72.9055   67.1491   83.6025   72.5905
 1983.4000 3309.0000  101.7850 -999.2500    2.1849    2.0080     2.4980    2.3291  -999.2500 -999.2500  -999.2500   41.7000 -999.2500 -999.2500 -999.2500 -999.2500 1595.5100    7.0800   77.5200   25.5700   32.8000   91.6000    2.2549    2.3500    2.2719    2.3730    2.2158    2.2245    2.2497    2.2416    2.2568    2.3234    2.4082    2.3539    2.4015    2.3902    2.4407    2.3571    2.3627    2.2871    2.2706    2.2707    2.3235   67.8327   67.0371   66.8096   64.9013   85.8619   82.8732   82.1455   74.0342   68.3887
 1983.5000 3312.0000  104.7305 -999.2500    2.1991    2.0543     2.4583    2.3737  -999.2500 -999.2500  -999.2500   41.5000 -999.2500 -999.2500 -999.2500 -999.2500 1595.5200    6.9600   77.0000   25.7100   32.9000   91.6000    2.2356    2.3221    2.2831    2.4048    2.2440    2.1976    2.2152    2.1821    2.3776    2.3139    2.4019    2.4763    2.4008    2.3959    2.4072    2.3888    2.2440    2.2714    2.2764    2.2275    2.3204   63.4800   64.9374   65.5862   72.2908   84.5360   89.7203   92.4469   67.4614   65.5024
