~Version Information Section
 VERS.      2.0         :CWLS LOG ASCII STANDARD -VERSION 2.0
 WRAP.      NO          :One line per depth step
 MERG.      YES         :Data merged using LAS tools (www.logtechcan.com)
~Well Information Section
#MNEM.UNIT               VALUE/NAME                 DESCRIPTION
#----.----     ----------------------------------   --------------------
 STRT.m           1950.0000                         :Start Depth
 STOP.m           2686.0000                         :Stop  Depth
 STEP.m              0.1000                         :Step  Depth
 NULL.            -999.2500                         :Null value
 COMP.         PetroCanada                          :Company Name
 WELL.         P11-A-02A                            :Well Name
 PATH.         P11-A-02A                            :Path Name
 FLD .         De Ruyter                            :Field Name
 LOC .         De Ruyter                            :Location
 PROV.         Unused                               :Province
 SRVC.         BAKER HUGHES INTEQ                   :Service Company Name
DATE.DD/MM/YYYY21/05/2007                           :Date
 UWI .                                              :Unique Well ID
 ZONE.Hrs      2                                    :Time zone difference from GMT
 ZONE.Hrs      1                                    :Time zone difference from GMT
~Curve Information Section
#MNEM     .UNIT         CURVE DESCRIPTION
#----     .----         -------------------------
 DEPTH    .m            :1 Depth Hole
 APRESM   .psi          :2 Annular Pressure **MERGED**
 GRAFM    .API          :3 Gamma Ray App [RWD]
 RACELM   .ohm.m        :4 Resistivity Attenuation - Corrected - CRIM - 400kHz
 RPCELM   .ohm.m        :5 Resistivity Phase - Corrected - CRIM - 400kHz
 RACEHM   .ohm.m        :6 Resistivity Attenuation - Corrected - CRIM - 2MHz
 RPCEHM   .ohm.m        :7 Resistivity Phase - Corrected - CRIM - 2MHz
 RACESLM  .ohm.m        :8 Resistivity Attenuation Short Spaced - Corrected - CRIM - 400kHz
 RPCESLM  .ohm.m        :9 Resistivity Phase Short Spaced - Corrected - CRIM - 400kHz
 RACESHM  .ohm.m        :10 Resistivity Attenuation Short Spaced - Corrected - CRIM - 2MHz
 RPCESHM  .ohm.m        :11 Resistivity Phase Short Spaced - Corrected - CRIM - 2MHz
 RPTHM    .min          :12 Resistivity Time Since Drilled
 NPCKLFM  .pu           :13 Neutron Porosity (ls) [RWD] caliper & salinity corrected
 DPEFM    .unitless     :14 Phototelectric Cross Sect [RWD]
 BDCFM    .g/cc         :15 Bulk Density Compensated [RWD]
 DRHFM    .g/cc         :16 Delta RHO - Density Correction [RWD]
 TVD      .m            :17 True Vertical Depth
 BLOCKCOMP.m            :18 Block/Topdrive Position Compensated
 INNM     .deg          :19 Inclination - Non-Rotating **MERGED**
 ROP_AVG  .m/hr         :20 Rate of Penetration
 WOB_AVG  .klbf         :21 Weight on Bit
 TCDM     .degC         :22 Downhole Temperature **MERGED**
 ABDCUM   .g/cc         :23 Azimuthal Bulk Density - Compensated - Up
 ABDCLM   .g/cc         :24 Azimuthal Bulk Density - Compensated - Left
 ABDCRM   .g/cc         :25 Azimuthal Bulk Density - Compensated - Right
 ABDCDM   .g/cc         :26 Azimuthal Bulk Density - Compensated - Down
 ABDC1M   .g/cc         :27 Azimuthal Bulk Density - Compensated - Sector 1
 ABDC2M   .g/cc         :28 Azimuthal Bulk Density - Compensated - Sector 2
 ABDC3M   .g/cc         :29 Azimuthal Bulk Density - Compensated - Sector 3
 ABDC4M   .g/cc         :30 Azimuthal Bulk Density - Compensated - Sector 4
 ABDC5M   .g/cc         :31 Azimuthal Bulk Density - Compensated - Sector 5
 ABDC6M   .g/cc         :32 Azimuthal Bulk Density - Compensated - Sector 6
 ABDC7M   .g/cc         :33 Azimuthal Bulk Density - Compensated - Sector 7
 ABDC8M   .g/cc         :34 Azimuthal Bulk Density - Compensated - Sector 8
 ABDC9M   .g/cc         :35 Azimuthal Bulk Density - Compensated - Sector 9
 ABDC10M  .g/cc         :36 Azimuthal Bulk Density - Compensated - Sector 10
 ABDC11M  .g/cc         :37 Azimuthal Bulk Density - Compensated - Sector 11
 ABDC12M  .g/cc         :38 Azimuthal Bulk Density - Compensated - Sector 12
 ABDC13M  .g/cc         :39 Azimuthal Bulk Density - Compensated - Sector 13
 ABDC14M  .g/cc         :40 Azimuthal Bulk Density - Compensated - Sector 14
 ABDC15M  .g/cc         :41 Azimuthal Bulk Density - Compensated - Sector 15
 ABDC16M  .g/cc         :42 Azimuthal Bulk Density - Compensated - Sector 16
 ABDCM    .g/cc         :43 Azimuthal Bulk Density Compensated Image
 GRAS0M   .API          :44 Azimuthal Gamma Ray - Apparent - Sector 0
 GRAS1M   .API          :45 Azimuthal Gamma Ray - Apparent - Sector 1
 GRAS2M   .API          :46 Azimuthal Gamma Ray - Apparent - Sector 2
 GRAS3M   .API          :47 Azimuthal Gamma Ray - Apparent - Sector 3
 GRAS4M   .API          :48 Azimuthal Gamma Ray - Apparent - Sector 4
 GRAS5M   .API          :49 Azimuthal Gamma Ray - Apparent - Sector 5
 GRAS6M   .API          :50 Azimuthal Gamma Ray - Apparent - Sector 6
 GRAS7M   .API          :51 Azimuthal Gamma Ray - Apparent - Sector 7
 GRASM    .API          :52 Gamma Ray Apparent Sector Image
~Parameter Information Section
#MNEM.UNIT                  VALUE                   DESCRIPTION
#----.----     ----------------------------------   --------------------
~Other Information Section
Disclaimer
Baker Hughes INTEQ does not guarantee the accuracy  or correctness
of  interpretations  provided  in  or  from this  data. Since  all
interpretations  are  opinions based on measurements, Baker Hughes
INTEQ  shall  under no  circumstances   be  held  responsible  for
consequential damages or any other loss, costs, damages or expenses
incurred  or  sustained  in  connection  with  the use of any such
interpretations. Baker  Hughes INTEQ  disclaims  all expressed and
implied  warranties  related to  its  service which is governed by
Baker Hughes INTEQ's standard terms and conditions.
#----------------------------------------------------------------------
 

~A  DEPTH   APRESM    GRAFM     RACELM    RPCELM    RACEHM    RPCEHM     RACESLM   RPCESLM    RACESHM   RPCESHM    RPTHM     NPCKLFM   DPEFM     BDCFM     DRHFM       TVD   BLOCKCOMP   INNM     ROP_AVG   WOB_AVG    TCDM     ABDCUM    ABDCLM    ABDCRM    ABDCDM    ABDC1M    ABDC2M    ABDC3M    ABDC4M    ABDC5M    ABDC6M    ABDC7M    ABDC8M    ABDC9M    ABDC10M   ABDC11M   ABDC12M   ABDC13M   ABDC14M   ABDC15M   ABDC16M   ABDCM     GRAS0M    GRAS1M    GRAS2M    GRAS3M    GRAS4M    GRAS5M    GRAS6M    GRAS7M    GRASM   
# ...
 2588.4000 3577.0000   43.1024   15.9991   15.4171   12.3871    21.0589    9.2551    15.3904   11.5093    20.0035   56.9000   26.6763    2.6324    2.1389    0.0387 1604.9700    3.8100   89.7500   16.7200   25.2000   85.4000    2.1246    2.1463    2.1606    2.1614    2.1326    2.1780    2.1573    2.1506    2.1449    2.1912    2.1256    2.1304    2.2180    2.1821    2.1895    2.1402    2.1240    2.1381    2.1022    2.0897    2.0222   41.1315   49.2581   46.4128   34.2957   35.1603   44.6428   49.7951   36.9773   56.1746
 2588.5000 3575.0000   43.0753  742.2041   15.1084   10.6354    20.0479    6.7474    14.9317   11.6485    18.6069   57.0000   26.8634    2.6167    2.1365    0.0378 1604.9700    3.7600   89.7500   16.6900   24.9000   85.4000    2.1145    2.1441    2.1156    2.1553    2.1229    2.1377    2.1173    2.1241    2.1102    2.1151    2.1603    2.1364    2.1434    2.1829    2.2218    2.1361    2.1307    2.0983    2.0895    2.1112    2.0246   65.2067   44.6268   38.3402   38.5141   32.2695   42.6074   46.0283   50.8702   58.9521
 2588.6000 3573.0000   43.3973    6.6115   15.1680   11.3019    20.1843  820.6122    15.1219    9.7791    18.8452   57.1000   27.0458    2.5996    2.1344    0.0365 1604.9700    3.6600   89.7500   16.6700   24.4000   85.4000    2.1414    2.1447    2.1374    2.1335    2.1691    2.1587    2.1356    2.1362    2.1267    2.1556    2.1120    2.1139    2.1379    2.1749    2.1799    2.1669    2.1277    2.1113    2.1224    2.1162    2.0270   58.9369   37.6630   37.9150   41.3924   40.9190   47.2022   27.4107   44.5990   57.5706
 2588.7000 3579.0000   42.9597    7.6523   15.5123   12.1318    21.6107    4.1570    15.3362   17.0868    19.6286   56.9000   26.7632    2.5829    2.1328    0.0352 1604.9700    3.5400   89.7500   16.6500   23.7000   85.4000    2.1265    2.1579    2.1361    2.1568    2.1556    2.1450    2.1286    2.1546    2.1672    2.0993    2.1777    2.1290    2.1320    2.1936    2.1528    2.2085    2.1401    2.1385    2.1019    2.1065    2.0294   53.9383   43.7668   47.2132   38.6313   40.6078   32.8958   44.6659   32.2696   59.1718
 2588.8000 3570.0000   42.8197 1108.3484   15.8046   10.7576    22.0683    9.6101    16.1663   21.4025    20.4096   56.8000   26.8873    2.5786    2.1318    0.0349 1604.9700    3.4600   89.7500   16.6300   23.0000   85.4000    2.1158    2.1555    2.1038    2.1491    2.1347    2.1025    2.1137    2.1148    2.0998    2.0898    2.1362    2.1503    2.1572    2.1553    2.1762    2.1547    2.1689    2.1294    2.1267    2.1076    2.0318   49.3575   43.0584   40.5915   32.8931   34.3778   41.5075   37.2247   47.1948   93.8072
 2588.9000 3575.0000   43.0760    8.8248   15.8227    9.6499    22.5027    7.2826    16.0975   10.2779    21.2578   56.8000   26.6708    2.5949    2.1319    0.0360 1604.9800    3.3600   89.7500   16.6100   22.0000   85.4000    2.1109    2.1516    2.1231    2.1573    2.1117    2.0783    2.1272    2.1211    2.1330    2.1146    2.1442    2.1492    2.1648    2.1761    2.1722    2.1677    2.1680    2.1094    2.1130    2.1532    2.0285   46.2531   33.4449   31.3559   44.8490   47.0617   48.0830   46.4910   41.0256   97.1776
 2589.0000 3573.0000   43.6167    5.5395   15.8374   14.4994    22.3345 1636.0780    16.3668   11.6822    21.7836   56.6000   26.4949    2.6258    2.1327    0.0381 1604.9800    3.2500   89.7500   16.5800   21.0000   85.4000    2.1249    2.1564    2.1210    2.1419    2.1149    2.1616    2.1306    2.1102    2.1120    2.1332    2.1150    2.1589    2.1425    2.1565    2.1979    2.1609    2.1322    2.1447    2.1020    2.1230    2.0235   40.0674   35.4258   36.0852   38.6892   37.8378   49.1395   44.2563   60.0811   58.2197
 2589.1000 3578.0000   43.9057   12.4514   15.9376   12.3606    22.7017  820.9521    16.1864   11.8459    21.6400   56.6000   26.4427    2.6589    2.1336    0.0400 1604.9800    3.1600   89.7500   16.5600   21.9000   85.4000    2.1411    2.1689    2.1126    2.1489    2.1750    2.1367    2.1188    2.1423    2.0865    2.1084    2.1296    2.1378    2.1536    2.1778    2.1975    2.1751    2.1606    2.1454    2.1406    2.1156    2.0185   33.2406   38.2335   49.8408   42.1395   46.5421   41.7728   44.9875   43.5703   45.4729
 2589.2000 3583.0000   44.6575    9.9163   15.8541   11.0682    22.7781    8.9311    16.0975    9.4725    21.7538   56.5000   26.6571    2.6792    2.1338    0.0406 1604.9800    3.0600   89.7500   16.5400   22.9000   85.4000    2.1551    2.1667    2.1140    2.1453    2.1534    2.1461    2.1010    2.1115    2.1362    2.1118    2.1375    2.1395    2.1657    2.1440    2.2127    2.1888    2.1391    2.1336    2.1524    2.1719    2.0134   46.3441   30.7985   45.0233   45.4077   39.5387   44.8171   47.1217   62.8702   54.7404
 2589.3000 3579.0000   44.6522   26.5142   15.8210   11.5055    22.4093   21.6789    15.6454   11.0872    20.8114   56.5000   27.1708    2.6781    2.1327    0.0395 1604.9800    2.9700   89.7500   16.5200   23.7000   85.4000    2.1330    2.1792    2.1145    2.1180    2.1634    2.1053    2.1329    2.0987    2.1151    2.1128    2.0860    2.1178    2.1147    2.1588    2.2113    2.2006    2.1584    2.1560    2.1249    2.1444    2.0066   51.6323   34.4551   54.2224   53.2049   44.5167   39.4272   40.9060   47.0662   61.0897
 2589.4000 3586.0000   45.3098    8.2749   15.6737   10.8349    22.0346  561.3811    15.3904   10.9491    19.9950   56.6000   27.7447    2.6595    2.1311    0.0378 1604.9800    2.8600   89.7500   16.3100   23.5000   85.4000    2.1687    2.1650    2.1078    2.1417    2.1865    2.1544    2.1166    2.0834    2.1119    2.1209    2.1509    2.1433    2.1547    2.1257    2.1765    2.2096    2.1595    2.1210    2.1618    2.1842    2.0042   59.2366   44.1025   43.2055   43.0444   27.4223   31.5039   48.0410   56.3150   68.5981
 2589.5000 3571.0000   46.2441  763.0332   15.3867   10.7145    21.2984    9.2035    15.2032    9.8845    19.1223   56.7000   28.0794    2.6390    2.1307    0.0369 1604.9800    2.7600   89.8100   16.1400   23.3000   85.4000    2.1578    2.1544    2.1060    2.1372    2.1391    2.1201    2.1134    2.0864    2.1105    2.1170    2.1337    2.1381    2.1509    2.1322    2.1874    2.1528    2.1384    2.1480    2.1865    2.1975    2.0005   54.7773   42.8159   49.8511   35.8031   39.8678   32.2280   40.4580   46.2702   88.2600
 2589.6000 3577.0000   47.5009   41.6603   15.2914   11.4734    20.9400   14.5805    14.9799    8.4704    18.9571   56.7000   28.1118    2.6315    2.1317    0.0374 1604.9800    2.6900   89.7500   15.9700   23.2000   85.4000    2.1440    2.1664    2.0997    2.1224    2.1451    2.1051    2.0787    2.0973    2.1255    2.1008    2.1027    2.1399    2.1356    2.1177    2.1425    2.2018    2.1851    2.1454    2.1609    2.1776    1.9968   50.7925   52.6230   46.5098   33.3937   39.1877   34.7947   50.3099   53.8448   82.9696
 2589.7000 3572.0000   46.8474 1097.8584   15.3855   12.8502    21.1087    9.7704    15.0191   13.2450    18.7718   56.5000   28.0396    2.6366    2.1338    0.0388 1604.9800    2.5600   89.7500   15.7900   23.7000   85.4000    2.1556    2.1860    2.1281    2.1240    2.1397    2.1288    2.1394    2.1199    2.1418    2.1164    2.1180    2.1286    2.1379    2.1160    2.2048    2.1835    2.1817    2.1769    2.2043    2.1599    1.9930   35.2030   54.9559   45.3823   59.4018   28.2770   40.5435   51.0099   47.9215   76.8448
 2589.8000 3574.0000   45.1796   24.4088   15.4345   11.4248    21.3503    7.1770    15.0970    9.1692    19.3385   56.5000   28.0344    2.6424    2.1358    0.0401 1604.9800    2.4400   89.7500   15.6200   24.3000   85.4000    2.1358    2.1826    2.1300    2.1375    2.1191    2.1004    2.1480    2.1228    2.0989    2.1545    2.1507    2.1284    2.1373    2.1362    2.1508    2.1935    2.2252    2.1683    2.1881    2.1450    1.9893   49.9163   50.4362   36.2330   33.3146   46.0011   47.3818   48.2877   44.6819   69.3981
 2589.9000 3581.0000   46.8026 1100.1007   15.5124   13.2048    21.5160   10.5954    15.1958   14.7067    19.2050   56.5000   28.0977    2.6378    2.1373    0.0409 1604.9800    2.3600   89.7500   15.4500   23.8000   85.5000    2.1463    2.1615    2.1182    2.1237    2.1373    2.1462    2.1237    2.1235    2.1453    2.0905    2.1256    2.1237    2.1160    2.1367    2.1539    2.1614    2.1821    2.1592    2.1457    2.1589    1.9859   50.3527   57.5009   50.9189   42.6232   43.7778   49.1227   46.2669   62.8300   59.1934
