~Version Information Section
 VERS.      2.0         :CWLS LOG ASCII STANDARD -VERSION 2.0
 WRAP.      NO          :One line per depth step
 MERG.      YES         :Data merged using LAS tools (www.logtechcan.com)
~Well Information Section
#MNEM.UNIT               VALUE/NAME                 DESCRIPTION
#----.----     ----------------------------------   --------------------
 STRT.m           1950.0000                         :Start Depth
 STOP.m           2686.0000                         :Stop  Depth
 STEP.m              0.1000                         :Step  Depth
 NULL.            -999.2500                         :Null value
 COMP.         PetroCanada                          :Company Name
 WELL.         P11-A-02A                            :Well Name
 PATH.         P11-A-02A                            :Path Name
 FLD .         De Ruyter                            :Field Name
 LOC .         De Ruyter                            :Location
 PROV.         Unused                               :Province
 SRVC.         BAKER HUGHES INTEQ                   :Service Company Name
DATE.DD/MM/YYYY21/05/2007                           :Date
 UWI .                                              :Unique Well ID
 ZONE.Hrs      2                                    :Time zone difference from GMT
 ZONE.Hrs      1                                    :Time zone difference from GMT
~Curve Information Section
#MNEM     .UNIT         CURVE DESCRIPTION
#----     .----         -------------------------
 DEPTH    .m            :1 Depth Hole
 APRESM   .psi          :2 Annular Pressure **MERGED**
 GRAFM    .API          :3 Gamma Ray App [RWD]
 RACELM   .ohm.m        :4 Resistivity Attenuation - Corrected - CRIM - 400kHz
 RPCELM   .ohm.m        :5 Resistivity Phase - Corrected - CRIM - 400kHz
 RACEHM   .ohm.m        :6 Resistivity Attenuation - Corrected - CRIM - 2MHz
 RPCEHM   .ohm.m        :7 Resistivity Phase - Corrected - CRIM - 2MHz
 RACESLM  .ohm.m        :8 Resistivity Attenuation Short Spaced - Corrected - CRIM - 400kHz
 RPCESLM  .ohm.m        :9 Resistivity Phase Short Spaced - Corrected - CRIM - 400kHz
 RACESHM  .ohm.m        :10 Resistivity Attenuation Short Spaced - Corrected - CRIM - 2MHz
 RPCESHM  .ohm.m        :11 Resistivity Phase Short Spaced - Corrected - CRIM - 2MHz
 RPTHM    .min          :12 Resistivity Time Since Drilled
 NPCKLFM  .pu           :13 Neutron Porosity (ls) [RWD] caliper & salinity corrected
 DPEFM    .unitless     :14 Phototelectric Cross Sect [RWD]
 BDCFM    .g/cc         :15 Bulk Density Compensated [RWD]
 DRHFM    .g/cc         :16 Delta RHO - Density Correction [RWD]
 TVD      .m            :17 True Vertical Depth
 BLOCKCOMP.m            :18 Block/Topdrive Position Compensated
 INNM     .deg          :19 Inclination - Non-Rotating **MERGED**
 ROP_AVG  .m/hr         :20 Rate of Penetration
 WOB_AVG  .klbf         :21 Weight on Bit
 TCDM     .degC         :22 Downhole Temperature **MERGED**
 ABDCUM   .g/cc         :23 Azimuthal Bulk Density - Compensated - Up
 ABDCLM   .g/cc         :24 Azimuthal Bulk Density - Compensated - Left
 ABDCRM   .g/cc         :25 Azimuthal Bulk Density - Compensated - Right
 ABDCDM   .g/cc         :26 Azimuthal Bulk Density - Compensated - Down
 ABDC1M   .g/cc         :27 Azimuthal Bulk Density - Compensated - Sector 1
 ABDC2M   .g/cc         :28 Azimuthal Bulk Density - Compensated - Sector 2
 ABDC3M   .g/cc         :29 Azimuthal Bulk Density - Compensated - Sector 3
 ABDC4M   .g/cc         :30 Azimuthal Bulk Density - Compensated - Sector 4
 ABDC5M   .g/cc         :31 Azimuthal Bulk Density - Compensated - Sector 5
 ABDC6M   .g/cc         :32 Azimuthal Bulk Density - Compensated - Sector 6
 ABDC7M   .g/cc         :33 Azimuthal Bulk Density - Compensated - Sector 7
 ABDC8M   .g/cc         :34 Azimuthal Bulk Density - Compensated - Sector 8
 ABDC9M   .g/cc         :35 Azimuthal Bulk Density - Compensated - Sector 9
 ABDC10M  .g/cc         :36 Azimuthal Bulk Density - Compensated - Sector 10
 ABDC11M  .g/cc         :37 Azimuthal Bulk Density - Compensated - Sector 11
 ABDC12M  .g/cc         :38 Azimuthal Bulk Density - Compensated - Sector 12
 ABDC13M  .g/cc         :39 Azimuthal Bulk Density - Compensated - Sector 13
 ABDC14M  .g/cc         :40 Azimuthal Bulk Density - Compensated - Sector 14
 ABDC15M  .g/cc         :41 Azimuthal Bulk Density - Compensated - Sector 15
 ABDC16M  .g/cc         :42 Azimuthal Bulk Density - Compensated - Sector 16
 ABDCM    .g/cc         :43 Azimuthal Bulk Density Compensated Image
 GRAS0M   .API          :44 Azimuthal Gamma Ray - Apparent - Sector 0
 GRAS1M   .API          :45 Azimuthal Gamma Ray - Apparent - Sector 1
 GRAS2M   .API          :46 Azimuthal Gamma Ray - Apparent - Sector 2
 GRAS3M   .API          :47 Azimuthal Gamma Ray - Apparent - Sector 3
 GRAS4M   .API          :48 Azimuthal Gamma Ray - Apparent - Sector 4
 GRAS5M   .API          :49 Azimuthal Gamma Ray - Apparent - Sector 5
 GRAS6M   .API          :50 Azimuthal Gamma Ray - Apparent - Sector 6
 GRAS7M   .API          :51 Azimuthal Gamma Ray - Apparent - Sector 7
 GRASM    .API          :52 Gamma Ray Apparent Sector Image
~Parameter Information Section
#MNEM.UNIT                  VALUE                   DESCRIPTION
#----.----     ----------------------------------   --------------------
~Other Information Section
Disclaimer
Baker Hughes INTEQ does not guarantee the accuracy  or correctness
of  interpretations  provided  in  or  from this  data. Since  all
interpretations  are  opinions based on measurements, Baker Hughes
INTEQ  shall  under no  circumstances   be  held  responsible  for
consequential damages or any other loss, costs, damages or expenses
incurred  or  sustained  in  connection  with  the use of any such
interpretations. Baker  Hughes INTEQ  disclaims  all expressed and
implied  warranties  related to  its  service which is governed by
Baker Hughes INTEQ's standard terms and conditions.
#----------------------------------------------------------------------
 

~A  DEPTH   APRESM    GRAFM     RACELM    RPCELM    RACEHM    RPCEHM     RACESLM   RPCESLM    RACESHM   RPCESHM    RPTHM     NPCKLFM   DPEFM     BDCFM     DRHFM       TVD   BLOCKCOMP   INNM     ROP_AVG   WOB_AVG    TCDM     ABDCUM    ABDCLM    ABDCRM    ABDCDM    ABDC1M    ABDC2M    ABDC3M    ABDC4M    ABDC5M    ABDC6M    ABDC7M    ABDC8M    ABDC9M    ABDC10M   ABDC11M   ABDC12M   ABDC13M   ABDC14M   ABDC15M   ABDC16M   ABDCM     GRAS0M    GRAS1M    GRAS2M    GRAS3M    GRAS4M    GRAS5M    GRAS6M    GRAS7M    GRASM   
# ...
 2495.6000 3528.0000   87.6272    7.8701    7.1839    6.4338     7.6380    7.3020     5.8823    5.7999     5.7494   57.9000   19.8079    3.4038    2.4138    0.0742 1604.4800    6.2600   89.7500   11.7900   13.4000   84.2000    2.2884    2.1794    2.5294    2.4752    2.3132    2.4775    2.5375    2.5092    2.5453    2.5317    2.4977    2.5147    2.5160    2.3985    2.2015    2.1967    2.1723    2.1638    2.1923    2.2362    2.2092   71.2846   79.1735  104.6621  121.1264  120.8239   97.7856   72.1179   46.2070   50.7127
 2495.7000 3531.0000   89.6159    7.8254    7.2442    6.4071     7.8737    6.7662     5.9639    5.7485     5.9034   57.6000   20.1973    3.3890    2.4153    0.0730 1604.4800    6.1900   89.7500   11.6900   14.9000   84.2000    2.3033    2.1706    2.5320    2.4945    2.3610    2.4959    2.5167    2.5477    2.5221    2.5511    2.5270    2.5265    2.5564    2.3970    2.2562    2.1653    2.1733    2.1190    2.2109    2.2248    2.2103   73.4332   85.1178   97.4831  118.2587  118.4548  101.2062   71.6903   48.1208   50.8681
 2495.8000 3543.0000   91.6589    7.7145    7.3717    6.3797     8.1018    6.9164     6.0628    5.7582     6.0165   57.3000   19.9337    3.3630    2.4124    0.0703 1604.4900    6.0800   89.7500   11.5900   17.3000   84.2000    2.3071    2.2045    2.5012    2.5109    2.3328    2.4820    2.4907    2.4863    2.4853    2.5491    2.5057    2.5357    2.5517    2.4698    2.2775    2.2244    2.1782    2.1543    2.2468    2.2365    2.2115   77.9198   80.4014  101.3715  138.0886  121.2109  106.4533   78.9562   49.4151   32.8041
 2495.9000 3529.0000   90.0937    7.8002    7.4031    6.3121     8.2065    6.8895     6.0938    5.7329     6.0501   57.2000   19.9039    3.3326    2.4061    0.0676 1604.4900    5.9900   89.7500   11.4900   15.4000   84.2000    2.2378    2.2153    2.5124    2.5105    2.2720    2.4499    2.5087    2.5116    2.5479    2.4957    2.4764    2.5506    2.5946    2.4570    2.3389    2.2074    2.1948    2.1464    2.1418    2.1821    2.2130   65.8626   79.8305   94.8835  124.1495  121.3579  102.7102   72.8494   48.6459   43.8787
 2496.0000 3531.0000   89.2972    7.7360    7.3986    6.2206     8.2454    6.9539     6.0512    5.6560     6.0376   57.0000   19.9031    3.3107    2.4009    0.0661 1604.4900    5.9000   89.7500   11.3900   13.4000   84.2000    2.2152    2.2352    2.4899    2.4976    2.2423    2.3991    2.4816    2.4842    2.4929    2.5051    2.4904    2.5353    2.5329    2.4744    2.3226    2.2702    2.2326    2.1363    2.1245    2.1817    2.2098   47.6793   78.9694   85.0992  103.1281  121.5796   97.0652   63.6399   47.4858   60.5802
 2496.1000 3530.0000   90.9098    7.5774    7.3628    6.2648     8.1262    6.9211     6.0320    5.6760     5.9754   56.8000   19.3844    3.3051    2.3995    0.0660 1604.4900    5.7900   89.7500   11.2900   13.9000   84.3000    2.2189    2.2264    2.4920    2.5225    2.2277    2.4151    2.4961    2.5203    2.4583    2.5098    2.5154    2.5686    2.5610    2.4841    2.3194    2.2254    2.2061    2.1698    2.1502    2.1591    2.2066   57.0736   91.4593  121.6179  122.3726  115.2975   89.1569   65.3624   71.7287   55.6186
 2496.2000 3541.0000   91.0563    7.7602    7.3673    6.2836     8.0733    7.1103     6.0320    5.7748     5.9582   56.5000   19.2864    3.3102    2.4018    0.0660 1604.4900    5.7200   89.7500   11.1900   14.2000   84.3000    2.2657    2.2011    2.5342    2.4744    2.2931    2.4856    2.5305    2.5129    2.5773    2.5240    2.5028    2.5020    2.4802    2.4534    2.2983    2.2519    2.1291    2.1533    2.1828    2.2055    2.2034   58.3149   84.2039  115.0673  121.7422  113.8455   95.7548   69.5439   55.7631   40.1337
 2496.3000 3536.0000   91.1103    7.7305    7.3628    6.3387     8.0303    6.4164     6.0167    5.7703     5.9337   56.4000   19.3424    3.3115    2.4049    0.0654 1604.4900    5.5900   89.7500   11.0700   14.3000   84.3000    2.2564    2.1707    2.5265    2.4855    2.2971    2.4926    2.4581    2.5325    2.5757    2.5551    2.5592    2.5297    2.5039    2.3954    2.2288    2.2016    2.1392    2.1283    2.1709    2.1633    2.2001   63.8770   80.9225  105.4858  109.2956  111.3815   93.2233   72.4121   51.7447   43.7459
 2496.4000 3542.0000   91.8425    7.8250    7.3762    6.3152     8.0565    7.0517     6.0015    5.7680     5.9071   56.3000   19.5274    3.3092    2.4069    0.0651 1604.4900    5.5200   89.8100   11.1400   14.4000   84.3000    2.2864    2.1534    2.5090    2.4572    2.3350    2.5249    2.5201    2.5022    2.5041    2.5169    2.4992    2.4912    2.5190    2.3537    2.2134    2.1520    2.1217    2.1418    2.1474    2.2438    2.1969   69.5268   77.5894   95.7534   96.6529  108.8786   90.6519   75.3255   47.6630   47.4149
 2496.5000 3533.0000   90.9736    7.6472    7.3964    6.2762     8.1328    7.3258     6.0320    5.7448     5.9761   56.4000   19.4888    3.3265    2.4081    0.0664 1604.4900    5.3600   89.8800   11.2100   14.5000   84.3000    2.2632    2.1522    2.5102    2.4784    2.3019    2.4532    2.5586    2.4578    2.5180    2.5208    2.4983    2.5310    2.5916    2.3483    2.2564    2.1522    2.1323    2.0970    2.1635    2.2101    2.2133   60.4496   77.8923  126.7620  140.9687  114.0645   95.7596   75.2851   48.0530   34.6986
 2496.6000 3536.0000   90.5122    7.6599    7.3717    6.4247     8.0658    6.9544     6.0206    5.7052     5.9767   56.4000   19.5794    3.3670    2.4077    0.0686 1604.4900    5.2900   89.7500   11.2800   15.0000   84.3000    2.2765    2.1995    2.5207    2.5006    2.3204    2.4718    2.5334    2.5371    2.5081    2.5159    2.5285    2.5537    2.5323    2.4171    2.2983    2.1841    2.2165    2.1310    2.1729    2.2137    2.2297   58.8973   83.4144  102.5852  119.5972  112.6282  101.5571   75.0276   52.2298   49.9379
 2496.7000 3536.0000   91.2240    7.8804    7.3173    6.2860     7.9533    6.9835     5.9155    5.7215     5.8320   56.2000   19.7203    3.4026    2.4047    0.0697 1604.4900    5.1600   89.7500   11.3500   16.0000   84.3000    2.2329    2.2335    2.5019    2.5054    2.2785    2.3939    2.4663    2.4927    2.5142    2.5448    2.5454    2.5284    2.5307    2.4386    2.3444    2.2451    2.1996    2.1726    2.1311    2.1944    2.2460   62.7585   83.0923   84.7594  115.5030  130.5306  106.3104   66.2518   64.3880   40.4985
 2496.8000 3535.0000   91.6063    7.5812    7.2790    6.1938     8.0137    6.7294     5.8640    5.5487     5.7324   56.2000   19.7966    3.4045    2.4004    0.0688 1604.4900    5.0900   89.7500   11.4300   15.8000   84.3000    2.2463    2.2253    2.5167    2.5179    2.2729    2.4412    2.4595    2.5288    2.5354    2.5536    2.4956    2.5300    2.5484    2.5153    2.3151    2.2358    2.2045    2.1752    2.1653    2.1858    2.2624   66.5612   76.3188   98.0658  143.6980  116.2930  101.5061   77.4730   62.5068   43.8920
 2496.9000 3538.0000   92.4245    7.5552    7.2485    6.1010     8.1318    6.7468     5.8422    5.4759     5.8137   56.3000   19.9593    3.3762    2.3978    0.0668 1604.4900    4.9400   89.7500   11.5000   15.6000   84.3000    2.2191    2.2360    2.5186    2.5208    2.2622    2.4046    2.4672    2.5078    2.5523    2.5577    2.5348    2.5233    2.5191    2.5254    2.3351    2.2578    2.1947    2.1795    2.1302    2.1463    2.2552   61.4001   83.9845   97.3630  129.0178  110.9842  121.2081   71.8819   57.0494   49.2093
 2497.0000 3541.0000   93.3292    7.5427    7.1882    6.0286     8.0794    6.7440     5.8171    5.4124     5.7517   56.1000   19.8267    3.3500    2.3983    0.0652 1604.4900    4.8900   89.7500   11.5700   15.9000   84.3000    2.2148    2.2023    2.4894    2.4781    2.2596    2.3990    2.5243    2.4949    2.4920    2.4579    2.5068    2.5540    2.4673    2.4122    2.2804    2.1962    2.1815    2.1716    2.1233    2.1440    2.2480   67.6375   90.6492  103.3190  124.1378  113.9324  113.8933   74.8649   61.4528   48.2672
 2497.1000 3524.0000   96.0828    7.4956    7.1202    6.0066     7.8699    6.5262     5.7392    5.3877     5.6622   55.9000   19.4814    3.3455    2.4005    0.0651 1604.4900    4.7900   89.7500   11.6500   16.5000   84.3000    2.3161    2.1982    2.5034    2.4803    2.3494    2.4782    2.5124    2.5376    2.4739    2.4966    2.5122    2.5113    2.5133    2.4077    2.2602    2.2222    2.1860    2.1478    2.2165    2.2936    2.2408   74.7048   98.2008  110.0675  118.6084  117.2727  105.6052   78.2448   66.4421   47.1998
