~Version Information Section
 VERS.      2.0         :CWLS LOG ASCII STANDARD -VERSION 2.0
 WRAP.      NO          :One line per depth step
 MERG.      YES         :Data merged using LAS tools (www.logtechcan.com)
~Well Information Section
#MNEM.UNIT               VALUE/NAME                 DESCRIPTION
#----.----     ----------------------------------   --------------------
 STRT.m           1950.0000                         :Start Depth
 STOP.m           2686.0000                         :Stop  Depth
 STEP.m              0.1000                         :Step  Depth
 NULL.            -999.2500                         :Null value
 COMP.         PetroCanada                          :Company Name
 WELL.         P11-A-02A                            :Well Name
 PATH.         P11-A-02A                            :Path Name
 FLD .         De Ruyter                            :Field Name
 LOC .         De Ruyter                            :Location
 PROV.         Unused                               :Province
 SRVC.         BAKER HUGHES INTEQ                   :Service Company Name
DATE.DD/MM/YYYY21/05/2007                           :Date
 UWI .                                              :Unique Well ID
 ZONE.Hrs      2                                    :Time zone difference from GMT
 ZONE.Hrs      1                                    :Time zone difference from GMT
~Curve Information Section
#MNEM     .UNIT         CURVE DESCRIPTION
#----     .----         -------------------------
 DEPTH    .m            :1 Depth Hole
 APRESM   .psi          :2 Annular Pressure **MERGED**
 GRAFM    .API          :3 Gamma Ray App [RWD]
 RACELM   .ohm.m        :4 Resistivity Attenuation - Corrected - CRIM - 400kHz
 RPCELM   .ohm.m        :5 Resistivity Phase - Corrected - CRIM - 400kHz
 RACEHM   .ohm.m        :6 Resistivity Attenuation - Corrected - CRIM - 2MHz
 RPCEHM   .ohm.m        :7 Resistivity Phase - Corrected - CRIM - 2MHz
 RACESLM  .ohm.m        :8 Resistivity Attenuation Short Spaced - Corrected - CRIM - 400kHz
 RPCESLM  .ohm.m        :9 Resistivity Phase Short Spaced - Corrected - CRIM - 400kHz
 RACESHM  .ohm.m        :10 Resistivity Attenuation Short Spaced - Corrected - CRIM - 2MHz
 RPCESHM  .ohm.m        :11 Resistivity Phase Short Spaced - Corrected - CRIM - 2MHz
 RPTHM    .min          :12 Resistivity Time Since Drilled
 NPCKLFM  .pu           :13 Neutron Porosity (ls) [RWD] caliper & salinity corrected
 DPEFM    .unitless     :14 Phototelectric Cross Sect [RWD]
 BDCFM    .g/cc         :15 Bulk Density Compensated [RWD]
 DRHFM    .g/cc         :16 Delta RHO - Density Correction [RWD]
 TVD      .m            :17 True Vertical Depth
 BLOCKCOMP.m            :18 Block/Topdrive Position Compensated
 INNM     .deg          :19 Inclination - Non-Rotating **MERGED**
 ROP_AVG  .m/hr         :20 Rate of Penetration
 WOB_AVG  .klbf         :21 Weight on Bit
 TCDM     .degC         :22 Downhole Temperature **MERGED**
 ABDCUM   .g/cc         :23 Azimuthal Bulk Density - Compensated - Up
 ABDCLM   .g/cc         :24 Azimuthal Bulk Density - Compensated - Left
 ABDCRM   .g/cc         :25 Azimuthal Bulk Density - Compensated - Right
 ABDCDM   .g/cc         :26 Azimuthal Bulk Density - Compensated - Down
 ABDC1M   .g/cc         :27 Azimuthal Bulk Density - Compensated - Sector 1
 ABDC2M   .g/cc         :28 Azimuthal Bulk Density - Compensated - Sector 2
 ABDC3M   .g/cc         :29 Azimuthal Bulk Density - Compensated - Sector 3
 ABDC4M   .g/cc         :30 Azimuthal Bulk Density - Compensated - Sector 4
 ABDC5M   .g/cc         :31 Azimuthal Bulk Density - Compensated - Sector 5
 ABDC6M   .g/cc         :32 Azimuthal Bulk Density - Compensated - Sector 6
 ABDC7M   .g/cc         :33 Azimuthal Bulk Density - Compensated - Sector 7
 ABDC8M   .g/cc         :34 Azimuthal Bulk Density - Compensated - Sector 8
 ABDC9M   .g/cc         :35 Azimuthal Bulk Density - Compensated - Sector 9
 ABDC10M  .g/cc         :36 Azimuthal Bulk Density - Compensated - Sector 10
 ABDC11M  .g/cc         :37 Azimuthal Bulk Density - Compensated - Sector 11
 ABDC12M  .g/cc         :38 Azimuthal Bulk Density - Compensated - Sector 12
 ABDC13M  .g/cc         :39 Azimuthal Bulk Density - Compensated - Sector 13
 ABDC14M  .g/cc         :40 Azimuthal Bulk Density - Compensated - Sector 14
 ABDC15M  .g/cc         :41 Azimuthal Bulk Density - Compensated - Sector 15
 ABDC16M  .g/cc         :42 Azimuthal Bulk Density - Compensated - Sector 16
 ABDCM    .g/cc         :43 Azimuthal Bulk Density Compensated Image
 GRAS0M   .API          :44 Azimuthal Gamma Ray - Apparent - Sector 0
 GRAS1M   .API          :45 Azimuthal Gamma Ray - Apparent - Sector 1
 GRAS2M   .API          :46 Azimuthal Gamma Ray - Apparent - Sector 2
 GRAS3M   .API          :47 Azimuthal Gamma Ray - Apparent - Sector 3
 GRAS4M   .API          :48 Azimuthal Gamma Ray - Apparent - Sector 4
 GRAS5M   .API          :49 Azimuthal Gamma Ray - Apparent - Sector 5
 GRAS6M   .API          :50 Azimuthal Gamma Ray - Apparent - Sector 6
 GRAS7M   .API          :51 Azimuthal Gamma Ray - Apparent - Sector 7
 GRASM    .API          :52 Gamma Ray Apparent Sector Image
~Parameter Information Section
#MNEM.UNIT                  VALUE                   DESCRIPTION
#----.----     ----------------------------------   --------------------
~Other Information Section
Disclaimer
Baker Hughes INTEQ does not guarantee the accuracy  or correctness
of  interpretations  provided  in  or  from this  data. Since  all
interpretations  are  opinions based on measurements, Baker Hughes
INTEQ  shall  under no  circumstances   be  held  responsible  for
consequential damages or any other loss, costs, damages or expenses
incurred  or  sustained  in  connection  with  the use of any such
interpretations. Baker  Hughes INTEQ  disclaims  all expressed and
implied  warranties  related to  its  service which is governed by
Baker Hughes INTEQ's standard terms and conditions.
#----------------------------------------------------------------------
 

~A  DEPTH   APRESM    GRAFM     RACELM    RPCELM    RACEHM    RPCEHM     RACESLM   RPCESLM    RACESHM   RPCESHM    RPTHM     NPCKLFM   DPEFM     BDCFM     DRHFM       TVD   BLOCKCOMP   INNM     ROP_AVG   WOB_AVG    TCDM     ABDCUM    ABDCLM    ABDCRM    ABDCDM    ABDC1M    ABDC2M    ABDC3M    ABDC4M    ABDC5M    ABDC6M    ABDC7M    ABDC8M    ABDC9M    ABDC10M   ABDC11M   ABDC12M   ABDC13M   ABDC14M   ABDC15M   ABDC16M   ABDCM     GRAS0M    GRAS1M    GRAS2M    GRAS3M    GRAS4M    GRAS5M    GRAS6M    GRAS7M    GRASM   
# ...
 2076.4000 3095.0000   79.1535    5.4374    6.0232    5.7564     6.4652    5.2389     5.3050    5.3773     5.3249   17.1000   20.8267    3.2249    2.4260    0.0667 1601.2600   12.2200   88.3800   26.0400   19.4000   65.8000    2.4080    2.4111    2.3787    2.4742    2.4200    2.4279    2.3856    2.3870    2.3970    2.3507    2.5185    2.4811    2.4344    2.4765    2.4363    2.4730    2.4106    2.3343    2.4174    2.3886    2.3247   78.6588   79.9305   82.7355   71.9132   94.2763   79.7290   67.6609   70.3482   67.6703
 2076.5000 3118.0000   81.3024    5.4499    6.1010    5.8029     6.5607    5.2657     5.3664    5.4387     5.4296   17.0000   20.9548    3.2670    2.4268    0.0665 1601.2700   12.1200   88.4100   25.8300   19.1000   65.8000    2.3856    2.4187    2.4219    2.4672    2.4734    2.4153    2.4774    2.3992    2.4317    2.3845    2.4410    2.4711    2.4704    2.4950    2.4289    2.4598    2.4443    2.3518    2.3097    2.3818    2.3255   78.9746   74.1130   78.8627   82.7618   91.2743   71.7130   60.5775   77.9632   63.9919
 2076.6000 3098.0000   83.1064    5.4627    6.1805    5.8588     6.6890    5.2363     5.4866    5.5073     5.5179   17.0000   21.2157    3.2855    2.4282    0.0653 1601.2700   12.0200   88.4600   25.6100   18.7000   65.8000    2.4287    2.4296    2.4242    2.4534    2.5252    2.4626    2.4105    2.4093    2.4492    2.4333    2.4186    2.4351    2.4605    2.5243    2.4826    2.4228    2.4665    2.3578    2.3487    2.4056    2.3263   83.7606   77.9132   89.1131   85.1715   84.8439   89.2304   92.6687   73.5150   69.1291
 2076.7000 3101.0000   83.2573    5.4702    6.2108    5.9066     6.7393    5.3142     5.5190    5.5252     5.5584   16.9000   21.5167    3.2705    2.4295    0.0628 1601.2700   11.9100   88.5000   25.3900   18.3000   65.8000    2.4738    2.3595    2.4238    2.4889    2.4939    2.5327    2.4441    2.4457    2.3753    2.4337    2.3878    2.4826    2.5383    2.5720    2.3795    2.4022    2.3054    2.3574    2.3996    2.4790    2.3271   78.4273   88.0766   92.9955   79.6247   86.6058   97.7652   79.5037   74.8037   58.9515
 2076.8000 3095.0000   84.2611    5.4836    6.2277    5.9855     6.7085    5.4012     5.5190    5.5655     5.5397   16.8000   21.5830    3.2330    2.4318    0.0604 1601.2700   11.8200   88.5000   25.1800   19.0000   65.8000    2.4139    2.3832    2.4498    2.4455    2.4588    2.4580    2.5103    2.3484    2.5204    2.4448    2.4396    2.4415    2.4636    2.4379    2.3831    2.3643    2.4036    2.3850    2.3762    2.3694    2.3279   61.7724   89.6084   77.5920   78.7393   85.2379   73.0285   92.6412   82.3294   48.2813
 2076.9000 3087.0000   85.3354    5.5076    6.2618    5.9992     6.7169    5.3300     5.5452    5.5850     5.5266   16.8000   21.2007    3.1945    2.4368    0.0605 1601.2800   11.7200   88.5000   24.9600   19.7000   65.9000    2.4325    2.3939    2.4448    2.4570    2.4699    2.4152    2.4720    2.4440    2.4169    2.4656    2.4458    2.4182    2.4461    2.5189    2.4265    2.4236    2.3651    2.3664    2.4062    2.4525    2.3292   86.9890   92.2944   80.9216   72.6028   87.0553   88.9693   79.3001   84.9463   66.9267
 2077.0000 3102.0000   85.1196    5.5642    6.2893    6.0180     6.7562    5.3253     5.5584    5.5732     5.5310   16.8000   20.5995    3.1763    2.4446    0.0641 1601.2800   11.6200   88.5000   24.7400   20.4000   65.9000    2.4479    2.4457    2.4174    2.4838    2.5593    2.4806    2.4707    2.4611    2.3973    2.3509    2.4830    2.4238    2.5166    2.5127    2.5332    2.4976    2.4086    2.3623    2.3496    2.4201    2.3294   87.1921   91.3429   75.1983   75.2023   92.3516   94.7870   83.3198   80.5676   64.1689
 2077.1000 3099.0000   86.2677    5.5517    6.3170    6.0050     6.7533    5.3455     5.5717    5.5601     5.5551   16.8000   20.2585    3.1818    2.4540    0.0700 1601.2800   11.5200   88.5000   24.5200   21.1000   65.9000    2.4345    2.4291    2.4221    2.4883    2.4756    2.4026    2.4038    2.4405    2.4713    2.3824    2.4508    2.4653    2.5213    2.5203    2.5279    2.4269    2.3759    2.3966    2.4396    2.4260    2.3297   87.3912   90.4100   69.5865   77.7512   97.5447  100.4913   87.2611   76.2742   61.4649
 2077.2000 3096.0000   89.0285    5.5653    6.3589    5.9891     6.8445    5.4607     5.5916    5.5718     5.5618   16.7000   20.4578    3.2036    2.4640    0.0777 1601.2900   11.4600   88.5000   24.2800   21.5000   65.9000    2.4386    2.5055    2.4174    2.4821    2.4090    2.5049    2.4123    2.4058    2.4625    2.3950    2.4374    2.4691    2.4293    2.6051    2.5929    2.5483    2.4649    2.4353    2.3870    2.4648    2.3301   79.0105   98.2340   73.7333   97.0155   93.2189   99.5387   87.4534   85.1223   60.4698
 2077.3000 3107.0000   89.2781    5.5845    6.4914    6.0235     7.0355    5.4368     5.6938    5.5756     5.7203   16.7000   21.0913    3.2337    2.4745    0.0882 1601.2900   11.3200   88.5000   24.5100   21.8000   65.9000    2.4662    2.5304    2.4523    2.5236    2.4805    2.4738    2.4001    2.4156    2.5175    2.4891    2.5278    2.4389    2.5063    2.6498    2.5677    2.5309    2.5321    2.4998    2.4495    2.4924    2.3305   74.3689  102.5672   76.0300  107.6848   90.8231   99.0111   87.5598   90.0227   59.9187
 2077.4000 3104.0000   91.3057    5.5150    6.5945    6.0524     7.2115    5.3692     5.7917    5.5966     5.8633   16.6000   21.4358    3.2714    2.4838    0.1013 1601.2900   11.2200   88.5000   24.7600   21.9000   65.9000    2.4500    2.4714    2.4934    2.4257    2.4568    2.4865    2.4939    2.5756    2.4185    2.5079    2.4486    2.3969    2.4144    2.4537    2.4752    2.5032    2.3785    2.5425    2.3615    2.5215    2.3308   85.1799   89.7748   92.8341  113.1650   92.3557   89.9040   82.7778   86.3485   42.5019
 2077.5000 3101.0000   93.9383    5.5579    6.6395    6.0878     7.2843    5.3649     5.8131    5.6310     5.9116   16.6000   21.5165    3.3144    2.4888    0.1139 1601.2900   11.1200   88.5600   25.0100   22.1000   65.9000    2.4453    2.4422    2.5158    2.5449    2.4266    2.4695    2.5624    2.4807    2.5356    2.4991    2.5340    2.5787    2.4793    2.5991    2.4447    2.5585    2.4003    2.3902    2.3949    2.5019    2.3312   88.6867   85.0973   87.4184  111.0817   94.3392   96.1644   82.1395   90.4314   52.4391
 2077.6000 3094.0000   94.0392    5.5454    6.6470    6.0961     7.3002    5.3076     5.8347    5.6059     5.9286   16.6000   20.1991    3.3511    2.4870    0.1207 1601.3000   11.0300   88.6300   25.2700   22.2000   65.9000    2.4210    2.4038    2.5951    2.5143    2.4040    2.4624    2.5808    2.5606    2.6171    2.6223    2.5504    2.5378    2.4977    2.4812    2.4692    2.3693    2.3754    2.4074    2.3456    2.4848    2.3316   94.0480   77.9461   79.1386  107.8968   97.3716  105.7355   81.1637   96.6736   67.6315
 2077.7000 3101.0000   95.3039    5.4924    6.6773    6.0945     7.3259    5.3508     5.8564    5.6140     5.9482   16.6000   19.6922    3.3683    2.4780    0.1180 1601.3000   10.9200   88.6900   25.5200   22.7000   65.9000    2.4434    2.4406    2.5260    2.5077    2.4487    2.4727    2.4995    2.5214    2.6217    2.4870    2.6222    2.4975    2.4896    2.4489    2.4070    2.4592    2.4527    2.4543    2.4061    2.4591    2.3320  104.7837   86.0568   82.7247  103.6002   89.6141  101.9573   91.5719   93.8192   71.2364
 2077.8000 3107.0000   96.2800    5.5549    6.7002    6.1112     7.4269    5.4487     5.8783    5.5832     5.9952   16.6000   20.0448    3.3519    2.4664    0.1056 1601.3000   10.8200   88.7500   25.7800   23.3000   65.9000    2.4177    2.4613    2.4283    2.4452    2.3651    2.3714    2.4411    2.5191    2.3538    2.4119    2.4416    2.4502    2.4410    2.4488    2.5116    2.4591    2.4239    2.4550    2.4711    2.4927    2.3323  117.4082   95.5946   86.9417   98.5477   80.4916   97.5143  103.8113   90.4627   75.4756
 2077.9000 3107.0000   95.3842    5.5167    6.7658    6.1554     7.5085    5.4043     5.9077    5.6431     6.0529   16.5000   20.4288    3.3035    2.4618    0.0915 1601.3000   10.7200   88.6200   26.0300   23.8000   66.0000    2.4378    2.4699    2.4409    2.4559    2.3787    2.4186    2.4295    2.5085    2.3941    2.4425    2.4431    2.4615    2.4558    2.4690    2.4994    2.4600    2.4784    2.4490    2.4580    2.5243    2.3327  114.5222   85.3835   92.2970  103.0571   83.3511   95.2107  102.8327  100.2517   74.3490
