~Version Information Section
 VERS.      2.0         :CWLS LOG ASCII STANDARD -VERSION 2.0
 WRAP.      NO          :One line per depth step
 MERG.      YES         :Data merged using LAS tools (www.logtechcan.com)
~Well Information Section
#MNEM.UNIT               VALUE/NAME                 DESCRIPTION
#----.----     ----------------------------------   --------------------
 STRT.m           1950.0000                         :Start Depth
 STOP.m           2686.0000                         :Stop  Depth
 STEP.m              0.1000                         :Step  Depth
 NULL.            -999.2500                         :Null value
 COMP.         PetroCanada                          :Company Name
 WELL.         P11-A-02A                            :Well Name
 PATH.         P11-A-02A                            :Path Name
 FLD .         De Ruyter                            :Field Name
 LOC .         De Ruyter                            :Location
 PROV.         Unused                               :Province
 SRVC.         BAKER HUGHES INTEQ                   :Service Company Name
DATE.DD/MM/YYYY21/05/2007                           :Date
 UWI .                                              :Unique Well ID
 ZONE.Hrs      2                                    :Time zone difference from GMT
 ZONE.Hrs      1                                    :Time zone difference from GMT
~Curve Information Section
#MNEM     .UNIT         CURVE DESCRIPTION
#----     .----         -------------------------
 DEPTH    .m            :1 Depth Hole
 APRESM   .psi          :2 Annular Pressure **MERGED**
 GRAFM    .API          :3 Gamma Ray App [RWD]
 RACELM   .ohm.m        :4 Resistivity Attenuation - Corrected - CRIM - 400kHz
 RPCELM   .ohm.m        :5 Resistivity Phase - Corrected - CRIM - 400kHz
 RACEHM   .ohm.m        :6 Resistivity Attenuation - Corrected - CRIM - 2MHz
 RPCEHM   .ohm.m        :7 Resistivity Phase - Corrected - CRIM - 2MHz
 RACESLM  .ohm.m        :8 Resistivity Attenuation Short Spaced - Corrected - CRIM - 400kHz
 RPCESLM  .ohm.m        :9 Resistivity Phase Short Spaced - Corrected - CRIM - 400kHz
 RACESHM  .ohm.m        :10 Resistivity Attenuation Short Spaced - Corrected - CRIM - 2MHz
 RPCESHM  .ohm.m        :11 Resistivity Phase Short Spaced - Corrected - CRIM - 2MHz
 RPTHM    .min          :12 Resistivity Time Since Drilled
 NPCKLFM  .pu           :13 Neutron Porosity (ls) [RWD] caliper & salinity corrected
 DPEFM    .unitless     :14 Phototelectric Cross Sect [RWD]
 BDCFM    .g/cc         :15 Bulk Density Compensated [RWD]
 DRHFM    .g/cc         :16 Delta RHO - Density Correction [RWD]
 TVD      .m            :17 True Vertical Depth
 BLOCKCOMP.m            :18 Block/Topdrive Position Compensated
 INNM     .deg          :19 Inclination - Non-Rotating **MERGED**
 ROP_AVG  .m/hr         :20 Rate of Penetration
 WOB_AVG  .klbf         :21 Weight on Bit
 TCDM     .degC         :22 Downhole Temperature **MERGED**
 ABDCUM   .g/cc         :23 Azimuthal Bulk Density - Compensated - Up
 ABDCLM   .g/cc         :24 Azimuthal Bulk Density - Compensated - Left
 ABDCRM   .g/cc         :25 Azimuthal Bulk Density - Compensated - Right
 ABDCDM   .g/cc         :26 Azimuthal Bulk Density - Compensated - Down
 ABDC1M   .g/cc         :27 Azimuthal Bulk Density - Compensated - Sector 1
 ABDC2M   .g/cc         :28 Azimuthal Bulk Density - Compensated - Sector 2
 ABDC3M   .g/cc         :29 Azimuthal Bulk Density - Compensated - Sector 3
 ABDC4M   .g/cc         :30 Azimuthal Bulk Density - Compensated - Sector 4
 ABDC5M   .g/cc         :31 Azimuthal Bulk Density - Compensated - Sector 5
 ABDC6M   .g/cc         :32 Azimuthal Bulk Density - Compensated - Sector 6
 ABDC7M   .g/cc         :33 Azimuthal Bulk Density - Compensated - Sector 7
 ABDC8M   .g/cc         :34 Azimuthal Bulk Density - Compensated - Sector 8
 ABDC9M   .g/cc         :35 Azimuthal Bulk Density - Compensated - Sector 9
 ABDC10M  .g/cc         :36 Azimuthal Bulk Density - Compensated - Sector 10
 ABDC11M  .g/cc         :37 Azimuthal Bulk Density - Compensated - Sector 11
 ABDC12M  .g/cc         :38 Azimuthal Bulk Density - Compensated - Sector 12
 ABDC13M  .g/cc         :39 Azimuthal Bulk Density - Compensated - Sector 13
 ABDC14M  .g/cc         :40 Azimuthal Bulk Density - Compensated - Sector 14
 ABDC15M  .g/cc         :41 Azimuthal Bulk Density - Compensated - Sector 15
 ABDC16M  .g/cc         :42 Azimuthal Bulk Density - Compensated - Sector 16
 ABDCM    .g/cc         :43 Azimuthal Bulk Density Compensated Image
 GRAS0M   .API          :44 Azimuthal Gamma Ray - Apparent - Sector 0
 GRAS1M   .API          :45 Azimuthal Gamma Ray - Apparent - Sector 1
 GRAS2M   .API          :46 Azimuthal Gamma Ray - Apparent - Sector 2
 GRAS3M   .API          :47 Azimuthal Gamma Ray - Apparent - Sector 3
 GRAS4M   .API          :48 Azimuthal Gamma Ray - Apparent - Sector 4
 GRAS5M   .API          :49 Azimuthal Gamma Ray - Apparent - Sector 5
 GRAS6M   .API          :50 Azimuthal Gamma Ray - Apparent - Sector 6
 GRAS7M   .API          :51 Azimuthal Gamma Ray - Apparent - Sector 7
 GRASM    .API          :52 Gamma Ray Apparent Sector Image
~Parameter Information Section
#MNEM.UNIT                  VALUE                   DESCRIPTION
#----.----     ----------------------------------   --------------------
~Other Information Section
Disclaimer
Baker Hughes INTEQ does not guarantee the accuracy  or correctness
of  interpretations  provided  in  or  from this  data. Since  all
interpretations  are  opinions based on measurements, Baker Hughes
INTEQ  shall  under no  circumstances   be  held  responsible  for
consequential damages or any other loss, costs, damages or expenses
incurred  or  sustained  in  connection  with  the use of any such
interpretations. Baker  Hughes INTEQ  disclaims  all expressed and
implied  warranties  related to  its  service which is governed by
Baker Hughes INTEQ's standard terms and conditions.
#----------------------------------------------------------------------
 

~A  DEPTH   APRESM    GRAFM     RACELM    RPCELM    RACEHM    RPCEHM     RACESLM   RPCESLM    RACESHM   RPCESHM    RPTHM     NPCKLFM   DPEFM     BDCFM     DRHFM       TVD   BLOCKCOMP   INNM     ROP_AVG   WOB_AVG    TCDM     ABDCUM    ABDCLM    ABDCRM    ABDCDM    ABDC1M    ABDC2M    ABDC3M    ABDC4M    ABDC5M    ABDC6M    ABDC7M    ABDC8M    ABDC9M    ABDC10M   ABDC11M   ABDC12M   ABDC13M   ABDC14M   ABDC15M   ABDC16M   ABDCM     GRAS0M    GRAS1M    GRAS2M    GRAS3M    GRAS4M    GRAS5M    GRAS6M    GRAS7M    GRASM   
# ...
 2681.2000 3615.0000   42.3573   17.0304   12.3184    9.5405    17.5166    6.0501    12.4795    8.7549    16.2908   16.3000 -999.2500 -999.2500 -999.2500 -999.2500 1605.4900   28.3800   89.7500   17.9300   12.3000   84.7000 -999.2500 -999.2500 -999.2500 -999.2500 -999.2500 -999.2500 -999.2500 -999.2500 -999.2500 -999.2500 -999.2500 -999.2500 -999.2500 -999.2500 -999.2500 -999.2500 -999.2500 -999.2500 -999.2500 -999.2500 -999.2500   46.1395   50.0141   37.4041   42.5547   27.2680   31.6489   44.8628   39.2337   92.0112
 2681.3000 3617.0000   43.9001    8.4998   12.4042    9.3388    17.6370   10.1408    12.5072    9.4705    16.4696   16.2000 -999.2500 -999.2500 -999.2500 -999.2500 1605.4900   28.2800   89.7500   18.2600   12.2000   84.7000 -999.2500 -999.2500 -999.2500 -999.2500 -999.2500 -999.2500 -999.2500 -999.2500 -999.2500 -999.2500 -999.2500 -999.2500 -999.2500 -999.2500 -999.2500 -999.2500 -999.2500 -999.2500 -999.2500 -999.2500 -999.2500   45.2167   40.2807   28.5961   34.1670   31.0185   39.5763   48.5706   44.9962   77.9817
 2681.4000 3629.0000   43.6665    8.0217   12.4475    9.9123    17.7265    8.7166    12.6196    9.0629    16.5473   16.3000 -999.2500 -999.2500 -999.2500 -999.2500 1605.4900   28.1800   89.7500   18.6000   12.1000   84.7000 -999.2500 -999.2500 -999.2500 -999.2500 -999.2500 -999.2500 -999.2500 -999.2500 -999.2500 -999.2500 -999.2500 -999.2500 -999.2500 -999.2500 -999.2500 -999.2500 -999.2500 -999.2500 -999.2500 -999.2500 -999.2500   44.5993   47.8068   30.1468   37.7109   35.7022   42.3845   45.0200   41.9403   77.2493
 2681.5000 3624.0000   44.0444    9.0577   12.5238    9.4796    17.8753    7.8716    12.6196    8.8831    16.7377   16.2000 -999.2500 -999.2500 -999.2500 -999.2500 1605.4900   28.0800   89.7500   18.9400   12.1000   84.8000 -999.2500 -999.2500 -999.2500 -999.2500 -999.2500 -999.2500 -999.2500 -999.2500 -999.2500 -999.2500 -999.2500 -999.2500 -999.2500 -999.2500 -999.2500 -999.2500 -999.2500 -999.2500 -999.2500 -999.2500 -999.2500   43.4860   61.3799   32.9434   44.1023   44.1492   47.4489   38.6166   36.4291   75.9285
 2681.6000 3616.0000   42.8109    8.7111   12.4910    9.2427    17.9996   11.3997    12.6479    8.9511    16.7974   16.1000 -999.2500 -999.2500 -999.2500 -999.2500 1605.4900   27.9800   89.7500   19.2800   12.0000   84.8000 -999.2500 -999.2500 -999.2500 -999.2500 -999.2500 -999.2500 -999.2500 -999.2500 -999.2500 -999.2500 -999.2500 -999.2500 -999.2500 -999.2500 -999.2500 -999.2500 -999.2500 -999.2500 -999.2500 -999.2500 -999.2500   45.5039   57.5991   35.0684   42.7641   40.4657   44.5824   35.5513   34.6883   76.2705
 2681.7000 3617.0000   41.5857    8.8226   12.5789    9.4182    18.1258   11.2736    12.7195    9.5777    16.8444   16.1000 -999.2500 -999.2500 -999.2500 -999.2500 1605.5000   27.8800   89.7500   19.6200   12.0000   84.8000 -999.2500 -999.2500 -999.2500 -999.2500 -999.2500 -999.2500 -999.2500 -999.2500 -999.2500 -999.2500 -999.2500 -999.2500 -999.2500 -999.2500 -999.2500 -999.2500 -999.2500 -999.2500 -999.2500 -999.2500 -999.2500   48.3930   52.1857   38.1110   40.8480   35.1918   40.4783   31.1623   32.1959   76.7600
 2681.8000 3617.0000   40.8997    7.9680   12.6455    9.8297    18.1720    7.3284    12.8499    9.5637    16.9316   16.1000 -999.2500 -999.2500 -999.2500 -999.2500 1605.5000   27.8200   89.7500   19.9600   12.0000   84.8000 -999.2500 -999.2500 -999.2500 -999.2500 -999.2500 -999.2500 -999.2500 -999.2500 -999.2500 -999.2500 -999.2500 -999.2500 -999.2500 -999.2500 -999.2500 -999.2500 -999.2500 -999.2500 -999.2500 -999.2500 -999.2500   43.4598   45.0459   35.2358   41.2875   36.7293   38.8071   33.4026   34.4003   76.6446
 2681.9000 3631.0000   39.3786    7.4720   12.6567    9.6482    18.2660    8.0463    12.7917    9.9012    16.9587   16.0000 -999.2500 -999.2500 -999.2500 -999.2500 1605.5000   27.6800   89.7500   20.3000   12.0000   84.8000 -999.2500 -999.2500 -999.2500 -999.2500 -999.2500 -999.2500 -999.2500 -999.2500 -999.2500 -999.2500 -999.2500 -999.2500 -999.2500 -999.2500 -999.2500 -999.2500 -999.2500 -999.2500 -999.2500 -999.2500 -999.2500   39.3070   39.0357   32.8156   41.6575   38.0236   37.4003   35.2884   36.2559   76.5474
 2682.0000 3616.0000   40.6957   34.7497   12.6678    9.3981    18.3879    7.6997    12.9382    8.5400    17.1640   15.9000 -999.2500 -999.2500 -999.2500 -999.2500 1605.5000   27.5800   89.8000   20.6400   12.0000   84.8000 -999.2500 -999.2500 -999.2500 -999.2500 -999.2500 -999.2500 -999.2500 -999.2500 -999.2500 -999.2500 -999.2500 -999.2500 -999.2500 -999.2500 -999.2500 -999.2500 -999.2500 -999.2500 -999.2500 -999.2500 -999.2500   28.0647   41.7111   37.7674   40.7870   35.7393   41.7910   49.8817   29.4932   78.3870
 2682.1000 3601.0000   42.4194    9.0486   12.6903   10.3554    18.4151    9.4048    12.9382    9.5053    17.1778   15.9000 -999.2500 -999.2500 -999.2500 -999.2500 1605.5000   27.4800   89.8800   20.9700   12.0000   84.8000 -999.2500 -999.2500 -999.2500 -999.2500 -999.2500 -999.2500 -999.2500 -999.2500 -999.2500 -999.2500 -999.2500 -999.2500 -999.2500 -999.2500 -999.2500 -999.2500 -999.2500 -999.2500 -999.2500 -999.2500 -999.2500   31.3942   40.3257   40.0470   41.3405   37.8056   39.7123   46.3887   29.5146   80.2979
 2682.2000 3615.0000   41.6157    9.2789   12.7579    9.3625    18.4357   10.3579    12.9531    9.0828    17.1986   15.8000 -999.2500 -999.2500 -999.2500 -999.2500 1605.5000   27.3800   89.8300   21.4500   11.5000   84.8000 -999.2500 -999.2500 -999.2500 -999.2500 -999.2500 -999.2500 -999.2500 -999.2500 -999.2500 -999.2500 -999.2500 -999.2500 -999.2500 -999.2500 -999.2500 -999.2500 -999.2500 -999.2500 -999.2500 -999.2500 -999.2500   39.4799   36.9614   45.5830   42.6847   42.8236   34.6639   37.9057   29.5665   84.9385
 2682.3000 3612.0000   40.1811    8.8110   12.7127    9.3192    18.4015 1636.0780    12.9087    9.4219    17.1226   15.7000 -999.2500 -999.2500 -999.2500 -999.2500 1605.5000   27.2800   89.7500   21.6700   11.0000   84.8000 -999.2500 -999.2500 -999.2500 -999.2500 -999.2500 -999.2500 -999.2500 -999.2500 -999.2500 -999.2500 -999.2500 -999.2500 -999.2500 -999.2500 -999.2500 -999.2500 -999.2500 -999.2500 -999.2500 -999.2500 -999.2500   40.2882   39.0160   43.5680   43.5056   40.8101   35.4149   36.5406   28.8724   85.3277
 2682.4000 3630.0000   39.7842    8.1642   12.7353    9.5847    18.4152    7.2513    12.9680    9.2772    17.1709   15.6000 -999.2500 -999.2500 -999.2500 -999.2500 1605.5000   27.1600   89.7500   22.0400   10.4000   84.8000 -999.2500 -999.2500 -999.2500 -999.2500 -999.2500 -999.2500 -999.2500 -999.2500 -999.2500 -999.2500 -999.2500 -999.2500 -999.2500 -999.2500 -999.2500 -999.2500 -999.2500 -999.2500 -999.2500 -999.2500 -999.2500   41.8281   42.9305   39.7288   45.0695   36.9739   36.8457   33.9399   27.5500   86.0693
 2682.5000 3621.0000   42.7621   11.8687   12.6903    9.2782    18.4288   20.8367    12.9978    9.4997    17.2333   15.6000 -999.2500 -999.2500 -999.2500 -999.2500 1605.5000   27.0800   89.7500   22.4100   10.6000   84.8000 -999.2500 -999.2500 -999.2500 -999.2500 -999.2500 -999.2500 -999.2500 -999.2500 -999.2500 -999.2500 -999.2500 -999.2500 -999.2500 -999.2500 -999.2500 -999.2500 -999.2500 -999.2500 -999.2500 -999.2500 -999.2500   43.8100   43.0689   38.9949   42.8555   39.4937   40.5137   36.3529   35.4399   74.7010
 2682.6000 3620.0000   43.6584   10.7775   12.7806   11.7933    18.2929    6.9069    12.9679    9.0120    17.2473   15.6000 -999.2500 -999.2500 -999.2500 -999.2500 1605.5000   26.9800 -999.2500   22.7800   10.7000   84.8000 -999.2500 -999.2500 -999.2500 -999.2500 -999.2500 -999.2500 -999.2500 -999.2500 -999.2500 -999.2500 -999.2500 -999.2500 -999.2500 -999.2500 -999.2500 -999.2500 -999.2500 -999.2500 -999.2500 -999.2500 -999.2500   45.9241   43.2166   38.2121   40.4938   42.1816   44.4265   38.9269   43.8561   62.5743
 2682.7000 3620.0000   42.3337    8.9263   12.7466    9.4121    18.5042    7.1985    13.0579    9.6531    17.2892   15.6000 -999.2500 -999.2500 -999.2500 -999.2500 1605.5000   26.8800 -999.2500   23.1500   10.9000   84.8000 -999.2500 -999.2500 -999.2500 -999.2500 -999.2500 -999.2500 -999.2500 -999.2500 -999.2500 -999.2500 -999.2500 -999.2500 -999.2500 -999.2500 -999.2500 -999.2500 -999.2500 -999.2500 -999.2500 -999.2500 -999.2500   44.8430   42.0053   46.9084   44.2752   39.0698   49.5478   45.4626   39.0188   83.8305
