~Version Information Section
 VERS.      2.0         :CWLS LOG ASCII STANDARD -VERSION 2.0
 WRAP.      NO          :One line per depth step
 MERG.      YES         :Data merged using LAS tools (www.logtechcan.com)
~Well Information Section
#MNEM.UNIT               VALUE/NAME                 DESCRIPTION
#----.----     ----------------------------------   --------------------
 STRT.m           1950.0000                         :Start Depth
 STOP.m           2686.0000                         :Stop  Depth
 STEP.m              0.1000                         :Step  Depth
 NULL.            -999.2500                         :Null value
 COMP.         PetroCanada                          :Company Name
 WELL.         P11-A-02A                            :Well Name
 PATH.         P11-A-02A                            :Path Name
 FLD .         De Ruyter                            :Field Name
 LOC .         De Ruyter                            :Location
 PROV.         Unused                               :Province
 SRVC.         BAKER HUGHES INTEQ                   :Service Company Name
DATE.DD/MM/YYYY21/05/2007                           :Date
 UWI .                                              :Unique Well ID
 ZONE.Hrs      2                                    :Time zone difference from GMT
 ZONE.Hrs      1                                    :Time zone difference from GMT
~Curve Information Section
#MNEM     .UNIT         CURVE DESCRIPTION
#----     .----         -------------------------
 DEPTH    .m            :1 Depth Hole
 APRESM   .psi          :2 Annular Pressure **MERGED**
 GRAFM    .API          :3 Gamma Ray App [RWD]
 RACELM   .ohm.m        :4 Resistivity Attenuation - Corrected - CRIM - 400kHz
 RPCELM   .ohm.m        :5 Resistivity Phase - Corrected - CRIM - 400kHz
 RACEHM   .ohm.m        :6 Resistivity Attenuation - Corrected - CRIM - 2MHz
 RPCEHM   .ohm.m        :7 Resistivity Phase - Corrected - CRIM - 2MHz
 RACESLM  .ohm.m        :8 Resistivity Attenuation Short Spaced - Corrected - CRIM - 400kHz
 RPCESLM  .ohm.m        :9 Resistivity Phase Short Spaced - Corrected - CRIM - 400kHz
 RACESHM  .ohm.m        :10 Resistivity Attenuation Short Spaced - Corrected - CRIM - 2MHz
 RPCESHM  .ohm.m        :11 Resistivity Phase Short Spaced - Corrected - CRIM - 2MHz
 RPTHM    .min          :12 Resistivity Time Since Drilled
 NPCKLFM  .pu           :13 Neutron Porosity (ls) [RWD] caliper & salinity corrected
 DPEFM    .unitless     :14 Phototelectric Cross Sect [RWD]
 BDCFM    .g/cc         :15 Bulk Density Compensated [RWD]
 DRHFM    .g/cc         :16 Delta RHO - Density Correction [RWD]
 TVD      .m            :17 True Vertical Depth
 BLOCKCOMP.m            :18 Block/Topdrive Position Compensated
 INNM     .deg          :19 Inclination - Non-Rotating **MERGED**
 ROP_AVG  .m/hr         :20 Rate of Penetration
 WOB_AVG  .klbf         :21 Weight on Bit
 TCDM     .degC         :22 Downhole Temperature **MERGED**
 ABDCUM   .g/cc         :23 Azimuthal Bulk Density - Compensated - Up
 ABDCLM   .g/cc         :24 Azimuthal Bulk Density - Compensated - Left
 ABDCRM   .g/cc         :25 Azimuthal Bulk Density - Compensated - Right
 ABDCDM   .g/cc         :26 Azimuthal Bulk Density - Compensated - Down
 ABDC1M   .g/cc         :27 Azimuthal Bulk Density - Compensated - Sector 1
 ABDC2M   .g/cc         :28 Azimuthal Bulk Density - Compensated - Sector 2
 ABDC3M   .g/cc         :29 Azimuthal Bulk Density - Compensated - Sector 3
 ABDC4M   .g/cc         :30 Azimuthal Bulk Density - Compensated - Sector 4
 ABDC5M   .g/cc         :31 Azimuthal Bulk Density - Compensated - Sector 5
 ABDC6M   .g/cc         :32 Azimuthal Bulk Density - Compensated - Sector 6
 ABDC7M   .g/cc         :33 Azimuthal Bulk Density - Compensated - Sector 7
 ABDC8M   .g/cc         :34 Azimuthal Bulk Density - Compensated - Sector 8
 ABDC9M   .g/cc         :35 Azimuthal Bulk Density - Compensated - Sector 9
 ABDC10M  .g/cc         :36 Azimuthal Bulk Density - Compensated - Sector 10
 ABDC11M  .g/cc         :37 Azimuthal Bulk Density - Compensated - Sector 11
 ABDC12M  .g/cc         :38 Azimuthal Bulk Density - Compensated - Sector 12
 ABDC13M  .g/cc         :39 Azimuthal Bulk Density - Compensated - Sector 13
 ABDC14M  .g/cc         :40 Azimuthal Bulk Density - Compensated - Sector 14
 ABDC15M  .g/cc         :41 Azimuthal Bulk Density - Compensated - Sector 15
 ABDC16M  .g/cc         :42 Azimuthal Bulk Density - Compensated - Sector 16
 ABDCM    .g/cc         :43 Azimuthal Bulk Density Compensated Image
 GRAS0M   .API          :44 Azimuthal Gamma Ray - Apparent - Sector 0
 GRAS1M   .API          :45 Azimuthal Gamma Ray - Apparent - Sector 1
 GRAS2M   .API          :46 Azimuthal Gamma Ray - Apparent - Sector 2
 GRAS3M   .API          :47 Azimuthal Gamma Ray - Apparent - Sector 3
 GRAS4M   .API          :48 Azimuthal Gamma Ray - Apparent - Sector 4
 GRAS5M   .API          :49 Azimuthal Gamma Ray - Apparent - Sector 5
 GRAS6M   .API          :50 Azimuthal Gamma Ray - Apparent - Sector 6
 GRAS7M   .API          :51 Azimuthal Gamma Ray - Apparent - Sector 7
 GRASM    .API          :52 Gamma Ray Apparent Sector Image
~Parameter Information Section
#MNEM.UNIT                  VALUE                   DESCRIPTION
#----.----     ----------------------------------   --------------------
~Other Information Section
Disclaimer
Baker Hughes INTEQ does not guarantee the accuracy  or correctness
of  interpretations  provided  in  or  from this  data. Since  all
interpretations  are  opinions based on measurements, Baker Hughes
INTEQ  shall  under no  circumstances   be  held  responsible  for
consequential damages or any other loss, costs, damages or expenses
incurred  or  sustained  in  connection  with  the use of any such
interpretations. Baker  Hughes INTEQ  disclaims  all expressed and
implied  warranties  related to  its  service which is governed by
Baker Hughes INTEQ's standard terms and conditions.
#----------------------------------------------------------------------
 

~A  DEPTH   APRESM    GRAFM     RACELM    RPCELM    RACEHM    RPCEHM     RACESLM   RPCESLM    RACESHM   RPCESHM    RPTHM     NPCKLFM   DPEFM     BDCFM     DRHFM       TVD   BLOCKCOMP   INNM     ROP_AVG   WOB_AVG    TCDM     ABDCUM    ABDCLM    ABDCRM    ABDCDM    ABDC1M    ABDC2M    ABDC3M    ABDC4M    ABDC5M    ABDC6M    ABDC7M    ABDC8M    ABDC9M    ABDC10M   ABDC11M   ABDC12M   ABDC13M   ABDC14M   ABDC15M   ABDC16M   ABDCM     GRAS0M    GRAS1M    GRAS2M    GRAS3M    GRAS4M    GRAS5M    GRAS6M    GRAS7M    GRASM   
# ...
 2542.0000 3536.0000   73.5575    8.9225   13.7854   10.3493    21.5845    7.4540     9.4363    6.8197    11.6486   22.9000   21.4368    3.1153    2.3264    0.0557 1604.7200   19.5800   89.7500   15.7000  -16.4000   83.0000    2.4295    2.4793    2.2100    2.2426    2.4805    2.2759    2.2300    2.2342    2.1843    2.2026    2.1990    2.2292    2.2100    2.3458    2.4540    2.5136    2.4817    2.4817    2.5352    2.4965    1.8572   86.5253   80.1103   53.8322   47.6566   44.1796   58.7307   94.3501  114.5461   43.6772
 2542.1000 3541.0000   73.4011    8.7565   13.7341    9.9896    21.7258    7.3023     9.4447    6.7785    11.7176   22.9000   21.1592    3.1559    2.3348    0.0603 1604.7200   19.5100   89.7500   15.7600  -16.7000   83.0000    2.4718    2.5388    2.2333    2.2450    2.5153    2.3607    2.2515    2.2200    2.2305    2.2366    2.1805    2.2120    2.2807    2.3099    2.5079    2.6067    2.5446    2.5114    2.5500    2.5076    1.8587   86.7259   73.3303   58.7853   42.4606   49.7691   72.8613   83.2631  102.1811   40.3529
 2542.2000 3540.0000   72.6095    9.3383   13.8028   10.0610    22.1650    7.4079     9.4614    6.6701    11.7432   23.0000   20.8460    3.1713    2.3373    0.0627 1604.7200   19.3800   89.7500   15.8400  -17.0000   83.0000    2.4565    2.5066    2.1971    2.2642    2.4702    2.3657    2.2111    2.1874    2.2007    2.1961    2.1987    2.2512    2.2581    2.3626    2.4898    2.5580    2.4886    2.5008    2.4997    2.5470    1.8603  107.1770   70.2115   57.4015   43.5789   47.0244   46.3745  106.8981   91.3744   27.3793
 2542.3000 3526.0000   72.9254    8.9868   13.9692    9.8392    23.3100    7.3953     9.4450    6.4570    11.9340   23.1000   20.5617    3.1542    2.3322    0.0613 1604.7200   19.2800   89.7500   15.9300  -17.3000   83.1000    2.4066    2.5183    2.2308    2.2962    2.4236    2.2837    2.2333    2.2011    2.2591    2.2321    2.3040    2.2452    2.2640    2.3799    2.4893    2.5449    2.5242    2.5280    2.4815    2.4932    1.8619  102.1325   86.4032   61.6643   43.3783   50.8463   60.9341   75.1606  105.0497   38.2435
 2542.4000 3534.0000   71.6569    8.8054   13.8375    9.4050    22.9576    7.0937     9.3017    6.3103    11.6535   23.2000   21.1867    3.1093    2.3207    0.0565 1604.7200   19.2300   89.7500   16.0200  -17.4000   83.1000    2.4052    2.5026    2.2423    2.2805    2.3861    2.3056    2.2504    2.2401    2.2543    2.2307    2.2349    2.3032    2.2965    2.2983    2.4751    2.5818    2.5246    2.4527    2.5035    2.4664    1.8635   82.0051   85.3548   47.6690   54.6815   45.0888   81.3085   87.6018   94.6061   31.0957
 2542.5000 3535.0000   70.6880    8.9252   13.4434    9.5667    21.2327    6.3151     9.1441    6.2848    11.1550   23.3000   21.1235    3.0507    2.3086    0.0508 1604.7200   19.0800   89.7500   16.1000  -17.4000   83.1000    2.4020    2.4904    2.1830    2.2440    2.4628    2.2914    2.2001    2.1948    2.1585    2.1828    2.1727    2.2096    2.2469    2.3591    2.4822    2.5191    2.5268    2.4462    2.4542    2.4469    1.8625   84.0766   79.5143   49.8670   50.8902   43.0483   72.1951   88.9638   91.3961   31.3767
 2542.6000 3527.0000   72.5388    7.9557   13.1151    9.5784    19.7758    7.4794     8.9278    6.4702    10.5722   23.3000   21.3911    2.9966    2.3030    0.0467 1604.7200   18.9500   89.7500   16.1900  -17.3000   83.1000    2.4223    2.4948    2.1788    2.2460    2.4444    2.3012    2.1950    2.1798    2.1622    2.1861    2.1650    2.2073    2.2992    2.3302    2.4422    2.5486    2.5147    2.5021    2.5002    2.4979    1.8614   86.5622   72.5064   52.5042   46.3410   40.6000   61.2602   90.5982   87.5445   31.7139
 2542.7000 3534.0000   74.1408    9.0256   12.9389    9.1794    19.0178    7.1351     8.6986    6.3005    10.2491   23.3000   21.0663    2.9607    2.3065    0.0447 1604.7300   18.8800   89.7500   16.2800  -16.9000   83.1000    2.4393    2.4546    2.1411    2.2377    2.4693    2.2966    2.1762    2.1135    2.1365    2.1398    2.1670    2.2155    2.2827    2.2873    2.3521    2.5022    2.4679    2.5258    2.5449    2.5058    1.8604  101.0684   84.5170   58.9851   44.8858   69.9646   76.2304   96.7645   93.4408   32.0997
 2542.8000 3552.0000   75.1840   10.3962   12.8009    9.4199    18.5600    6.4339     8.5865    6.2554    10.0111   23.4000   20.6918    2.9502    2.3164    0.0440 1604.7300   18.7800   89.7500   16.3700  -16.2000   83.1000    2.4889    2.4872    2.1980    2.2422    2.4975    2.3788    2.2237    2.2145    2.1783    2.1807    2.1683    2.2262    2.2689    2.3089    2.4283    2.5453    2.4769    2.5171    2.5290    2.6037    1.8593   84.3032   82.0287   54.9790   51.2559   45.2920   71.1923   83.6225   97.3242   37.3801
 2542.9000 3533.0000   76.8292    8.7603   12.6433    9.4405    18.4367    5.9494     8.4341    6.0015     9.7974   23.3000   20.4137    2.9651    2.3285    0.0440 1604.7300   18.6400   89.7500   16.4500  -15.2000   83.1000    2.4446    2.5031    2.2179    2.2410    2.4657    2.3367    2.3160    2.2180    2.1692    2.1821    2.1873    2.2287    2.2774    2.2716    2.4779    2.4912    2.6022    2.4551    2.4767    2.5420    1.8582   97.2852   73.2498   54.1912   53.9562   56.0743   86.9361   80.0354   98.4794   31.2155
 2543.0000 3547.0000   77.1043    8.6284   12.7103    9.1674    18.6918    8.8004     8.3998    6.0141     9.7346   23.3000   20.2265    3.0005    2.3404    0.0452 1604.7300   18.5800   89.7500   16.5400  -15.2000   83.1000    2.4731    2.5010    2.2031    2.2452    2.5205    2.3360    2.2680    2.1902    2.2251    2.1527    2.1921    2.1776    2.3104    2.3015    2.4277    2.5775    2.5208    2.4964    2.5383    2.5620    1.8571  104.4272   76.0029   51.3217   46.4003   67.8888   75.3400   90.0927   86.5161   44.2644
 2543.1000 3532.0000   79.1603    8.8837   12.5766    9.3218    18.5738    7.3174     8.3457    5.9087     9.5831   23.3000   20.1006    3.0434    2.3493    0.0474 1604.7300   18.4800   89.7500   16.6300  -15.3000   83.1000    2.4374    2.4861    2.1779    2.2795    2.4429    2.3332    2.2436    2.1715    2.1649    2.1391    2.1629    2.2541    2.3530    2.3552    2.4600    2.5120    2.4929    2.4929    2.5063    2.5070    1.8456  108.9824   80.4320   58.5863   56.7621   66.8686   76.1118   90.1140   94.1353   41.0772
 2543.2000 3545.0000   78.4609    8.0917   12.4671    9.1495    18.4380    6.4746     8.2858    6.1282     9.5073   23.3000   19.9989    3.0801    2.3523    0.0491 1604.7300   18.3500   89.7500   16.7100  -15.3000   83.1000    2.4403    2.5050    2.2027    2.2920    2.4351    2.3341    2.2575    2.1829    2.1805    2.1942    2.1809    2.3126    2.3312    2.3541    2.5156    2.5409    2.5222    2.4587    2.5110    2.5195    1.8330  116.4680   87.7104   70.5243   73.7898   65.1922   77.3802   90.1491  106.6561   35.8397
 2543.3000 3541.0000   75.8463    9.0052   12.3914    9.1054    17.8058    6.1427     8.2723    6.1499     9.4995   23.3000   19.9307    3.1040    2.3510    0.0499 1604.7300   18.2800   89.7500   16.8000  -15.6000   83.1000    2.4142    2.5470    2.2073    2.3100    2.3966    2.3365    2.3048    2.2096    2.1703    2.1595    2.2061    2.2780    2.3615    2.4012    2.5680    2.6103    2.5460    2.4835    2.4668    2.4924    1.8204   91.9213   78.6404   53.1702   55.8703   55.8678   70.9601   82.0079   81.8970   40.1483
 2543.4000 3540.0000   76.0659   10.0342   12.1791    9.2793    17.3319    6.4076     8.1874    6.0481     9.4251   23.2000   19.9338    3.1139    2.3497    0.0505 1604.7300   18.1800   89.7500   16.8900  -16.1000   83.1000    2.4235    2.5193    2.2096    2.3182    2.4335    2.3407    2.2496    2.2307    2.1928    2.1724    2.2110    2.3131    2.3599    2.4189    2.5064    2.5982    2.5166    2.4743    2.4878    2.4573    1.8077   97.5108   78.9901   50.8892   62.3087   63.8680   53.5101   88.8948   84.7570   24.5449
 2543.5000 3537.0000   75.5955    8.9804   12.1796    9.1182    17.2271    6.9255     8.2772    6.0179     9.5367   23.2000   20.0574    3.1072    2.3504    0.0516 1604.7300   18.1200   89.7500   16.9800  -16.4000   83.1000    2.4274    2.4815    2.2404    2.3077    2.5002    2.2979    2.2654    2.2437    2.2338    2.2223    2.2679    2.3206    2.3070    2.3572    2.4866    2.5072    2.5087    2.4487    2.4834    2.4695    1.7951   90.4277   80.0595   58.2887   56.5145   50.9157   63.2299   85.0916  110.7031   35.7099
