~Version Information Section
 VERS.      2.0         :CWLS LOG ASCII STANDARD -VERSION 2.0
 WRAP.      NO          :One line per depth step
 MERG.      YES         :Data merged using LAS tools (www.logtechcan.com)
~Well Information Section
#MNEM.UNIT               VALUE/NAME                 DESCRIPTION
#----.----     ----------------------------------   --------------------
 STRT.m           1950.0000                         :Start Depth
 STOP.m           2686.0000                         :Stop  Depth
 STEP.m              0.1000                         :Step  Depth
 NULL.            -999.2500                         :Null value
 COMP.         PetroCanada                          :Company Name
 WELL.         P11-A-02A                            :Well Name
 PATH.         P11-A-02A                            :Path Name
 FLD .         De Ruyter                            :Field Name
 LOC .         De Ruyter                            :Location
 PROV.         Unused                               :Province
 SRVC.         BAKER HUGHES INTEQ                   :Service Company Name
DATE.DD/MM/YYYY21/05/2007                           :Date
 UWI .                                              :Unique Well ID
 ZONE.Hrs      2                                    :Time zone difference from GMT
 ZONE.Hrs      1                                    :Time zone difference from GMT
~Curve Information Section
#MNEM     .UNIT         CURVE DESCRIPTION
#----     .----         -------------------------
 DEPTH    .m            :1 Depth Hole
 APRESM   .psi          :2 Annular Pressure **MERGED**
 GRAFM    .API          :3 Gamma Ray App [RWD]
 RACELM   .ohm.m        :4 Resistivity Attenuation - Corrected - CRIM - 400kHz
 RPCELM   .ohm.m        :5 Resistivity Phase - Corrected - CRIM - 400kHz
 RACEHM   .ohm.m        :6 Resistivity Attenuation - Corrected - CRIM - 2MHz
 RPCEHM   .ohm.m        :7 Resistivity Phase - Corrected - CRIM - 2MHz
 RACESLM  .ohm.m        :8 Resistivity Attenuation Short Spaced - Corrected - CRIM - 400kHz
 RPCESLM  .ohm.m        :9 Resistivity Phase Short Spaced - Corrected - CRIM - 400kHz
 RACESHM  .ohm.m        :10 Resistivity Attenuation Short Spaced - Corrected - CRIM - 2MHz
 RPCESHM  .ohm.m        :11 Resistivity Phase Short Spaced - Corrected - CRIM - 2MHz
 RPTHM    .min          :12 Resistivity Time Since Drilled
 NPCKLFM  .pu           :13 Neutron Porosity (ls) [RWD] caliper & salinity corrected
 DPEFM    .unitless     :14 Phototelectric Cross Sect [RWD]
 BDCFM    .g/cc         :15 Bulk Density Compensated [RWD]
 DRHFM    .g/cc         :16 Delta RHO - Density Correction [RWD]
 TVD      .m            :17 True Vertical Depth
 BLOCKCOMP.m            :18 Block/Topdrive Position Compensated
 INNM     .deg          :19 Inclination - Non-Rotating **MERGED**
 ROP_AVG  .m/hr         :20 Rate of Penetration
 WOB_AVG  .klbf         :21 Weight on Bit
 TCDM     .degC         :22 Downhole Temperature **MERGED**
 ABDCUM   .g/cc         :23 Azimuthal Bulk Density - Compensated - Up
 ABDCLM   .g/cc         :24 Azimuthal Bulk Density - Compensated - Left
 ABDCRM   .g/cc         :25 Azimuthal Bulk Density - Compensated - Right
 ABDCDM   .g/cc         :26 Azimuthal Bulk Density - Compensated - Down
 ABDC1M   .g/cc         :27 Azimuthal Bulk Density - Compensated - Sector 1
 ABDC2M   .g/cc         :28 Azimuthal Bulk Density - Compensated - Sector 2
 ABDC3M   .g/cc         :29 Azimuthal Bulk Density - Compensated - Sector 3
 ABDC4M   .g/cc         :30 Azimuthal Bulk Density - Compensated - Sector 4
 ABDC5M   .g/cc         :31 Azimuthal Bulk Density - Compensated - Sector 5
 ABDC6M   .g/cc         :32 Azimuthal Bulk Density - Compensated - Sector 6
 ABDC7M   .g/cc         :33 Azimuthal Bulk Density - Compensated - Sector 7
 ABDC8M   .g/cc         :34 Azimuthal Bulk Density - Compensated - Sector 8
 ABDC9M   .g/cc         :35 Azimuthal Bulk Density - Compensated - Sector 9
 ABDC10M  .g/cc         :36 Azimuthal Bulk Density - Compensated - Sector 10
 ABDC11M  .g/cc         :37 Azimuthal Bulk Density - Compensated - Sector 11
 ABDC12M  .g/cc         :38 Azimuthal Bulk Density - Compensated - Sector 12
 ABDC13M  .g/cc         :39 Azimuthal Bulk Density - Compensated - Sector 13
 ABDC14M  .g/cc         :40 Azimuthal Bulk Density - Compensated - Sector 14
 ABDC15M  .g/cc         :41 Azimuthal Bulk Density - Compensated - Sector 15
 ABDC16M  .g/cc         :42 Azimuthal Bulk Density - Compensated - Sector 16
 ABDCM    .g/cc         :43 Azimuthal Bulk Density Compensated Image
 GRAS0M   .API          :44 Azimuthal Gamma Ray - Apparent - Sector 0
 GRAS1M   .API          :45 Azimuthal Gamma Ray - Apparent - Sector 1
 GRAS2M   .API          :46 Azimuthal Gamma Ray - Apparent - Sector 2
 GRAS3M   .API          :47 Azimuthal Gamma Ray - Apparent - Sector 3
 GRAS4M   .API          :48 Azimuthal Gamma Ray - Apparent - Sector 4
 GRAS5M   .API          :49 Azimuthal Gamma Ray - Apparent - Sector 5
 GRAS6M   .API          :50 Azimuthal Gamma Ray - Apparent - Sector 6
 GRAS7M   .API          :51 Azimuthal Gamma Ray - Apparent - Sector 7
 GRASM    .API          :52 Gamma Ray Apparent Sector Image
~Parameter Information Section
#MNEM.UNIT                  VALUE                   DESCRIPTION
#----.----     ----------------------------------   --------------------
~Other Information Section
Disclaimer
Baker Hughes INTEQ does not guarantee the accuracy  or correctness
of  interpretations  provided  in  or  from this  data. Since  all
interpretations  are  opinions based on measurements, Baker Hughes
INTEQ  shall  under no  circumstances   be  held  responsible  for
consequential damages or any other loss, costs, damages or expenses
incurred  or  sustained  in  connection  with  the use of any such
interpretations. Baker  Hughes INTEQ  disclaims  all expressed and
implied  warranties  related to  its  service which is governed by
Baker Hughes INTEQ's standard terms and conditions.
#----------------------------------------------------------------------
 

~A  DEPTH   APRESM    GRAFM     RACELM    RPCELM    RACEHM    RPCEHM     RACESLM   RPCESLM    RACESHM   RPCESHM    RPTHM     NPCKLFM   DPEFM     BDCFM     DRHFM       TVD   BLOCKCOMP   INNM     ROP_AVG   WOB_AVG    TCDM     ABDCUM    ABDCLM    ABDCRM    ABDCDM    ABDC1M    ABDC2M    ABDC3M    ABDC4M    ABDC5M    ABDC6M    ABDC7M    ABDC8M    ABDC9M    ABDC10M   ABDC11M   ABDC12M   ABDC13M   ABDC14M   ABDC15M   ABDC16M   ABDCM     GRAS0M    GRAS1M    GRAS2M    GRAS3M    GRAS4M    GRAS5M    GRAS6M    GRAS7M    GRASM   
# ...
 2356.4000 3367.0000   72.3994    4.4878    4.2604    3.9950     3.7803    3.6096     3.7554    3.5416     3.4279   16.3000   22.2955    2.9382    2.3395    0.0665 1603.7100   27.3600   89.7500   28.5300   17.6000   78.0000    2.2550    2.3438    2.3410    2.3945    2.2637    2.2425    2.2752    2.3116    2.3869    2.4008    2.4592    2.4622    2.3761    2.3311    2.3239    2.3481    2.3294    2.3790    2.2663    2.2538    2.3774   74.9339   73.3602   69.1701   71.6464   66.8110   71.5338   63.3827   74.2386   42.1851
 2356.5000 3394.0000   72.4003    6.3310    4.2746    4.0688     3.8012    3.8055     3.7828    3.6903     3.4550   16.2000   21.7967    2.9634    2.3417    0.0675 1603.7100   27.2600   89.7500   27.9700   16.8000   78.0000    2.2880    2.3426    2.3695    2.3799    2.2838    2.2766    2.3031    2.3479    2.3937    2.4428    2.4635    2.3869    2.3861    2.3273    2.3145    2.3598    2.3251    2.3821    2.3295    2.2822    2.5788   78.6272   76.2189   57.3536   67.5762   73.8596   71.0903   59.3707   66.0826   41.5006
 2356.6000 3380.0000   73.2113    9.5838    4.2853    4.0239     3.7896    5.4265     3.7685    3.6201     3.4666   15.9000   22.0868    2.9813    2.3410    0.0682 1603.7100   27.2100   89.7500   27.4100   16.3000   78.0000    2.3321    2.3259    2.3645    2.3741    2.3350    2.3026    2.2833    2.3563    2.3748    2.4627    2.4174    2.4150    2.3713    2.3270    2.3232    2.2745    2.2867    2.4390    2.3411    2.3639    2.5104   54.1385   57.2292   78.9044   87.9491   74.9160   73.3349   84.9372   67.4724   50.2303
 2356.7000 3379.0000   73.9628    9.3891    4.2925    4.0088     3.7872    3.3213     3.7911    3.7199     3.4540   15.8000   22.0387    2.9943    2.3372    0.0674 1603.7100   27.0600   89.7500   26.8600   16.3000   78.0000    2.3171    2.2818    2.3937    2.3299    2.3147    2.3690    2.3357    2.3906    2.4228    2.4391    2.4313    2.3777    2.3151    2.2327    2.2832    2.2579    2.2522    2.3445    2.2584    2.3348    2.4336   58.3703   59.4644   81.0699   88.2806   75.4793   75.8818   83.2655   68.9471   46.8206
 2356.8000 3381.0000   74.9463   13.9780    4.2675    3.7502     3.7734    2.6578     3.7845    3.9758     3.4331   15.7000   22.4422    3.0033    2.3330    0.0654 1603.7100   26.9600   89.7500   26.3000   16.3000   78.0000    2.3028    2.2529    2.4365    2.3523    2.3008    2.3572    2.4277    2.4350    2.4847    2.4153    2.4376    2.4197    2.3301    2.2576    2.2682    2.2447    2.2111    2.3053    2.2310    2.3343    2.4179   65.0770   63.0068   84.5017   88.8060   76.3720   79.9180   80.6162   71.2841   41.4168
 2356.9000 3379.0000   79.9939   15.8883    4.2533    3.7361     3.7584    3.1308     3.7718    3.6493     3.4435   15.8000   22.7423    3.0086    2.3319    0.0634 1603.7100   26.8600   89.7500   25.7400   16.3000   78.0000    2.2934    2.2488    2.3901    2.3540    2.3151    2.2865    2.3291    2.4347    2.4390    2.3710    2.4158    2.4694    2.3579    2.2203    2.2531    2.2382    2.2557    2.2569    2.2645    2.3152    2.3499   71.7862   66.5506   87.9348   89.3317   77.2651   83.9558   77.9660   73.6220   36.0110
 2357.0000 3381.0000   77.3754    8.3251    4.2533    4.0251     3.7447    3.6703     3.7779    3.5755     3.4258   15.6000   23.4629    3.0095    2.3341    0.0629 1603.7100   26.8000   89.7500   25.1800   16.3000   78.0000    2.2944    2.2788    2.4098    2.3538    2.3327    2.2845    2.3730    2.4327    2.4281    2.4153    2.4222    2.4243    2.3440    2.2614    2.2886    2.2809    2.3035    2.2538    2.2549    2.3131    2.4727   69.3712   70.6060   80.8957   79.5795   69.4923   76.0426   79.0235   75.7120   34.9226
 2357.1000 3393.0000   74.6329    4.5152    4.2498    4.1760     3.7187    6.9379     3.7231    3.2983     3.3847   15.3000   23.8810    3.0002    2.3367    0.0636 1603.7100   26.6600   89.6800   24.6300   16.2000   78.1000    2.2685    2.2936    2.3722    2.3867    2.2625    2.2958    2.3819    2.3731    2.3537    2.3840    2.3670    2.4583    2.4457    2.3116    2.3114    2.3067    2.3001    2.2668    2.2463    2.2737    2.5759   67.6143   73.5564   75.7747   72.4849   63.8377   70.2857   79.7928   77.2325   34.1309
 2357.2000 3397.0000   75.8886    5.6229    4.2269    3.9428     3.6984    6.2572     3.7023    3.5998     3.3378   15.4000   23.8410    2.9768    2.3362    0.0645 1603.7100   26.5600   89.6300   24.0700   16.1000   78.1000    2.2952    2.3012    2.4073    2.3785    2.2974    2.3189    2.4278    2.3730    2.4247    2.4113    2.3868    2.4342    2.4495    2.2859    2.3461    2.3299    2.2814    2.2564    2.2704    2.3047    2.5227   72.1854   67.5105   72.7771   82.7778   76.1640   68.0940   73.7845   83.1585   35.8434
 2357.3000 3397.0000   78.1021    8.1936    4.2287    4.1100     3.6773    7.9032     3.7135    3.3987     3.3403   15.3000   23.7071    2.9483    2.3316    0.0644 1603.7100   26.5100   89.6800   23.5100   16.1000   78.1000    2.2733    2.2747    2.3845    2.3662    2.2563    2.2999    2.3831    2.3985    2.3884    2.3822    2.3801    2.3831    2.4023    2.3391    2.2444    2.3011    2.3082    2.2533    2.2594    2.2900    2.5626   76.3802   61.9626   70.0263   92.2231   87.4754   66.0829   68.2710   88.5966   37.4149
 2357.4000 3392.0000   74.7139    6.2380    4.2498    4.0223     3.6861    6.5565     3.7167    3.3927     3.3344   15.0000   23.5819    2.9243    2.3240    0.0634 1603.7100   26.3600   89.7500   22.9500   15.2000   78.1000    2.2673    2.2626    2.3742    2.3531    2.2600    2.2776    2.3272    2.4078    2.3843    2.3869    2.3245    2.4569    2.3749    2.3000    2.2420    2.3054    2.2552    2.2530    2.2277    2.3197    2.3556   74.8196   60.9033   67.4764   98.4601   79.5086   64.8166   66.9267   80.4460   43.4923
 2357.5000 3401.0000   75.5865    5.9013    4.2817    4.0092     3.7040    9.7625     3.7457    3.4855     3.3654   14.8000   23.2975    2.9052    2.3166    0.0621 1603.7200   26.2300   89.7500   22.4000   14.5000   78.1000    2.2937    2.2451    2.3716    2.3345    2.2612    2.3216    2.4001    2.4097    2.3733    2.3172    2.3560    2.3871    2.3197    2.2943    2.2287    2.2414    2.2519    2.2620    2.3025    2.2994    2.3264   72.8257   59.5499   64.2188  106.4285   69.3303   63.1988   65.2094   70.0327   51.2567
 2357.6000 3400.0000   75.6260    4.1801    4.2961    4.3889     3.7300    3.5207     3.7652    3.4475     3.3826   14.9000   23.1735    2.8806    2.3112    0.0614 1603.7200   26.1600   89.7500   21.6800   15.4000   78.1000    2.2946    2.2259    2.3788    2.3241    2.3275    2.3031    2.4310    2.4261    2.3330    2.3357    2.3188    2.3878    2.4044    2.2162    2.2338    2.1778    2.2498    2.2522    2.2957    2.2680    2.3446   66.6062   67.0489   70.0559   96.8812   71.8793   68.4190   68.6507   68.5718   50.7883
 2357.7000 3403.0000   76.0839    5.5740    4.3433    4.1890     3.7838    3.8537     3.7944    3.6023     3.4051   14.9000   22.9313    2.8498    2.3085    0.0614 1603.7200   26.0600   89.7500   22.1800   16.7000   78.1000    2.2810    2.2531    2.3336    2.3366    2.2252    2.3501    2.4314    2.3341    2.2950    2.2963    2.3290    2.4131    2.3481    2.2733    2.2223    2.2827    2.2496    2.2664    2.3052    2.2528    2.4173   59.9685   75.0521   76.2855   86.6920   74.5996   73.9902   72.3234   67.0127   50.2884
 2357.8000 3406.0000   73.4823   10.3011    4.3914    4.2223     3.8363    6.2848     3.8448    3.8312     3.4466   14.9000   22.8612    2.8268    2.3081    0.0615 1603.7200   25.9600   89.7500   22.8800   18.0000   78.1000    2.2568    2.2741    2.3349    2.3659    2.2425    2.2514    2.3610    2.4127    2.3016    2.2844    2.3730    2.4234    2.4079    2.2918    2.2576    2.2574    2.2937    2.2923    2.3255    2.2228    2.5173   55.5084   80.4298   80.4714   79.8454   76.4276   77.7337   74.7912   65.9650   49.9525
 2357.9000 3404.0000   71.7072    7.1288    4.4366    4.1364     3.9209    3.8695     3.8756    3.4107     3.5092   14.9000   23.2509    2.8210    2.3087    0.0609 1603.7200   25.8600   89.7500   23.5800   19.3000   78.1000    2.2474    2.3145    2.3158    2.3597    2.2159    2.2822    2.3836    2.3264    2.2785    2.2812    2.2442    2.3635    2.4438    2.4046    2.3111    2.3142    2.3645    2.2750    2.2624    2.2384    2.4690   64.5635   65.0289   76.4469   77.8846   70.3794   81.7724   77.2750   66.2510   48.3555
