~Version Information Section
 VERS.      2.0         :CWLS LOG ASCII STANDARD -VERSION 2.0
 WRAP.      NO          :One line per depth step
 MERG.      YES         :Data merged using LAS tools (www.logtechcan.com)
~Well Information Section
#MNEM.UNIT               VALUE/NAME                 DESCRIPTION
#----.----     ----------------------------------   --------------------
 STRT.m           1950.0000                         :Start Depth
 STOP.m           2686.0000                         :Stop  Depth
 STEP.m              0.1000                         :Step  Depth
 NULL.            -999.2500                         :Null value
 COMP.         PetroCanada                          :Company Name
 WELL.         P11-A-02A                            :Well Name
 PATH.         P11-A-02A                            :Path Name
 FLD .         De Ruyter                            :Field Name
 LOC .         De Ruyter                            :Location
 PROV.         Unused                               :Province
 SRVC.         BAKER HUGHES INTEQ                   :Service Company Name
DATE.DD/MM/YYYY21/05/2007                           :Date
 UWI .                                              :Unique Well ID
 ZONE.Hrs      2                                    :Time zone difference from GMT
 ZONE.Hrs      1                                    :Time zone difference from GMT
~Curve Information Section
#MNEM     .UNIT         CURVE DESCRIPTION
#----     .----         -------------------------
 DEPTH    .m            :1 Depth Hole
 APRESM   .psi          :2 Annular Pressure **MERGED**
 GRAFM    .API          :3 Gamma Ray App [RWD]
 RACELM   .ohm.m        :4 Resistivity Attenuation - Corrected - CRIM - 400kHz
 RPCELM   .ohm.m        :5 Resistivity Phase - Corrected - CRIM - 400kHz
 RACEHM   .ohm.m        :6 Resistivity Attenuation - Corrected - CRIM - 2MHz
 RPCEHM   .ohm.m        :7 Resistivity Phase - Corrected - CRIM - 2MHz
 RACESLM  .ohm.m        :8 Resistivity Attenuation Short Spaced - Corrected - CRIM - 400kHz
 RPCESLM  .ohm.m        :9 Resistivity Phase Short Spaced - Corrected - CRIM - 400kHz
 RACESHM  .ohm.m        :10 Resistivity Attenuation Short Spaced - Corrected - CRIM - 2MHz
 RPCESHM  .ohm.m        :11 Resistivity Phase Short Spaced - Corrected - CRIM - 2MHz
 RPTHM    .min          :12 Resistivity Time Since Drilled
 NPCKLFM  .pu           :13 Neutron Porosity (ls) [RWD] caliper & salinity corrected
 DPEFM    .unitless     :14 Phototelectric Cross Sect [RWD]
 BDCFM    .g/cc         :15 Bulk Density Compensated [RWD]
 DRHFM    .g/cc         :16 Delta RHO - Density Correction [RWD]
 TVD      .m            :17 True Vertical Depth
 BLOCKCOMP.m            :18 Block/Topdrive Position Compensated
 INNM     .deg          :19 Inclination - Non-Rotating **MERGED**
 ROP_AVG  .m/hr         :20 Rate of Penetration
 WOB_AVG  .klbf         :21 Weight on Bit
 TCDM     .degC         :22 Downhole Temperature **MERGED**
 ABDCUM   .g/cc         :23 Azimuthal Bulk Density - Compensated - Up
 ABDCLM   .g/cc         :24 Azimuthal Bulk Density - Compensated - Left
 ABDCRM   .g/cc         :25 Azimuthal Bulk Density - Compensated - Right
 ABDCDM   .g/cc         :26 Azimuthal Bulk Density - Compensated - Down
 ABDC1M   .g/cc         :27 Azimuthal Bulk Density - Compensated - Sector 1
 ABDC2M   .g/cc         :28 Azimuthal Bulk Density - Compensated - Sector 2
 ABDC3M   .g/cc         :29 Azimuthal Bulk Density - Compensated - Sector 3
 ABDC4M   .g/cc         :30 Azimuthal Bulk Density - Compensated - Sector 4
 ABDC5M   .g/cc         :31 Azimuthal Bulk Density - Compensated - Sector 5
 ABDC6M   .g/cc         :32 Azimuthal Bulk Density - Compensated - Sector 6
 ABDC7M   .g/cc         :33 Azimuthal Bulk Density - Compensated - Sector 7
 ABDC8M   .g/cc         :34 Azimuthal Bulk Density - Compensated - Sector 8
 ABDC9M   .g/cc         :35 Azimuthal Bulk Density - Compensated - Sector 9
 ABDC10M  .g/cc         :36 Azimuthal Bulk Density - Compensated - Sector 10
 ABDC11M  .g/cc         :37 Azimuthal Bulk Density - Compensated - Sector 11
 ABDC12M  .g/cc         :38 Azimuthal Bulk Density - Compensated - Sector 12
 ABDC13M  .g/cc         :39 Azimuthal Bulk Density - Compensated - Sector 13
 ABDC14M  .g/cc         :40 Azimuthal Bulk Density - Compensated - Sector 14
 ABDC15M  .g/cc         :41 Azimuthal Bulk Density - Compensated - Sector 15
 ABDC16M  .g/cc         :42 Azimuthal Bulk Density - Compensated - Sector 16
 ABDCM    .g/cc         :43 Azimuthal Bulk Density Compensated Image
 GRAS0M   .API          :44 Azimuthal Gamma Ray - Apparent - Sector 0
 GRAS1M   .API          :45 Azimuthal Gamma Ray - Apparent - Sector 1
 GRAS2M   .API          :46 Azimuthal Gamma Ray - Apparent - Sector 2
 GRAS3M   .API          :47 Azimuthal Gamma Ray - Apparent - Sector 3
 GRAS4M   .API          :48 Azimuthal Gamma Ray - Apparent - Sector 4
 GRAS5M   .API          :49 Azimuthal Gamma Ray - Apparent - Sector 5
 GRAS6M   .API          :50 Azimuthal Gamma Ray - Apparent - Sector 6
 GRAS7M   .API          :51 Azimuthal Gamma Ray - Apparent - Sector 7
 GRASM    .API          :52 Gamma Ray Apparent Sector Image
~Parameter Information Section
#MNEM.UNIT                  VALUE                   DESCRIPTION
#----.----     ----------------------------------   --------------------
~Other Information Section
Disclaimer
Baker Hughes INTEQ does not guarantee the accuracy  or correctness
of  interpretations  provided  in  or  from this  data. Since  all
interpretations  are  opinions based on measurements, Baker Hughes
INTEQ  shall  under no  circumstances   be  held  responsible  for
consequential damages or any other loss, costs, damages or expenses
incurred  or  sustained  in  connection  with  the use of any such
interpretations. Baker  Hughes INTEQ  disclaims  all expressed and
implied  warranties  related to  its  service which is governed by
Baker Hughes INTEQ's standard terms and conditions.
#----------------------------------------------------------------------
 

~A  DEPTH   APRESM    GRAFM     RACELM    RPCELM    RACEHM    RPCEHM     RACESLM   RPCESLM    RACESHM   RPCESHM    RPTHM     NPCKLFM   DPEFM     BDCFM     DRHFM       TVD   BLOCKCOMP   INNM     ROP_AVG   WOB_AVG    TCDM     ABDCUM    ABDCLM    ABDCRM    ABDCDM    ABDC1M    ABDC2M    ABDC3M    ABDC4M    ABDC5M    ABDC6M    ABDC7M    ABDC8M    ABDC9M    ABDC10M   ABDC11M   ABDC12M   ABDC13M   ABDC14M   ABDC15M   ABDC16M   ABDCM     GRAS0M    GRAS1M    GRAS2M    GRAS3M    GRAS4M    GRAS5M    GRAS6M    GRAS7M    GRASM   
# ...
 2634.8000 3615.0000   41.6839   12.8654   13.2419    9.5859    19.6678  550.8825    14.1739   10.0943    20.3435   27.9000   25.8955    2.5953    2.1370    0.0418 1605.2300   17.6500   89.7100   25.2600    8.0000   84.4000    2.1294    2.1516    2.1210    2.1466    2.1263    2.1253    2.1152    2.1064    2.1166    2.1481    2.1230    2.1469    2.1562    2.1603    2.1750    2.1651    2.1624    2.1120    2.1445    2.1246    2.3327   54.0019   49.3819   41.2816   38.9534   45.2167   40.1593   42.9050   42.2453  113.5027
 2634.9000 3619.0000   42.4032    9.1133   13.4334    9.4669    20.0209   22.8258    14.3749   10.7607    20.5183   28.1000   26.4271    2.5984    2.1297    0.0398 1605.2300   17.6000   89.7500   25.0300    8.1000   84.4000    2.1431    2.1603    2.1207    2.1451    2.1678    2.1627    2.1096    2.1062    2.1462    2.1232    2.1240    2.1605    2.1522    2.1479    2.1899    2.1782    2.1567    2.1246    2.1563    2.0914    2.3286   43.2126   41.9545   35.8811   42.4547   40.3138   43.9092   46.2061   45.4979  126.4901
 2635.0000 3616.0000   41.1814   10.0813   13.5081    9.7480    20.4264    5.1883    14.3742   10.5704    20.8417   28.2000   26.7609    2.6091    2.1222    0.0372 1605.2300   17.5000   89.7500   24.8000    8.2000   84.4000    2.1223    2.1463    2.1120    2.1200    2.1195    2.1414    2.1014    2.0839    2.1379    2.1260    2.1287    2.0917    2.0953    2.1656    2.1684    2.1800    2.1247    2.1185    2.1282    2.1015    2.3244   25.3236   31.7438   36.0494   46.1194   53.5333   39.6610   44.7379   49.8919  102.0263
 2635.1000 3607.0000   40.5506   13.2542   13.6216   10.8953    20.7350    9.8906    14.5383    9.6411    21.1128   28.3000   26.7434    2.6233    2.1166    0.0345 1605.2300   17.4000   89.7500   24.8100    8.3000   84.4000    2.1055    2.1274    2.1099    2.1189    2.1553    2.1349    2.0892    2.0872    2.1127    2.1561    2.1107    2.0887    2.1495    2.1303    2.2004    2.1241    2.1186    2.0779    2.0378    2.1016    2.3203   38.8500   36.9484   30.9398   44.4106   31.6911   43.1952   45.8008   32.3995  112.0127
 2635.2000 3599.0000   40.9278   11.6955   13.7498   10.2142    21.2508  562.2063    14.5807   10.0094    21.3023   28.4000   26.6103    2.6333    2.1157    0.0331 1605.2300   17.2800   89.7500   24.8200    8.4000   84.4000    2.1245    2.1235    2.0885    2.1041    2.1188    2.1220    2.0570    2.0950    2.1017    2.1045    2.0990    2.1152    2.0887    2.1164    2.1323    2.1552    2.1152    2.0955    2.1342    2.1291    2.3162   36.3664   43.5368   53.4147   44.4004   37.3117   42.1704   45.2000   35.1346   93.1294
 2635.3000 3591.0000   40.9122    8.7039   13.9857    9.8990    21.9379    4.5723    14.8769   10.5650    21.7894   28.5000   26.6630    2.6430    2.1182    0.0333 1605.2300   17.2000   89.7500   24.8200    8.1000   84.4000    2.1508    2.1095    2.1084    2.1167    2.1577    2.1297    2.1286    2.0857    2.0935    2.1298    2.1509    2.1075    2.0901    2.1205    2.1235    2.1044    2.1078    2.1083    2.1709    2.1547    2.3195   28.8119   35.5450   33.6262   35.0309   35.8473   53.8215   35.6250   45.3828   97.6923
 2635.4000 3600.0000   41.3905   16.7751   14.0525    9.1593    22.2012    9.4690    14.9522   10.0646    22.0116   28.6000   26.8452    2.6548    2.1215    0.0343 1605.2300   17.1000   89.7500   24.8300    7.7000   84.4000    2.1201    2.1318    2.1252    2.1273    2.1350    2.1188    2.1276    2.1220    2.1211    2.1345    2.1300    2.1293    2.1118    2.1411    2.1494    2.1464    2.1248    2.1114    2.1128    2.1175    2.3228   35.4543   35.3020   32.6180   40.7469   42.2469   43.4642   33.1398   40.6127  104.0714
 2635.5000 3628.0000   41.4058    9.3345   14.1651    9.3392    22.4713   12.0331    14.9456   11.2784    21.9910   28.8000   26.9726    2.6646    2.1247    0.0357 1605.2300   17.0000   89.7500   24.8300    7.4000   84.4000    2.1110    2.0992    2.1285    2.1553    2.1875    2.1007    2.1471    2.0920    2.1600    2.1199    2.1927    2.1623    2.1062    2.1669    2.1070    2.0690    2.1371    2.0845    2.0799    2.0851    2.3262   42.1605   35.0567   31.6002   46.5178   48.7080   33.0073   30.6308   35.7967  110.5119
 2635.6000 3620.0000   41.0222   11.6909   14.2425   11.7194    22.4240    3.7973    14.9714   11.6179    22.1145   28.9000   27.0301    2.6649    2.1281    0.0375 1605.2300   16.8700   89.7500   24.8400    6.9000   84.4000    2.1312    2.1301    2.1018    2.1592    2.1307    2.1208    2.1011    2.1056    2.1111    2.0961    2.1291    2.1712    2.1893    2.1522    2.1349    2.1467    2.0990    2.1425    2.1204    2.1572    2.3262   36.9388   38.9495   39.7938   49.3145   40.2026   58.0710   29.8675   33.2299  112.1752
 2635.7000 3613.0000   40.1374    8.2187   14.3675   10.7291    22.5841   10.7133    15.0491    9.1900    22.3830   29.1000   27.1506    2.6486    2.1317    0.0397 1605.2300   16.8000   89.7500   24.8500    6.8000   84.4000    2.1260    2.1519    2.1404    2.1559    2.1122    2.1271    2.1141    2.1185    2.1471    2.1859    2.1597    2.1657    2.1458    2.1568    2.1616    2.1491    2.1411    2.1617    2.1339    2.1345    2.3261   34.5754   37.8539   44.7691   45.0489   44.8837   22.9403   36.0462   20.4381  105.8520
 2635.8000 3604.0000   41.5725   18.9022   14.4230    9.4210    23.0853  821.0167    15.1871    9.4013    22.4704   29.2000   27.3523    2.6288    2.1335    0.0414 1605.2300   16.7000   89.7500   24.8500    6.7000   84.4000    2.0966    2.1405    2.1396    2.1380    2.0800    2.0812    2.1194    2.1083    2.1445    2.1849    2.1563    2.1628    2.1506    2.0905    2.1161    2.1612    2.1478    2.1385    2.1223    2.1059    2.3261   33.7835   42.9794   51.7679   46.2060   39.7987   45.4486   34.6956   46.5082   99.7436
 2635.9000 3596.0000   40.7945    7.7121   14.5840    9.4487    23.1129   41.4881    15.3140   10.4248    22.5213   29.3000   27.4232    2.6162    2.1323    0.0410 1605.2300   16.6000   89.7500   24.8600    6.6000   84.4000    2.1159    2.1333    2.1455    2.1532    2.1245    2.1081    2.1277    2.1803    2.1548    2.1285    2.1875    2.1331    2.1524    2.1455    2.1753    2.1086    2.1288    2.1217    2.1081    2.1307    2.3261   48.8978   29.7448   48.3759   35.0133   48.4621   37.6273   30.1884   38.2563  102.9126
 2636.0000 3596.0000   39.6712    6.6150   14.5647   13.8053    22.6607    8.0699    15.2085   11.3355    22.4162   29.5000   27.1156    2.6010    2.1303    0.0393 1605.2300   16.4600   89.7500   24.8600    6.4000   84.4000    2.0963    2.1238    2.1321    2.1611    2.1168    2.1123    2.1185    2.1120    2.1694    2.1299    2.1377    2.1703    2.2020    2.1416    2.1257    2.1404    2.1718    2.0741    2.1001    2.0560    2.3261   34.6851   42.5861   36.1891   34.2977   31.8568   44.1357   39.5434   38.2368  118.6512
 2636.1000 3596.0000   38.6956   13.6189   14.7284   11.2493    23.2102  555.6945    15.4775    9.9320    22.8319   29.6000   26.4873    2.5792    2.1288    0.0374 1605.2300   16.4000   89.7000   24.8700    6.4000   84.4000    2.1047    2.1470    2.1274    2.1426    2.1243    2.1039    2.1281    2.1049    2.1310    2.1462    2.0999    2.1347    2.1795    2.1647    2.1723    2.1693    2.1268    2.1263    2.1029    2.0909    2.3261   34.1113   37.0527   35.5394   43.2905   40.8085   36.3872   29.0753   36.9022   90.6121
 2636.2000 3611.0000   38.7853   11.5456   14.7379   10.2303    23.3529    7.4378    15.5527   10.3522    22.7683   29.8000   25.9365    2.5616    2.1285    0.0363 1605.2300   16.3000   89.6300   24.8800    6.5000   84.4000    2.1076    2.1165    2.1506    2.1304    2.1099    2.1307    2.1411    2.1665    2.1461    2.1509    2.1332    2.1304    2.1177    2.1432    2.1631    2.1183    2.1004    2.0947    2.0842    2.1071    2.3261   41.8166   47.5525   37.0246   33.7519   26.3023   37.2629   30.2985   34.0406  104.8655
 2636.3000 3609.0000   38.9407    7.9926   14.7819   11.6478    23.2434    6.9751    15.4701   11.2641    22.3854   30.0000   25.7781    2.5614    2.1295    0.0364 1605.2400   16.2000   89.7500   24.8800    6.5000   84.4000    2.0975    2.1317    2.1237    2.1396    2.1040    2.1081    2.1335    2.0909    2.0925    2.1795    2.1224    2.1305    2.1600    2.1506    2.1668    2.1588    2.1126    2.0959    2.0989    2.0791    2.3260   40.8770   42.8044   38.4064   29.7621   31.1392   42.0703   31.5965   35.6175  104.5441
