~Version Information Section
 VERS.      2.0         :CWLS LOG ASCII STANDARD -VERSION 2.0
 WRAP.      NO          :One line per depth step
 MERG.      YES         :Data merged using LAS tools (www.logtechcan.com)
~Well Information Section
#MNEM.UNIT               VALUE/NAME                 DESCRIPTION
#----.----     ----------------------------------   --------------------
 STRT.m           1950.0000                         :Start Depth
 STOP.m           2686.0000                         :Stop  Depth
 STEP.m              0.1000                         :Step  Depth
 NULL.            -999.2500                         :Null value
 COMP.         PetroCanada                          :Company Name
 WELL.         P11-A-02A                            :Well Name
 PATH.         P11-A-02A                            :Path Name
 FLD .         De Ruyter                            :Field Name
 LOC .         De Ruyter                            :Location
 PROV.         Unused                               :Province
 SRVC.         BAKER HUGHES INTEQ                   :Service Company Name
DATE.DD/MM/YYYY21/05/2007                           :Date
 UWI .                                              :Unique Well ID
 ZONE.Hrs      2                                    :Time zone difference from GMT
 ZONE.Hrs      1                                    :Time zone difference from GMT
~Curve Information Section
#MNEM     .UNIT         CURVE DESCRIPTION
#----     .----         -------------------------
 DEPTH    .m            :1 Depth Hole
 APRESM   .psi          :2 Annular Pressure **MERGED**
 GRAFM    .API          :3 Gamma Ray App [RWD]
 RACELM   .ohm.m        :4 Resistivity Attenuation - Corrected - CRIM - 400kHz
 RPCELM   .ohm.m        :5 Resistivity Phase - Corrected - CRIM - 400kHz
 RACEHM   .ohm.m        :6 Resistivity Attenuation - Corrected - CRIM - 2MHz
 RPCEHM   .ohm.m        :7 Resistivity Phase - Corrected - CRIM - 2MHz
 RACESLM  .ohm.m        :8 Resistivity Attenuation Short Spaced - Corrected - CRIM - 400kHz
 RPCESLM  .ohm.m        :9 Resistivity Phase Short Spaced - Corrected - CRIM - 400kHz
 RACESHM  .ohm.m        :10 Resistivity Attenuation Short Spaced - Corrected - CRIM - 2MHz
 RPCESHM  .ohm.m        :11 Resistivity Phase Short Spaced - Corrected - CRIM - 2MHz
 RPTHM    .min          :12 Resistivity Time Since Drilled
 NPCKLFM  .pu           :13 Neutron Porosity (ls) [RWD] caliper & salinity corrected
 DPEFM    .unitless     :14 Phototelectric Cross Sect [RWD]
 BDCFM    .g/cc         :15 Bulk Density Compensated [RWD]
 DRHFM    .g/cc         :16 Delta RHO - Density Correction [RWD]
 TVD      .m            :17 True Vertical Depth
 BLOCKCOMP.m            :18 Block/Topdrive Position Compensated
 INNM     .deg          :19 Inclination - Non-Rotating **MERGED**
 ROP_AVG  .m/hr         :20 Rate of Penetration
 WOB_AVG  .klbf         :21 Weight on Bit
 TCDM     .degC         :22 Downhole Temperature **MERGED**
 ABDCUM   .g/cc         :23 Azimuthal Bulk Density - Compensated - Up
 ABDCLM   .g/cc         :24 Azimuthal Bulk Density - Compensated - Left
 ABDCRM   .g/cc         :25 Azimuthal Bulk Density - Compensated - Right
 ABDCDM   .g/cc         :26 Azimuthal Bulk Density - Compensated - Down
 ABDC1M   .g/cc         :27 Azimuthal Bulk Density - Compensated - Sector 1
 ABDC2M   .g/cc         :28 Azimuthal Bulk Density - Compensated - Sector 2
 ABDC3M   .g/cc         :29 Azimuthal Bulk Density - Compensated - Sector 3
 ABDC4M   .g/cc         :30 Azimuthal Bulk Density - Compensated - Sector 4
 ABDC5M   .g/cc         :31 Azimuthal Bulk Density - Compensated - Sector 5
 ABDC6M   .g/cc         :32 Azimuthal Bulk Density - Compensated - Sector 6
 ABDC7M   .g/cc         :33 Azimuthal Bulk Density - Compensated - Sector 7
 ABDC8M   .g/cc         :34 Azimuthal Bulk Density - Compensated - Sector 8
 ABDC9M   .g/cc         :35 Azimuthal Bulk Density - Compensated - Sector 9
 ABDC10M  .g/cc         :36 Azimuthal Bulk Density - Compensated - Sector 10
 ABDC11M  .g/cc         :37 Azimuthal Bulk Density - Compensated - Sector 11
 ABDC12M  .g/cc         :38 Azimuthal Bulk Density - Compensated - Sector 12
 ABDC13M  .g/cc         :39 Azimuthal Bulk Density - Compensated - Sector 13
 ABDC14M  .g/cc         :40 Azimuthal Bulk Density - Compensated - Sector 14
 ABDC15M  .g/cc         :41 Azimuthal Bulk Density - Compensated - Sector 15
 ABDC16M  .g/cc         :42 Azimuthal Bulk Density - Compensated - Sector 16
 ABDCM    .g/cc         :43 Azimuthal Bulk Density Compensated Image
 GRAS0M   .API          :44 Azimuthal Gamma Ray - Apparent - Sector 0
 GRAS1M   .API          :45 Azimuthal Gamma Ray - Apparent - Sector 1
 GRAS2M   .API          :46 Azimuthal Gamma Ray - Apparent - Sector 2
 GRAS3M   .API          :47 Azimuthal Gamma Ray - Apparent - Sector 3
 GRAS4M   .API          :48 Azimuthal Gamma Ray - Apparent - Sector 4
 GRAS5M   .API          :49 Azimuthal Gamma Ray - Apparent - Sector 5
 GRAS6M   .API          :50 Azimuthal Gamma Ray - Apparent - Sector 6
 GRAS7M   .API          :51 Azimuthal Gamma Ray - Apparent - Sector 7
 GRASM    .API          :52 Gamma Ray Apparent Sector Image
~Parameter Information Section
#MNEM.UNIT                  VALUE                   DESCRIPTION
#----.----     ----------------------------------   --------------------
~Other Information Section
Disclaimer
Baker Hughes INTEQ does not guarantee the accuracy  or correctness
of  interpretations  provided  in  or  from this  data. Since  all
interpretations  are  opinions based on measurements, Baker Hughes
INTEQ  shall  under no  circumstances   be  held  responsible  for
consequential damages or any other loss, costs, damages or expenses
incurred  or  sustained  in  connection  with  the use of any such
interpretations. Baker  Hughes INTEQ  disclaims  all expressed and
implied  warranties  related to  its  service which is governed by
Baker Hughes INTEQ's standard terms and conditions.
#----------------------------------------------------------------------
 

~A  DEPTH   APRESM    GRAFM     RACELM    RPCELM    RACEHM    RPCEHM     RACESLM   RPCESLM    RACESHM   RPCESHM    RPTHM     NPCKLFM   DPEFM     BDCFM     DRHFM       TVD   BLOCKCOMP   INNM     ROP_AVG   WOB_AVG    TCDM     ABDCUM    ABDCLM    ABDCRM    ABDCDM    ABDC1M    ABDC2M    ABDC3M    ABDC4M    ABDC5M    ABDC6M    ABDC7M    ABDC8M    ABDC9M    ABDC10M   ABDC11M   ABDC12M   ABDC13M   ABDC14M   ABDC15M   ABDC16M   ABDCM     GRAS0M    GRAS1M    GRAS2M    GRAS3M    GRAS4M    GRAS5M    GRAS6M    GRAS7M    GRASM   
# ...
 2215.6000 3237.0000   50.0551   16.5016   36.3236   25.5768    49.0957   14.9770    32.0570   20.6241    40.5787   48.9000   24.5609    2.7496    2.2249    0.0684 1602.9500   20.1300   89.7500   22.0700   89.3000   75.2000    2.2182    2.2725    2.1776    2.2152    2.1921    2.1769    2.1378    2.1824    2.1978    2.1979    2.2331    2.1980    2.2479    2.2058    2.2776    2.2707    2.2777    2.2709    2.2432    2.2822    2.2979   44.1464   55.7950   45.1597   49.1459   55.7861   42.8916   47.1442   41.7760   46.0740
 2215.7000 3239.0000   50.1750   16.4358   33.7334   25.4702    43.5304   14.6187    28.0238   20.0693    33.9555   49.6000   24.7500    2.7155    2.2227    0.0659 1602.9600   20.0300   89.7500   22.1300   89.3000   75.2000    2.2320    2.2525    2.2104    2.2214    2.2544    2.1941    2.2265    2.2068    2.2068    2.2065    2.2381    2.2390    2.2077    2.2149    2.2345    2.2734    2.2800    2.2346    2.2437    2.2483    2.2944   59.9722   45.5386   50.3696   41.9088   64.6384   61.9241   60.5618   38.1690   33.8306
 2215.8000 3240.0000   49.7290   16.4184   32.7363   25.5695    42.0985   14.5627    26.6223   19.6871    31.1481   50.6000   24.3619    2.6789    2.2216    0.0638 1602.9600   19.9300   89.7500   22.1900   89.4000   75.2000    2.2564    2.2387    2.2280    2.2168    2.2606    2.2049    2.2465    2.2164    2.2152    2.2378    2.2264    2.2577    2.2055    2.1917    2.2181    2.2156    2.3134    2.2251    2.3163    2.2608    2.2997   44.0301   55.6713   49.0969   51.5917   53.6107   57.7814   45.8848   44.8566   41.2030
 2215.9000 3238.0000   48.0876   16.6212   33.3739   25.7422    43.1921   14.7508    27.2864   19.9327    32.2290   51.4000   25.1599    2.6568    2.2223    0.0629 1602.9600   19.8300   89.7500   22.2600   89.5000   75.2000    2.2420    2.2387    2.2312    2.1830    2.2642    2.1770    2.2151    2.2388    2.2347    2.2395    2.2071    2.2101    2.1523    2.1755    2.2314    2.2495    2.2371    2.2462    2.2827    2.2618    2.3051   51.2639   44.3910   41.4102   52.0271   47.7845   43.6869   39.9941   37.2929   37.8432
 2216.0000 3236.0000   48.2457   16.4948   33.8048   25.8622    44.0221   14.7725    27.6107   20.2109    32.7756   52.1000   25.2604    2.6604    2.2252    0.0638 1602.9600   19.7300   89.8100   22.2100   89.7000   75.2000    2.2141    2.2430    2.2225    2.2048    2.2009    2.1779    2.1902    2.2282    2.2575    2.2229    2.2181    2.2153    2.2126    2.1816    2.2058    2.2659    2.2539    2.2555    2.2550    2.2409    2.3105   48.8257   37.2059   48.0314   49.3814   52.9774   44.5708   46.3932   44.9262   41.3959
 2216.1000 3230.0000   48.9406   16.6402   34.6088   26.1206    45.7608   14.9708    28.7367   20.6258    34.4385   52.8000   25.4963    2.6838    2.2296    0.0663 1602.9600   19.6300   89.7500   22.1700   90.0000   75.3000    2.2366    2.2612    2.2249    2.2464    2.2051    2.1942    2.1864    2.2541    2.2317    2.2342    2.2422    2.2711    2.2581    2.2245    2.2412    2.3110    2.2648    2.2424    2.2894    2.2719    2.3158   49.3789   45.6455   54.4589   49.8089   45.9767   47.8146   42.1964   48.8371   41.1230
 2216.2000 3251.0000   49.4420   16.6726   35.1022   26.4886    46.5215   15.1028    28.9963   21.0623    34.8354   53.2000   25.8792    2.7090    2.2331    0.0686 1602.9600   19.5300   89.7500   22.1300   90.3000   75.3000    2.2201    2.3111    2.2405    2.2241    2.1993    2.1887    2.2456    2.2382    2.2114    2.2716    2.2594    2.2456    2.2252    2.1816    2.2804    2.3347    2.3210    2.3192    2.2666    2.2368    2.3217   47.3580   49.6164   37.4693   52.1095   50.6059   47.6869   44.0307   46.5096   40.4193
 2216.3000 3230.0000   50.4123   16.6694   35.3819   26.5760    47.0229   15.0827    28.8191   21.1287    35.0197   53.8000   25.7027    2.7207    2.2335    0.0688 1602.9600   19.4700   89.7500   22.0900   90.4000   75.3000    2.2273    2.2943    2.2299    2.2360    2.2048    2.1920    2.2015    2.2495    2.2379    2.2373    2.2116    2.2781    2.2454    2.2257    2.2790    2.2724    2.2977    2.3404    2.2863    2.2470    2.3329   51.8628   49.1385   43.6715   52.4103   43.2149   51.7909   47.0024   49.0196   35.8935
 2216.4000 3220.0000   50.7418   16.6488   35.2765   26.7465    46.8065   14.9054    28.3152   21.2804    33.8194   54.4000   25.5143    2.7162    2.2310    0.0665 1602.9600   19.3300   89.7500   22.0400   90.4000   75.3000    2.2165    2.2592    2.2318    2.2542    2.1979    2.2337    2.1977    2.2282    2.2369    2.2704    2.2660    2.2713    2.2027    2.2962    2.2267    2.2738    2.2606    2.2839    2.2246    2.2239    2.3441   43.0865   47.8221   48.3187   50.5600   56.1600   50.8252   47.3756   46.3415   40.1621
 2216.5000 3231.0000   52.0684   16.7883   34.2071   26.4926    44.3596   14.9761    26.9761   20.8407    31.2737   54.8000   25.1027    2.7035    2.2279    0.0628 1602.9600   19.2300   89.7500   22.0000   90.3000   75.3000    2.1957    2.2154    2.2467    2.2496    2.2036    2.2340    2.2302    2.2416    2.2456    2.2720    2.2572    2.2691    2.2831    2.2141    2.1879    2.2508    2.2313    2.2043    2.1891    2.1625    2.3581   54.6696   53.2647   54.6797   59.4535   49.7236   52.1913   49.2249   49.9804   40.6600
 2216.6000 3242.0000   52.4208   16.7783   33.5007   26.2131    42.8127   14.8922    26.1961   20.3399    30.0634   55.3000   24.7218    2.6865    2.2261    0.0590 1602.9600   19.1000   89.7500   21.9600   90.3000   75.3000    2.2089    2.1676    2.2410    2.2283    2.2279    2.2677    2.2424    2.2892    2.2066    2.2322    2.2557    2.2539    2.2268    2.1941    2.1487    2.1897    2.1610    2.1745    2.1767    2.1705    2.3380   45.7381   44.9362   56.0115   62.4590   54.6608   45.7831   52.2525   42.5371   42.4333
 2216.7000 3231.0000   52.4319   16.9002   33.5975   26.3464    43.0729   14.8141    26.3341   20.3176    30.3828   55.7000   24.5180    2.6716    2.2265    0.0558 1602.9600   19.0300   89.7500   21.9200   90.1000   75.3000    2.2130    2.1853    2.2642    2.2390    2.2329    2.2356    2.2553    2.2586    2.2600    2.2885    2.2976    2.2431    2.2271    2.2070    2.2072    2.2121    2.1491    2.1778    2.1824    2.2057    2.3178   50.5671   59.0127   50.6169   53.9464   60.0839   52.2008   43.9536   46.9065   47.9385
 2216.8000 3223.0000   51.5057   16.8086   34.3151   26.5335    44.5619   15.1451    27.1589   20.8294    31.6056   56.2000   24.4690    2.6673    2.2291    0.0544 1602.9600   18.9300   89.7500   21.8800   89.7000   75.3000    2.2104    2.1792    2.2957    2.2348    2.2112    2.2334    2.2581    2.3280    2.2710    2.3382    2.2418    2.2507    2.2352    2.2186    2.1617    2.1921    2.2020    2.1673    2.1985    2.2013    2.2977   40.4316   44.9727   53.5034   48.9031   46.5709   52.3547   41.0671   42.9604   46.7692
 2216.9000 3238.0000   52.6541   16.8433   35.3290   26.8623    46.5687   15.1578    28.2498   21.4047    33.5255   56.7000   24.9285    2.6743    2.2324    0.0549 1602.9600   18.8300   89.7500   21.8300   89.4000   75.3000    2.2133    2.1645    2.2544    2.2692    2.2161    2.2774    2.2320    2.2529    2.2651    2.2735    2.2782    2.3502    2.2355    2.2413    2.2013    2.1375    2.1717    2.1527    2.1851    2.1816    2.2776   46.7992   55.2127   57.8898   62.1208   52.7859   42.9585   54.3451   46.6736   40.9161
 2217.0000 3227.0000   53.3751   16.8753   35.9798   27.0830    47.8645   15.1118    28.9962   21.8636    34.6150   57.4000   24.9829    2.6828    2.2346    0.0561 1602.9600   18.7400   89.7500   21.7900   89.0000   75.3000    2.1831    2.1951    2.2731    2.2678    2.1766    2.2203    2.2577    2.2656    2.2867    2.2877    2.2712    2.2820    2.2610    2.2657    2.2306    2.2347    2.1698    2.1548    2.1352    2.2115    2.2574   51.3173   56.3712   55.7585   51.4993   62.7172   49.0540   54.2104   59.0938   37.8972
 2217.1000 3234.0000   52.9972   16.8642   35.8509   27.2033    47.4581   15.2503    28.3868   21.9519    33.7711   58.3000   25.3152    2.6866    2.2352    0.0564 1602.9600   18.6300   89.7500   21.7500   89.4000   75.3000    2.1799    2.2034    2.2763    2.2999    2.1919    2.2053    2.2434    2.2677    2.2593    2.3394    2.3121    2.3114    2.3072    2.2807    2.2920    2.1845    2.1680    2.1739    2.1670    2.1597    2.2606   56.8604   49.9906   60.6530   53.1165   55.4804   48.3750   43.7454   50.0915   36.7586
