~Version Information Section
 VERS.      2.0         :CWLS LOG ASCII STANDARD -VERSION 2.0
 WRAP.      NO          :One line per depth step
 MERG.      YES         :Data merged using LAS tools (www.logtechcan.com)
~Well Information Section
#MNEM.UNIT               VALUE/NAME                 DESCRIPTION
#----.----     ----------------------------------   --------------------
 STRT.m           1950.0000                         :Start Depth
 STOP.m           2686.0000                         :Stop  Depth
 STEP.m              0.1000                         :Step  Depth
 NULL.            -999.2500                         :Null value
 COMP.         PetroCanada                          :Company Name
 WELL.         P11-A-02A                            :Well Name
 PATH.         P11-A-02A                            :Path Name
 FLD .         De Ruyter                            :Field Name
 LOC .         De Ruyter                            :Location
 PROV.         Unused                               :Province
 SRVC.         BAKER HUGHES INTEQ                   :Service Company Name
DATE.DD/MM/YYYY21/05/2007                           :Date
 UWI .                                              :Unique Well ID
 ZONE.Hrs      2                                    :Time zone difference from GMT
 ZONE.Hrs      1                                    :Time zone difference from GMT
~Curve Information Section
#MNEM     .UNIT         CURVE DESCRIPTION
#----     .----         -------------------------
 DEPTH    .m            :1 Depth Hole
 APRESM   .psi          :2 Annular Pressure **MERGED**
 GRAFM    .API          :3 Gamma Ray App [RWD]
 RACELM   .ohm.m        :4 Resistivity Attenuation - Corrected - CRIM - 400kHz
 RPCELM   .ohm.m        :5 Resistivity Phase - Corrected - CRIM - 400kHz
 RACEHM   .ohm.m        :6 Resistivity Attenuation - Corrected - CRIM - 2MHz
 RPCEHM   .ohm.m        :7 Resistivity Phase - Corrected - CRIM - 2MHz
 RACESLM  .ohm.m        :8 Resistivity Attenuation Short Spaced - Corrected - CRIM - 400kHz
 RPCESLM  .ohm.m        :9 Resistivity Phase Short Spaced - Corrected - CRIM - 400kHz
 RACESHM  .ohm.m        :10 Resistivity Attenuation Short Spaced - Corrected - CRIM - 2MHz
 RPCESHM  .ohm.m        :11 Resistivity Phase Short Spaced - Corrected - CRIM - 2MHz
 RPTHM    .min          :12 Resistivity Time Since Drilled
 NPCKLFM  .pu           :13 Neutron Porosity (ls) [RWD] caliper & salinity corrected
 DPEFM    .unitless     :14 Phototelectric Cross Sect [RWD]
 BDCFM    .g/cc         :15 Bulk Density Compensated [RWD]
 DRHFM    .g/cc         :16 Delta RHO - Density Correction [RWD]
 TVD      .m            :17 True Vertical Depth
 BLOCKCOMP.m            :18 Block/Topdrive Position Compensated
 INNM     .deg          :19 Inclination - Non-Rotating **MERGED**
 ROP_AVG  .m/hr         :20 Rate of Penetration
 WOB_AVG  .klbf         :21 Weight on Bit
 TCDM     .degC         :22 Downhole Temperature **MERGED**
 ABDCUM   .g/cc         :23 Azimuthal Bulk Density - Compensated - Up
 ABDCLM   .g/cc         :24 Azimuthal Bulk Density - Compensated - Left
 ABDCRM   .g/cc         :25 Azimuthal Bulk Density - Compensated - Right
 ABDCDM   .g/cc         :26 Azimuthal Bulk Density - Compensated - Down
 ABDC1M   .g/cc         :27 Azimuthal Bulk Density - Compensated - Sector 1
 ABDC2M   .g/cc         :28 Azimuthal Bulk Density - Compensated - Sector 2
 ABDC3M   .g/cc         :29 Azimuthal Bulk Density - Compensated - Sector 3
 ABDC4M   .g/cc         :30 Azimuthal Bulk Density - Compensated - Sector 4
 ABDC5M   .g/cc         :31 Azimuthal Bulk Density - Compensated - Sector 5
 ABDC6M   .g/cc         :32 Azimuthal Bulk Density - Compensated - Sector 6
 ABDC7M   .g/cc         :33 Azimuthal Bulk Density - Compensated - Sector 7
 ABDC8M   .g/cc         :34 Azimuthal Bulk Density - Compensated - Sector 8
 ABDC9M   .g/cc         :35 Azimuthal Bulk Density - Compensated - Sector 9
 ABDC10M  .g/cc         :36 Azimuthal Bulk Density - Compensated - Sector 10
 ABDC11M  .g/cc         :37 Azimuthal Bulk Density - Compensated - Sector 11
 ABDC12M  .g/cc         :38 Azimuthal Bulk Density - Compensated - Sector 12
 ABDC13M  .g/cc         :39 Azimuthal Bulk Density - Compensated - Sector 13
 ABDC14M  .g/cc         :40 Azimuthal Bulk Density - Compensated - Sector 14
 ABDC15M  .g/cc         :41 Azimuthal Bulk Density - Compensated - Sector 15
 ABDC16M  .g/cc         :42 Azimuthal Bulk Density - Compensated - Sector 16
 ABDCM    .g/cc         :43 Azimuthal Bulk Density Compensated Image
 GRAS0M   .API          :44 Azimuthal Gamma Ray - Apparent - Sector 0
 GRAS1M   .API          :45 Azimuthal Gamma Ray - Apparent - Sector 1
 GRAS2M   .API          :46 Azimuthal Gamma Ray - Apparent - Sector 2
 GRAS3M   .API          :47 Azimuthal Gamma Ray - Apparent - Sector 3
 GRAS4M   .API          :48 Azimuthal Gamma Ray - Apparent - Sector 4
 GRAS5M   .API          :49 Azimuthal Gamma Ray - Apparent - Sector 5
 GRAS6M   .API          :50 Azimuthal Gamma Ray - Apparent - Sector 6
 GRAS7M   .API          :51 Azimuthal Gamma Ray - Apparent - Sector 7
 GRASM    .API          :52 Gamma Ray Apparent Sector Image
~Parameter Information Section
#MNEM.UNIT                  VALUE                   DESCRIPTION
#----.----     ----------------------------------   --------------------
~Other Information Section
Disclaimer
Baker Hughes INTEQ does not guarantee the accuracy  or correctness
of  interpretations  provided  in  or  from this  data. Since  all
interpretations  are  opinions based on measurements, Baker Hughes
INTEQ  shall  under no  circumstances   be  held  responsible  for
consequential damages or any other loss, costs, damages or expenses
incurred  or  sustained  in  connection  with  the use of any such
interpretations. Baker  Hughes INTEQ  disclaims  all expressed and
implied  warranties  related to  its  service which is governed by
Baker Hughes INTEQ's standard terms and conditions.
#----------------------------------------------------------------------
 

~A  DEPTH   APRESM    GRAFM     RACELM    RPCELM    RACEHM    RPCEHM     RACESLM   RPCESLM    RACESHM   RPCESHM    RPTHM     NPCKLFM   DPEFM     BDCFM     DRHFM       TVD   BLOCKCOMP   INNM     ROP_AVG   WOB_AVG    TCDM     ABDCUM    ABDCLM    ABDCRM    ABDCDM    ABDC1M    ABDC2M    ABDC3M    ABDC4M    ABDC5M    ABDC6M    ABDC7M    ABDC8M    ABDC9M    ABDC10M   ABDC11M   ABDC12M   ABDC13M   ABDC14M   ABDC15M   ABDC16M   ABDCM     GRAS0M    GRAS1M    GRAS2M    GRAS3M    GRAS4M    GRAS5M    GRAS6M    GRAS7M    GRASM   
# ...
 2169.2000 3195.0000   86.2169    2.8389    2.8503    2.7308     3.0640    2.7923     2.7722    2.6443     2.8046   44.2000   21.6129    3.1346    2.3891    0.0783 1602.5900    7.4800   89.6300   16.2900   75.4000   71.9000 -999.2500    2.3704 -999.2500 -999.2500 -999.2500 -999.2500 -999.2500 -999.2500 -999.2500 -999.2500 -999.2500 -999.2500 -999.2500 -999.2500 -999.2500    2.3704 -999.2500 -999.2500 -999.2500 -999.2500    2.3145   64.6113   74.8344  102.5049   92.8945   84.2689   78.5543   84.4594   83.5288   27.4245
 2169.3000 3205.0000   87.0287    2.8411    2.8668    2.7479     3.0913    2.8101     2.7885    2.6753     2.8251   44.2000   21.5684    3.1251    2.3965    0.0795 1602.5900    7.3900   89.5000   16.1900   75.1000   71.9000 -999.2500    2.3949 -999.2500 -999.2500 -999.2500 -999.2500 -999.2500 -999.2500 -999.2500 -999.2500 -999.2500 -999.2500 -999.2500 -999.2500 -999.2500    2.3949 -999.2500 -999.2500 -999.2500 -999.2500    2.3083   79.4085   78.4460   88.2657   95.0541   91.2696   88.0620   88.5603   76.7704   24.7237
 2169.4000 3196.0000   88.4749    2.8376    2.8702    2.7681     3.1042    2.7956     2.7954    2.7012     2.8242   44.1000   21.4958    3.1072    2.4047    0.0799 1602.5900    7.2800   89.6300   16.0900   74.4000   71.9000 -999.2500    2.4071 -999.2500 -999.2500 -999.2500 -999.2500 -999.2500 -999.2500 -999.2500 -999.2500 -999.2500 -999.2500 -999.2500 -999.2500 -999.2500    2.4071 -999.2500 -999.2500 -999.2500 -999.2500    2.3027   92.5587   79.1314   85.3145   94.7389  102.3121   79.8230   83.9740   81.1217   20.3573
 2169.5000 3192.0000   90.0134    2.8398    2.8767    2.7802     3.1112    2.8218     2.7944    2.7245     2.8223   44.0000   21.3326    3.0854    2.4110    0.0785 1602.5900    7.1600   89.6300   16.0000   73.7000   71.9000 -999.2500    2.4150 -999.2500 -999.2500 -999.2500 -999.2500 -999.2500 -999.2500 -999.2500 -999.2500 -999.2500 -999.2500 -999.2500 -999.2500 -999.2500    2.4150 -999.2500 -999.2500 -999.2500 -999.2500    2.2972   88.1212   68.7889  104.8076  115.9483  120.4982   87.1035   62.1705   94.8053   17.1416
 2169.6000 3199.0000   90.9035    2.8349    2.8841    2.7871     3.1231    2.8129     2.8053    2.7388     2.8184   44.1000   21.2182    3.0721    2.4151    0.0763 1602.5900    7.0800   89.5000   15.9000   74.1000   71.9000 -999.2500    2.4027 -999.2500 -999.2500 -999.2500 -999.2500 -999.2500 -999.2500 -999.2500 -999.2500 -999.2500 -999.2500 -999.2500 -999.2500 -999.2500    2.4027 -999.2500 -999.2500 -999.2500 -999.2500    2.2916   61.6504   75.7323   80.6784  116.5726  106.2606   78.0562   98.8910   77.8323   21.0341
 2169.7000 3193.0000   91.8639    2.8387    2.8941    2.8023     3.1408    2.8266     2.8103    2.7461     2.8262   44.1000   21.2448    3.0731    2.4181    0.0750 1602.5900    6.9800   89.5000   15.8000   74.5000   71.9000 -999.2500    2.4194 -999.2500 -999.2500 -999.2500 -999.2500 -999.2500 -999.2500 -999.2500 -999.2500 -999.2500 -999.2500 -999.2500 -999.2500 -999.2500    2.4194 -999.2500 -999.2500 -999.2500 -999.2500    2.2861   82.3802   79.9015  101.7928  103.7174  101.9680   85.7874   81.1590   76.6050   22.5760
 2169.8000 3180.0000   91.9455    2.8447    2.9057    2.8114     3.1825    2.8108     2.8294    2.7614     2.8582   44.1000   21.7178    3.0901    2.4207    0.0756 1602.5900    6.8900   89.5000   15.7100   75.0000   72.0000 -999.2500    2.4069 -999.2500 -999.2500 -999.2500 -999.2500 -999.2500 -999.2500 -999.2500 -999.2500 -999.2500 -999.2500 -999.2500 -999.2500 -999.2500    2.4069 -999.2500 -999.2500 -999.2500 -999.2500    2.2805   84.5767   82.9378   88.8946  101.2971  105.0752  100.3464   71.9196   95.1970   19.7071
 2169.9000 3202.0000   92.3787    2.8445    2.9247    2.8234     3.2259    2.8179     2.8549    2.7744     2.8949   44.0000   21.9418    3.1240    2.4230    0.0777 1602.5900    6.7800   89.5000   15.6100   75.1000   72.0000 -999.2500    2.4095 -999.2500 -999.2500 -999.2500 -999.2500 -999.2500 -999.2500 -999.2500 -999.2500 -999.2500 -999.2500 -999.2500 -999.2500 -999.2500    2.4095 -999.2500 -999.2500 -999.2500 -999.2500    2.2749   85.2575   79.3685   93.6512  106.3185  104.8905   98.9683   75.2015   92.8346   21.3423
 2170.0000 3194.0000   92.8756    2.8445    2.9371    2.8293     3.2523    2.8180     2.8672    2.7799     2.9187   43.9000   21.8034    3.1726    2.4244    0.0796 1602.5900    6.6400   89.6300   15.5100   75.3000   72.0000 -999.2500    2.4320 -999.2500 -999.2500 -999.2500 -999.2500 -999.2500 -999.2500 -999.2500 -999.2500 -999.2500 -999.2500 -999.2500 -999.2500 -999.2500    2.4320 -999.2500 -999.2500 -999.2500 -999.2500    2.2747   85.7679   76.6919   97.2181  110.0840  104.7520   97.9349   77.6627   91.0630   22.5685
 2170.1000 3197.0000   94.1296    2.8462    2.9457    2.8346     3.2677    2.8214     2.8806    2.7905     2.9313   44.0000   21.9880    3.2278    2.4247    0.0808 1602.5900    6.5800   89.5500   15.4100   75.3000   72.0000 -999.2500    2.4246 -999.2500 -999.2500 -999.2500 -999.2500 -999.2500 -999.2500 -999.2500 -999.2500 -999.2500 -999.2500 -999.2500 -999.2500 -999.2500    2.4246 -999.2500 -999.2500 -999.2500 -999.2500    2.2744   86.2784   74.0153  100.7851  113.8495  104.6134   96.9015   80.1238   89.2914   23.7948
 2170.2000 3200.0000   96.9403    2.8518    2.9564    2.8535     3.2872    2.8368     2.8844    2.8106     2.9425   44.0000   22.1176    3.2757    2.4253    0.0821 1602.5900    6.4800   89.5000   15.3400   75.3000   72.0000 -999.2500    2.4118 -999.2500 -999.2500 -999.2500 -999.2500 -999.2500 -999.2500 -999.2500 -999.2500 -999.2500 -999.2500 -999.2500 -999.2500 -999.2500    2.4118 -999.2500 -999.2500 -999.2500 -999.2500    2.2742   86.8193   71.1789  104.5650  117.8400  104.4666   95.8064   82.7320   87.4140   25.0943
 2170.3000 3207.0000   96.0450    2.8497    2.9724    2.8822     3.3032    2.8508     2.8921    2.8492     2.9416   44.2000   22.6598    3.3085    2.4278    0.0849 1602.6000    6.3700   89.6300   15.3700   75.3000   72.0000 -999.2500    2.4113 -999.2500 -999.2500 -999.2500 -999.2500 -999.2500 -999.2500 -999.2500 -999.2500 -999.2500 -999.2500 -999.2500 -999.2500 -999.2500    2.4113 -999.2500 -999.2500 -999.2500 -999.2500    2.2739   74.5369   80.4543  110.9610  124.0434   98.6479   94.3267   90.0515   85.9262   21.8967
 2170.4000 3194.0000   94.9321    2.8425    2.9758    2.8982     3.3056    2.8511     2.8858    2.8661     2.9321   44.3000   23.2066    3.3284    2.4328    0.0897 1602.6000    6.2800   89.5000   15.4000   75.1000   72.0000 -999.2500    2.4141 -999.2500 -999.2500 -999.2500 -999.2500 -999.2500 -999.2500 -999.2500 -999.2500 -999.2500 -999.2500 -999.2500 -999.2500 -999.2500    2.4141 -999.2500 -999.2500 -999.2500 -999.2500    2.2736   87.4600   83.4988  100.2927  117.8823  112.9825   94.5006   94.3834   85.4688   19.7440
 2170.5000 3191.0000   96.5779    2.8589    2.9778    2.9104     3.3094    2.8508     2.8900    2.8803     2.9235   44.2000   23.1565    3.3485    2.4391    0.0957 1602.6000    6.1800   89.5000   15.4200   74.8000   72.0000 -999.2500    2.4322 -999.2500 -999.2500 -999.2500 -999.2500 -999.2500 -999.2500 -999.2500 -999.2500 -999.2500 -999.2500 -999.2500 -999.2500 -999.2500    2.4322 -999.2500 -999.2500 -999.2500 -999.2500    2.2755   76.8144   81.6949  113.2654  122.4798   98.3942   96.1186   87.9046   91.5330   23.6308
 2170.6000 3208.0000   96.0127    2.8560    2.9870    2.9261     3.3155    2.8593     2.8984    2.8972     2.9313   44.1000   23.0021    3.3788    2.4445    0.1015 1602.6000    6.0900   89.5000   15.4500   74.6000   72.0000 -999.2500    2.4441 -999.2500 -999.2500 -999.2500 -999.2500 -999.2500 -999.2500 -999.2500 -999.2500 -999.2500 -999.2500 -999.2500 -999.2500 -999.2500    2.4441 -999.2500 -999.2500 -999.2500 -999.2500    2.2779   94.6880   74.4722  105.7096  113.4857  100.0096   94.4560   87.5090   97.9434   16.6859
 2170.7000 3194.0000   95.7239    2.8564    2.9922    2.9397     3.3193    2.8626     2.9068    2.9156     2.9286   44.3000   22.5830    3.4206    2.4486    0.1065 1602.6000    5.9800   89.5000   15.4700   75.3000   72.0000 -999.2500    2.4480 -999.2500 -999.2500 -999.2500 -999.2500 -999.2500 -999.2500 -999.2500 -999.2500 -999.2500 -999.2500 -999.2500 -999.2500 -999.2500    2.4480 -999.2500 -999.2500 -999.2500 -999.2500    2.2803   85.6001   99.7241  101.7348  100.8817   98.9846   74.9752   68.9254   71.4241   17.7804
