~Version Information Section
 VERS.      2.0         :CWLS LOG ASCII STANDARD -VERSION 2.0
 WRAP.      NO          :One line per depth step
 MERG.      YES         :Data merged using LAS tools (www.logtechcan.com)
~Well Information Section
#MNEM.UNIT               VALUE/NAME                 DESCRIPTION
#----.----     ----------------------------------   --------------------
 STRT.m           1950.0000                         :Start Depth
 STOP.m           2686.0000                         :Stop  Depth
 STEP.m              0.1000                         :Step  Depth
 NULL.            -999.2500                         :Null value
 COMP.         PetroCanada                          :Company Name
 WELL.         P11-A-02A                            :Well Name
 PATH.         P11-A-02A                            :Path Name
 FLD .         De Ruyter                            :Field Name
 LOC .         De Ruyter                            :Location
 PROV.         Unused                               :Province
 SRVC.         BAKER HUGHES INTEQ                   :Service Company Name
DATE.DD/MM/YYYY21/05/2007                           :Date
 UWI .                                              :Unique Well ID
 ZONE.Hrs      2                                    :Time zone difference from GMT
 ZONE.Hrs      1                                    :Time zone difference from GMT
~Curve Information Section
#MNEM     .UNIT         CURVE DESCRIPTION
#----     .----         -------------------------
 DEPTH    .m            :1 Depth Hole
 APRESM   .psi          :2 Annular Pressure **MERGED**
 GRAFM    .API          :3 Gamma Ray App [RWD]
 RACELM   .ohm.m        :4 Resistivity Attenuation - Corrected - CRIM - 400kHz
 RPCELM   .ohm.m        :5 Resistivity Phase - Corrected - CRIM - 400kHz
 RACEHM   .ohm.m        :6 Resistivity Attenuation - Corrected - CRIM - 2MHz
 RPCEHM   .ohm.m        :7 Resistivity Phase - Corrected - CRIM - 2MHz
 RACESLM  .ohm.m        :8 Resistivity Attenuation Short Spaced - Corrected - CRIM - 400kHz
 RPCESLM  .ohm.m        :9 Resistivity Phase Short Spaced - Corrected - CRIM - 400kHz
 RACESHM  .ohm.m        :10 Resistivity Attenuation Short Spaced - Corrected - CRIM - 2MHz
 RPCESHM  .ohm.m        :11 Resistivity Phase Short Spaced - Corrected - CRIM - 2MHz
 RPTHM    .min          :12 Resistivity Time Since Drilled
 NPCKLFM  .pu           :13 Neutron Porosity (ls) [RWD] caliper & salinity corrected
 DPEFM    .unitless     :14 Phototelectric Cross Sect [RWD]
 BDCFM    .g/cc         :15 Bulk Density Compensated [RWD]
 DRHFM    .g/cc         :16 Delta RHO - Density Correction [RWD]
 TVD      .m            :17 True Vertical Depth
 BLOCKCOMP.m            :18 Block/Topdrive Position Compensated
 INNM     .deg          :19 Inclination - Non-Rotating **MERGED**
 ROP_AVG  .m/hr         :20 Rate of Penetration
 WOB_AVG  .klbf         :21 Weight on Bit
 TCDM     .degC         :22 Downhole Temperature **MERGED**
 ABDCUM   .g/cc         :23 Azimuthal Bulk Density - Compensated - Up
 ABDCLM   .g/cc         :24 Azimuthal Bulk Density - Compensated - Left
 ABDCRM   .g/cc         :25 Azimuthal Bulk Density - Compensated - Right
 ABDCDM   .g/cc         :26 Azimuthal Bulk Density - Compensated - Down
 ABDC1M   .g/cc         :27 Azimuthal Bulk Density - Compensated - Sector 1
 ABDC2M   .g/cc         :28 Azimuthal Bulk Density - Compensated - Sector 2
 ABDC3M   .g/cc         :29 Azimuthal Bulk Density - Compensated - Sector 3
 ABDC4M   .g/cc         :30 Azimuthal Bulk Density - Compensated - Sector 4
 ABDC5M   .g/cc         :31 Azimuthal Bulk Density - Compensated - Sector 5
 ABDC6M   .g/cc         :32 Azimuthal Bulk Density - Compensated - Sector 6
 ABDC7M   .g/cc         :33 Azimuthal Bulk Density - Compensated - Sector 7
 ABDC8M   .g/cc         :34 Azimuthal Bulk Density - Compensated - Sector 8
 ABDC9M   .g/cc         :35 Azimuthal Bulk Density - Compensated - Sector 9
 ABDC10M  .g/cc         :36 Azimuthal Bulk Density - Compensated - Sector 10
 ABDC11M  .g/cc         :37 Azimuthal Bulk Density - Compensated - Sector 11
 ABDC12M  .g/cc         :38 Azimuthal Bulk Density - Compensated - Sector 12
 ABDC13M  .g/cc         :39 Azimuthal Bulk Density - Compensated - Sector 13
 ABDC14M  .g/cc         :40 Azimuthal Bulk Density - Compensated - Sector 14
 ABDC15M  .g/cc         :41 Azimuthal Bulk Density - Compensated - Sector 15
 ABDC16M  .g/cc         :42 Azimuthal Bulk Density - Compensated - Sector 16
 ABDCM    .g/cc         :43 Azimuthal Bulk Density Compensated Image
 GRAS0M   .API          :44 Azimuthal Gamma Ray - Apparent - Sector 0
 GRAS1M   .API          :45 Azimuthal Gamma Ray - Apparent - Sector 1
 GRAS2M   .API          :46 Azimuthal Gamma Ray - Apparent - Sector 2
 GRAS3M   .API          :47 Azimuthal Gamma Ray - Apparent - Sector 3
 GRAS4M   .API          :48 Azimuthal Gamma Ray - Apparent - Sector 4
 GRAS5M   .API          :49 Azimuthal Gamma Ray - Apparent - Sector 5
 GRAS6M   .API          :50 Azimuthal Gamma Ray - Apparent - Sector 6
 GRAS7M   .API          :51 Azimuthal Gamma Ray - Apparent - Sector 7
 GRASM    .API          :52 Gamma Ray Apparent Sector Image
~Parameter Information Section
#MNEM.UNIT                  VALUE                   DESCRIPTION
#----.----     ----------------------------------   --------------------
~Other Information Section
Disclaimer
Baker Hughes INTEQ does not guarantee the accuracy  or correctness
of  interpretations  provided  in  or  from this  data. Since  all
interpretations  are  opinions based on measurements, Baker Hughes
INTEQ  shall  under no  circumstances   be  held  responsible  for
consequential damages or any other loss, costs, damages or expenses
incurred  or  sustained  in  connection  with  the use of any such
interpretations. Baker  Hughes INTEQ  disclaims  all expressed and
implied  warranties  related to  its  service which is governed by
Baker Hughes INTEQ's standard terms and conditions.
#----------------------------------------------------------------------
 

~A  DEPTH   APRESM    GRAFM     RACELM    RPCELM    RACEHM    RPCEHM     RACESLM   RPCESLM    RACESHM   RPCESHM    RPTHM     NPCKLFM   DPEFM     BDCFM     DRHFM       TVD   BLOCKCOMP   INNM     ROP_AVG   WOB_AVG    TCDM     ABDCUM    ABDCLM    ABDCRM    ABDCDM    ABDC1M    ABDC2M    ABDC3M    ABDC4M    ABDC5M    ABDC6M    ABDC7M    ABDC8M    ABDC9M    ABDC10M   ABDC11M   ABDC12M   ABDC13M   ABDC14M   ABDC15M   ABDC16M   ABDCM     GRAS0M    GRAS1M    GRAS2M    GRAS3M    GRAS4M    GRAS5M    GRAS6M    GRAS7M    GRASM   
# ...
 2402.8000 3431.0000   37.0740    5.7356   18.3042   13.1087    31.0161 1636.0780    19.6796    9.0547    30.3909   34.7000   28.4930    2.6833    2.0999    0.0433 1603.9600   10.7500   89.6300   21.5400   14.9000   80.7000    2.0888    2.0729    2.1477    2.1093    2.1180    2.1437    2.1118    2.1605    2.1916    2.1331    2.1586    2.1588    2.0558    2.0776    2.0478    2.0237    2.1382    2.0945    2.0496    2.0448    2.1143   37.6188   37.4801   31.2132   24.7206   34.7443   39.4735   35.2095   35.9567   71.2304
 2402.9000 3426.0000   37.6276    9.9091   18.6980   15.3221    30.4529 1092.5622    19.2629   11.5930    29.4154   34.8000   28.6404    2.6777    2.0995    0.0428 1603.9600   10.6200   89.7500   22.1100   15.2000   80.7000    2.0878    2.0794    2.1230    2.1174    2.0717    2.1333    2.1343    2.1272    2.1210    2.1217    2.1333    2.1589    2.1209    2.0684    2.1196    2.0348    2.1125    2.0577    2.0634    2.0854    2.3226   37.0494   35.6592   31.1217   30.7055   36.1566   40.3870   34.5014   31.1136   71.0301
 2403.0000 3428.0000   38.3522 1097.9825   18.6428   13.3168    31.1955  413.4717    19.4127   15.9452    29.9741   35.1000   28.3324    2.6675    2.0996    0.0432 1603.9600   10.5500   89.7500   22.6900   15.1000   80.7000    2.0734    2.0879    2.0895    2.1315    2.0635    2.0872    2.0499    2.0681    2.1024    2.1501    2.1495    2.1317    2.1090    2.1382    2.1196    2.0968    2.0731    2.0704    2.0743    2.0747    2.2252   36.0928   32.5999   30.9679   40.7605   38.5292   41.9218   33.3118   22.9770   70.6936
 2403.1000 3416.0000   39.5307 2190.3157   18.3471   11.9755    31.3366 1636.0780    19.3637   10.3988    31.1035   35.2000   27.5674    2.6628    2.1002    0.0445 1603.9700   10.4500   89.7500   23.2700   14.9000   80.7000    2.0827    2.1128    2.0987    2.1619    2.1085    2.0678    2.1045    2.0749    2.1113    2.1050    2.1923    2.2108    2.1295    2.1279    2.1524    2.1580    2.1111    2.0427    2.0841    2.0743    2.4356   44.9866   33.3354   42.2781   43.8344   31.8802   32.9839   36.3934   29.1633   60.6654
 2403.2000 3425.0000   40.9493  734.6232   18.3479   11.9085    31.1014  810.1234    19.5332   22.2384    29.6861   35.3000   27.3326    2.6669    2.1013    0.0459 1603.9700   10.3500   89.7500   23.8500   14.8000   80.7000    2.0807    2.1110    2.0959    2.1477    2.0719    2.0817    2.1072    2.0642    2.0699    2.1422    2.1103    2.1793    2.1690    2.1451    2.1296    2.1473    2.1225    2.0578    2.0750    2.1012    2.4141   45.0473   43.2065   42.5814   35.6189   31.7775   37.2701   44.2657   50.3949   75.5489
 2403.3000 3430.0000   42.4416   29.5154   18.5864   15.1470    30.7480  821.0105    19.4891   22.9700    29.6359   35.5000   27.5904    2.6738    2.1030    0.0468 1603.9700   10.2100   89.7500   24.7100   14.6000   80.7000    2.0682    2.1244    2.0767    2.1778    2.0958    2.0309    2.0953    2.0308    2.1075    2.0715    2.1410    2.1730    2.2090    2.2055    2.1572    2.1120    2.0859    2.1443    2.0507    2.1090    2.3962   60.8505   47.0867   44.7443   36.3888   39.7043   49.7408   46.4377   47.6973   69.1262
 2403.4000 3416.0000   41.0203    9.7817   18.4338   17.5654    30.4571  549.4292    19.5740   10.0676    31.0477   35.7000   28.0632    2.6831    2.1053    0.0475 1603.9700   10.1500   89.7500   24.7900   14.8000   80.7000    2.0556    2.1088    2.1310    2.1060    2.0756    2.0676    2.0934    2.1781    2.1557    2.1029    2.1249    2.0960    2.1309    2.0848    2.1431    2.1009    2.1040    2.0910    2.0641    2.0217    2.1277   38.2828   35.4427   42.3883   34.1738   49.9251   34.7465   38.0154   31.9272   82.1862
 2403.5000 3442.0000   41.4434  776.3108   18.1210   13.2088    29.8711   12.5389    19.0793   11.1360    29.2591   35.9000   28.3230    2.6986    2.1072    0.0476 1603.9700   10.0500   89.7500   24.9400   15.1000   80.7000    2.1223    2.1075    2.1421    2.1138    2.0806    2.1517    2.0995    2.1860    2.1137    2.1798    2.1268    2.1240    2.0718    2.1369    2.1038    2.1158    2.0784    2.1349    2.1508    2.1129    2.2232   41.0482   41.6273   41.1286   45.8887   49.3191   46.4853   38.9305   40.6461   78.0258
 2403.6000 3439.0000   40.7836   10.4791   17.8867   13.9398    28.6379  412.3089    18.3754   14.0567    27.0769   36.3000   27.9472    2.7186    2.1072    0.0470 1603.9700    9.9500   89.7500   25.0900   15.5000   80.7000    2.1126    2.0695    2.1335    2.1336    2.1396    2.1564    2.1100    2.1876    2.1278    2.1224    2.1675    2.1504    2.0914    2.1335    2.0701    2.0635    2.0619    2.0865    2.0698    2.0916    2.2675   33.5691   47.2548   43.3782   35.2369   49.1644   51.9039   33.3938   33.0568   79.1580
 2403.7000 3435.0000   40.6983    9.5339   17.4675   13.8282    27.7079  659.2007    17.7649   10.4817    25.7896   36.8000   28.3487    2.7343    2.1052    0.0456 1603.9700    9.8500   89.7500   25.2500   15.8000   80.7000    2.1009    2.0827    2.1538    2.1391    2.0774    2.0987    2.1431    2.2174    2.1367    2.1344    2.1708    2.1032    2.1671    2.1217    2.1671    2.0360    2.0387    2.1066    2.1407    2.0904    2.3271   33.5323   35.7515   38.5747   33.8783   44.3054   52.8761   42.4643   29.5654   81.1429
 2403.8000 3438.0000   40.9518  637.1469   17.3215   12.0572    27.6170  704.4853    17.3476   12.5482    25.0403   37.6000   28.2045    2.7356    2.1019    0.0432 1603.9700    9.7800   89.7500   25.4000   16.0000   80.7000    2.0563    2.0623    2.1391    2.1099    2.0881    2.0506    2.0708    2.2120    2.1720    2.1214    2.1297    2.1030    2.0800    2.1267    2.1192    1.9750    2.0803    2.0853    2.0581    2.0304    2.2793   46.8162   46.4881   48.3082   39.0510   28.2500   44.5936   44.2618   37.0774   68.0923
 2403.9000 3440.0000   40.5132    6.4517   17.7498   16.6206    28.3534 1092.1388    18.0060   10.4535    27.0388   38.3000   27.6822    2.7198    2.0984    0.0398 1603.9700    9.6500   89.7500   25.5500   16.1000   80.7000    2.0649    2.0938    2.1085    2.1385    2.0747    2.0661    2.0776    2.1208    2.1232    2.1174    2.1417    2.1326    2.1554    2.1335    2.1275    2.0953    2.1099    2.0513    2.0705    2.0470    2.2489   42.6117   50.3303   43.9107   32.5924   40.5139   32.7934   35.2649   33.3756   80.1987
 2404.0000 3442.0000   40.9915  562.7010   18.0092   12.2055    29.7677  825.6225    18.5426   12.6211    28.4054   38.6000   26.9545    2.6907    2.0954    0.0358 1603.9700    9.5500   89.7500   25.7000   16.1000   80.8000    2.0487    2.0772    2.0944    2.1305    2.0179    2.0882    2.0621    2.1263    2.0464    2.1491    2.0654    2.1603    2.1323    2.1679    2.1309    2.0884    2.0569    2.0392    2.1007    1.9987    2.2515   37.3407   37.0335   43.8532   34.8350   29.9703   48.9097   36.6687   41.6461   81.5330
 2404.1000 3424.0000   40.6534  446.2330   18.0347   12.3768    30.1471  333.9288    19.1069   21.4547    29.2495   39.1000   26.8896    2.6642    2.0944    0.0330 1603.9700    9.4500   89.7500   25.8500   16.2000   80.8000    2.0467    2.1182    2.1097    2.1622    2.0347    2.0449    2.1066    2.0866    2.1237    2.1245    2.1570    2.1345    2.1772    2.1920    2.1609    2.1499    2.0911    2.0817    2.0539    2.0586    2.2047   43.8655   33.7936   33.7515   38.9804   47.4408   41.0018   43.1134   38.4877   82.1304
 2404.2000 3431.0000   41.2887    8.9613   18.2062   14.2756    30.0697  820.4342    18.9110   11.9773    29.2020   39.8000   27.4509    2.6601    2.0972    0.0335 1603.9700    9.3300   89.7500   26.0000   16.2000   80.8000    2.0394    2.0838    2.0949    2.0974    2.0207    2.0736    2.0883    2.0821    2.1020    2.1065    2.1005    2.1326    2.1185    2.0486    2.1073    2.0855    2.0590    2.0873    2.0450    2.0131    2.2909   40.9993   36.4309   46.4531   42.3863   32.7307   43.1604   28.4129   39.5950   81.8233
 2404.3000 3441.0000   40.8529  552.0219   17.9887   18.3409    30.0401  822.3309    18.6455    9.9644    29.0547   40.4000   28.1164    2.6826    2.1028    0.0370 1603.9700    9.2500   89.7700   26.1600   16.4000   80.8000    2.0516    2.0843    2.1197    2.1256    2.0667    2.0828    2.1046    2.1463    2.1182    2.1122    2.1100    2.1834    2.0794    2.1442    2.1324    2.1091    2.0432    2.0571    2.0228    2.0322    2.3215   38.8215   48.5725   49.3955   34.1847   49.7522   44.8095   30.2265   39.0903   65.5508
