~Version Information Section
 VERS.      2.0         :CWLS LOG ASCII STANDARD -VERSION 2.0
 WRAP.      NO          :One line per depth step
 MERG.      YES         :Data merged using LAS tools (www.logtechcan.com)
~Well Information Section
#MNEM.UNIT               VALUE/NAME                 DESCRIPTION
#----.----     ----------------------------------   --------------------
 STRT.m           1950.0000                         :Start Depth
 STOP.m           2686.0000                         :Stop  Depth
 STEP.m              0.1000                         :Step  Depth
 NULL.            -999.2500                         :Null value
 COMP.         PetroCanada                          :Company Name
 WELL.         P11-A-02A                            :Well Name
 PATH.         P11-A-02A                            :Path Name
 FLD .         De Ruyter                            :Field Name
 LOC .         De Ruyter                            :Location
 PROV.         Unused                               :Province
 SRVC.         BAKER HUGHES INTEQ                   :Service Company Name
DATE.DD/MM/YYYY21/05/2007                           :Date
 UWI .                                              :Unique Well ID
 ZONE.Hrs      2                                    :Time zone difference from GMT
 ZONE.Hrs      1                                    :Time zone difference from GMT
~Curve Information Section
#MNEM     .UNIT         CURVE DESCRIPTION
#----     .----         -------------------------
 DEPTH    .m            :1 Depth Hole
 APRESM   .psi          :2 Annular Pressure **MERGED**
 GRAFM    .API          :3 Gamma Ray App [RWD]
 RACELM   .ohm.m        :4 Resistivity Attenuation - Corrected - CRIM - 400kHz
 RPCELM   .ohm.m        :5 Resistivity Phase - Corrected - CRIM - 400kHz
 RACEHM   .ohm.m        :6 Resistivity Attenuation - Corrected - CRIM - 2MHz
 RPCEHM   .ohm.m        :7 Resistivity Phase - Corrected - CRIM - 2MHz
 RACESLM  .ohm.m        :8 Resistivity Attenuation Short Spaced - Corrected - CRIM - 400kHz
 RPCESLM  .ohm.m        :9 Resistivity Phase Short Spaced - Corrected - CRIM - 400kHz
 RACESHM  .ohm.m        :10 Resistivity Attenuation Short Spaced - Corrected - CRIM - 2MHz
 RPCESHM  .ohm.m        :11 Resistivity Phase Short Spaced - Corrected - CRIM - 2MHz
 RPTHM    .min          :12 Resistivity Time Since Drilled
 NPCKLFM  .pu           :13 Neutron Porosity (ls) [RWD] caliper & salinity corrected
 DPEFM    .unitless     :14 Phototelectric Cross Sect [RWD]
 BDCFM    .g/cc         :15 Bulk Density Compensated [RWD]
 DRHFM    .g/cc         :16 Delta RHO - Density Correction [RWD]
 TVD      .m            :17 True Vertical Depth
 BLOCKCOMP.m            :18 Block/Topdrive Position Compensated
 INNM     .deg          :19 Inclination - Non-Rotating **MERGED**
 ROP_AVG  .m/hr         :20 Rate of Penetration
 WOB_AVG  .klbf         :21 Weight on Bit
 TCDM     .degC         :22 Downhole Temperature **MERGED**
 ABDCUM   .g/cc         :23 Azimuthal Bulk Density - Compensated - Up
 ABDCLM   .g/cc         :24 Azimuthal Bulk Density - Compensated - Left
 ABDCRM   .g/cc         :25 Azimuthal Bulk Density - Compensated - Right
 ABDCDM   .g/cc         :26 Azimuthal Bulk Density - Compensated - Down
 ABDC1M   .g/cc         :27 Azimuthal Bulk Density - Compensated - Sector 1
 ABDC2M   .g/cc         :28 Azimuthal Bulk Density - Compensated - Sector 2
 ABDC3M   .g/cc         :29 Azimuthal Bulk Density - Compensated - Sector 3
 ABDC4M   .g/cc         :30 Azimuthal Bulk Density - Compensated - Sector 4
 ABDC5M   .g/cc         :31 Azimuthal Bulk Density - Compensated - Sector 5
 ABDC6M   .g/cc         :32 Azimuthal Bulk Density - Compensated - Sector 6
 ABDC7M   .g/cc         :33 Azimuthal Bulk Density - Compensated - Sector 7
 ABDC8M   .g/cc         :34 Azimuthal Bulk Density - Compensated - Sector 8
 ABDC9M   .g/cc         :35 Azimuthal Bulk Density - Compensated - Sector 9
 ABDC10M  .g/cc         :36 Azimuthal Bulk Density - Compensated - Sector 10
 ABDC11M  .g/cc         :37 Azimuthal Bulk Density - Compensated - Sector 11
 ABDC12M  .g/cc         :38 Azimuthal Bulk Density - Compensated - Sector 12
 ABDC13M  .g/cc         :39 Azimuthal Bulk Density - Compensated - Sector 13
 ABDC14M  .g/cc         :40 Azimuthal Bulk Density - Compensated - Sector 14
 ABDC15M  .g/cc         :41 Azimuthal Bulk Density - Compensated - Sector 15
 ABDC16M  .g/cc         :42 Azimuthal Bulk Density - Compensated - Sector 16
 ABDCM    .g/cc         :43 Azimuthal Bulk Density Compensated Image
 GRAS0M   .API          :44 Azimuthal Gamma Ray - Apparent - Sector 0
 GRAS1M   .API          :45 Azimuthal Gamma Ray - Apparent - Sector 1
 GRAS2M   .API          :46 Azimuthal Gamma Ray - Apparent - Sector 2
 GRAS3M   .API          :47 Azimuthal Gamma Ray - Apparent - Sector 3
 GRAS4M   .API          :48 Azimuthal Gamma Ray - Apparent - Sector 4
 GRAS5M   .API          :49 Azimuthal Gamma Ray - Apparent - Sector 5
 GRAS6M   .API          :50 Azimuthal Gamma Ray - Apparent - Sector 6
 GRAS7M   .API          :51 Azimuthal Gamma Ray - Apparent - Sector 7
 GRASM    .API          :52 Gamma Ray Apparent Sector Image
~Parameter Information Section
#MNEM.UNIT                  VALUE                   DESCRIPTION
#----.----     ----------------------------------   --------------------
~Other Information Section
Disclaimer
Baker Hughes INTEQ does not guarantee the accuracy  or correctness
of  interpretations  provided  in  or  from this  data. Since  all
interpretations  are  opinions based on measurements, Baker Hughes
INTEQ  shall  under no  circumstances   be  held  responsible  for
consequential damages or any other loss, costs, damages or expenses
incurred  or  sustained  in  connection  with  the use of any such
interpretations. Baker  Hughes INTEQ  disclaims  all expressed and
implied  warranties  related to  its  service which is governed by
Baker Hughes INTEQ's standard terms and conditions.
#----------------------------------------------------------------------
 

~A  DEPTH   APRESM    GRAFM     RACELM    RPCELM    RACEHM    RPCEHM     RACESLM   RPCESLM    RACESHM   RPCESHM    RPTHM     NPCKLFM   DPEFM     BDCFM     DRHFM       TVD   BLOCKCOMP   INNM     ROP_AVG   WOB_AVG    TCDM     ABDCUM    ABDCLM    ABDCRM    ABDCDM    ABDC1M    ABDC2M    ABDC3M    ABDC4M    ABDC5M    ABDC6M    ABDC7M    ABDC8M    ABDC9M    ABDC10M   ABDC11M   ABDC12M   ABDC13M   ABDC14M   ABDC15M   ABDC16M   ABDCM     GRAS0M    GRAS1M    GRAS2M    GRAS3M    GRAS4M    GRAS5M    GRAS6M    GRAS7M    GRASM   
# ...
 2262.0000 3265.0000   83.7343    7.7879    4.2339    3.9793     4.2008    2.3255     3.9121    4.2198     3.7345   51.9000   23.3976    2.8775    2.3332    0.0666 1603.2100    3.4900   89.7500   11.9600   75.3000   77.9000    2.3475    2.4093    2.3050    2.3242    2.3654    2.3209    2.3516    2.3127    2.2768    2.2833    2.2990    2.3587    2.3082    2.3408    2.3736    2.4443    2.4060    2.4193    2.3543    2.3545    2.2837   79.8587   82.0069   98.6998   82.7110   78.8239   71.5651   97.3458   99.9522   52.2945
 2262.1000 3270.0000   83.2522    6.2351    4.2287    4.3788     4.1862    3.3877     3.9034    4.0734     3.7422   51.9000   23.7341    2.8733    2.3324    0.0691 1603.2100    3.4100   89.7200   12.2600   75.7000   77.9000    2.3594    2.3485    2.3197    2.3205    2.3069    2.3405    2.3403    2.3233    2.3203    2.3017    2.3030    2.3511    2.3403    2.2969    2.2870    2.3725    2.3447    2.4131    2.3818    2.4320    2.2819   76.4484   80.2746   87.7118   79.1313   71.4272   74.7046   95.9980  101.0607   46.5636
 2262.2000 3272.0000   81.2618    6.1014    4.2078    4.1119     4.2102  820.6594     3.8791    3.8483     3.7571   51.8000   23.8081    2.8669    2.3313    0.0714 1603.2100    3.2900   89.6300   12.5500   75.7000   77.9000    2.3167    2.3986    2.3143    2.3423    2.2958    2.3019    2.2868    2.3471    2.2833    2.3463    2.3531    2.3036    2.3611    2.3561    2.2621    2.3790    2.4959    2.4946    2.3635    2.3109    2.2801   72.7265   78.3840   75.7201   75.2247   63.3549   78.1309   94.5271  102.2705   40.3091
 2262.3000 3267.0000   80.3111    4.9740    4.1905    4.1082     4.2068    4.4839     3.8482    3.7567     3.7339   51.8000   23.7140    2.8619    2.3287    0.0722 1603.2100    3.1900   89.6600   12.8500   75.7000   77.9000    2.3390    2.4237    2.3184    2.3276    2.2639    2.3261    2.3693    2.2582    2.2908    2.3613    2.3268    2.3585    2.3195    2.3120    2.3048    2.4533    2.5035    2.4671    2.4127    2.3790    2.2782   70.4180   77.2114   68.2824   72.8016   58.3481   80.2560   93.6148  103.0209   36.4298
 2262.4000 3268.0000   81.4112    4.6175    4.1377    4.3628     4.1268  819.3455     3.8112    4.1113     3.6417   51.8000   23.2027    2.8605    2.3251    0.0713 1603.2100    3.0900   89.7500   13.1500   75.7000   77.9000    2.3126    2.3842    2.2890    2.3130    2.2638    2.3228    2.3535    2.2470    2.2697    2.2936    2.2883    2.3282    2.3244    2.3167    2.3494    2.3546    2.4678    2.3784    2.3320    2.3450    2.2764   90.0443   79.4652   91.4397   72.2257   81.6072   76.2351   90.3163  101.4235   36.9414
 2262.5000 3276.0000   81.8055    6.3941    4.0711    3.7828     4.0402    5.2892     3.7376    3.4409     3.5715   51.7000   23.3252    2.8647    2.3223    0.0694 1603.2100    2.9900   89.7500   13.4500   75.7000   77.9000    2.3454    2.3809    2.3019    2.3121    2.2859    2.3019    2.3232    2.3417    2.2745    2.2707    2.2656    2.2875    2.4512    2.2625    2.3436    2.3499    2.4365    2.4049    2.4017    2.4174    2.2746   93.9953   80.3795   87.1610   79.0328   81.4939   72.6496   87.0763   96.6155   35.8354
 2262.6000 3280.0000   81.4063    3.1853    4.0321    3.6733     3.9540    6.2705     3.6976    3.5602     3.5087   51.8000   23.2250    2.8708    2.3216    0.0678 1603.2100    2.8900   89.7500   13.7500   75.7000   77.9000    2.2896    2.3674    2.2988    2.3437    2.2852    2.2491    2.3277    2.3143    2.2786    2.2787    2.3135    2.3574    2.3508    2.3554    2.3069    2.3922    2.3761    2.4042    2.3315    2.3073    2.2728  100.8526   81.9663   79.7351   90.8470   81.2974   66.4269   81.4533   88.2710   33.9157
 2262.7000 3272.0000   79.8573    4.3600    3.9731    4.1146     3.8716    6.6339     3.6412    3.7460     3.4666   51.5000   23.2333    2.8682    2.3227    0.0670 1603.2100    2.8300   89.7500   14.0500   75.7000   78.0000    2.3263    2.3731    2.3079    2.3320    2.2929    2.3420    2.2851    2.3455    2.3226    2.2870    2.3037    2.2880    2.3919    2.3589    2.3383    2.3456    2.4076    2.4235    2.3507    2.3228    2.2710  106.4936   83.2716   73.6262  100.5657   81.1357   61.3079   76.8276   81.4065   32.3366
 2262.8000 3276.0000   79.7020    5.0414    3.9419    3.7087     3.8476    4.7668     3.6116    3.6203     3.4310   51.5000   23.3642    2.8581    2.3242    0.0667 1603.2100    2.6900   89.7500   14.3500   74.6000   78.0000    2.3400    2.3882    2.3202    2.3387    2.3540    2.2517    2.2878    2.3200    2.3799    2.3021    2.2577    2.3987    2.3495    2.3532    2.4321    2.3592    2.4037    2.3666    2.3535    2.4308    2.2727   72.5810   88.9140   73.4030   78.5452   86.3402   78.3187   76.6412   73.7778   51.4081
 2262.9000 3277.0000   81.0129    3.6375    3.9264    3.5216     3.8210    2.9130     3.5893    3.2734     3.4082   51.4000   23.2358    2.8465    2.3243    0.0662 1603.2100    2.5800   89.7500   14.6400   73.6000   78.0000    2.3238    2.3503    2.3119    2.3256    2.2672    2.2930    2.2929    2.3367    2.2963    2.3305    2.3210    2.2781    2.3859    2.3265    2.2721    2.3322    2.4189    2.3995    2.3920    2.3691    2.2759   74.6011   83.8386   75.8252   81.9685   84.1377   82.6171   77.4794   72.7296   46.8523
 2263.0000 3272.0000   84.0578    4.8566    3.8942    4.0924     3.7648    2.6577     3.5461    3.5886     3.3590   51.3000   23.6929    2.8475    2.3227    0.0661 1603.2100    2.4900   89.7500   14.9400   74.4000   78.0000    2.3368    2.3568    2.3465    2.2982    2.3106    2.3426    2.3321    2.3782    2.3389    2.3437    2.2439    2.2884    2.3194    2.3462    2.2817    2.3252    2.4006    2.4306    2.3642    2.3358    2.2791   79.4759   71.5912   81.6701   90.2294   78.8228   92.9896   79.5021   70.2002   35.8589
 2263.1000 3274.0000   84.1494    8.7131    3.8283    3.4807     3.7211   15.0924     3.5024    3.7552     3.2649   51.3000   23.7764    2.8636    2.3196    0.0670 1603.2200    2.3900   89.7500   15.3600   75.3000   78.0000    2.3507    2.3809    2.3277    2.3090    2.3042    2.3254    2.3315    2.3693    2.3056    2.3100    2.2859    2.2933    2.3510    2.3072    2.3970    2.3442    2.3804    2.4041    2.4601    2.3397    2.2823   83.3641   75.4108   71.7048   87.6824   80.4190   92.1273   87.0397   71.7557   37.4664
 2263.2000 3280.0000   83.3362    4.0617    3.8018    3.7221     3.6014    5.8489     3.4231    3.5540     3.1769   51.2000   23.4987    2.8876    2.3162    0.0693 1603.2200    2.2900   89.7500   15.2700   76.3000   78.0000    2.3030    2.3335    2.2997    2.3327    2.2839    2.2596    2.3236    2.3211    2.2901    2.2729    2.3233    2.3145    2.3647    2.3335    2.2840    2.3067    2.3456    2.4021    2.3568    2.3275    2.2855   87.5229   79.4963   61.0456   84.9581   82.1264   91.2048   95.1021   73.4195   39.1859
 2263.3000 3277.0000   83.0246    3.9817    3.7413    3.9313     3.4943  823.7762     3.3482    3.0947     3.0603   51.0000   23.8325    2.9140    2.3138    0.0722 1603.2200    2.1900   89.7500   15.1200   75.4000   78.0000    2.2670    2.3356    2.2790    2.3428    2.2284    2.3067    2.2908    2.2564    2.3422    2.2324    2.2631    2.3243    2.4249    2.3635    2.3004    2.3412    2.3390    2.3656    2.2724    2.2661    2.2887   77.9482  101.1751   77.0290  102.6037   79.4076   73.0844   77.7306  100.4324   38.5164
 2263.4000 3269.0000   82.0480   10.4572    3.6963    3.7102     3.4361  823.0461     3.3216    3.4429     2.9967   50.8000   23.3932    2.9345    2.3124    0.0738 1603.2200    2.1000   89.7500   14.9700   74.6000   78.0000    2.3195    2.3351    2.2952    2.3300    2.3282    2.3647    2.3007    2.2845    2.2691    2.3307    2.3156    2.2934    2.3944    2.3207    2.3533    2.3365    2.3367    2.3187    2.3073    2.2830    2.2920   84.0685   85.3509   82.8827   93.9529   93.9907   80.7296   69.1228   81.4119   24.9404
 2263.5000 3269.0000   79.5174    3.5653    3.6977    3.5063     3.4461    4.1224     3.3189    3.6494     3.0183   50.7000   23.6768    2.9429    2.3118    0.0734 1603.2200    1.9900   89.6700   14.8300   75.2000   78.0000    2.3040    2.3420    2.3029    2.3227    2.3070    2.3322    2.3369    2.3077    2.3246    2.2492    2.3028    2.3212    2.3803    2.2978    2.3236    2.3373    2.3865    2.3251    2.2952    2.2845    2.2952   75.4424   79.2934   88.0935   80.8697   87.8501   75.2651   68.2324   81.5924   31.8806
