~Version Information Section
 VERS.      2.0         :CWLS LOG ASCII STANDARD -VERSION 2.0
 WRAP.      NO          :One line per depth step
 MERG.      YES         :Data merged using LAS tools (www.logtechcan.com)
~Well Information Section
#MNEM.UNIT               VALUE/NAME                 DESCRIPTION
#----.----     ----------------------------------   --------------------
 STRT.m           1950.0000                         :Start Depth
 STOP.m           2686.0000                         :Stop  Depth
 STEP.m              0.1000                         :Step  Depth
 NULL.            -999.2500                         :Null value
 COMP.         PetroCanada                          :Company Name
 WELL.         P11-A-02A                            :Well Name
 PATH.         P11-A-02A                            :Path Name
 FLD .         De Ruyter                            :Field Name
 LOC .         De Ruyter                            :Location
 PROV.         Unused                               :Province
 SRVC.         BAKER HUGHES INTEQ                   :Service Company Name
DATE.DD/MM/YYYY21/05/2007                           :Date
 UWI .                                              :Unique Well ID
 ZONE.Hrs      2                                    :Time zone difference from GMT
 ZONE.Hrs      1                                    :Time zone difference from GMT
~Curve Information Section
#MNEM     .UNIT         CURVE DESCRIPTION
#----     .----         -------------------------
 DEPTH    .m            :1 Depth Hole
 APRESM   .psi          :2 Annular Pressure **MERGED**
 GRAFM    .API          :3 Gamma Ray App [RWD]
 RACELM   .ohm.m        :4 Resistivity Attenuation - Corrected - CRIM - 400kHz
 RPCELM   .ohm.m        :5 Resistivity Phase - Corrected - CRIM - 400kHz
 RACEHM   .ohm.m        :6 Resistivity Attenuation - Corrected - CRIM - 2MHz
 RPCEHM   .ohm.m        :7 Resistivity Phase - Corrected - CRIM - 2MHz
 RACESLM  .ohm.m        :8 Resistivity Attenuation Short Spaced - Corrected - CRIM - 400kHz
 RPCESLM  .ohm.m        :9 Resistivity Phase Short Spaced - Corrected - CRIM - 400kHz
 RACESHM  .ohm.m        :10 Resistivity Attenuation Short Spaced - Corrected - CRIM - 2MHz
 RPCESHM  .ohm.m        :11 Resistivity Phase Short Spaced - Corrected - CRIM - 2MHz
 RPTHM    .min          :12 Resistivity Time Since Drilled
 NPCKLFM  .pu           :13 Neutron Porosity (ls) [RWD] caliper & salinity corrected
 DPEFM    .unitless     :14 Phototelectric Cross Sect [RWD]
 BDCFM    .g/cc         :15 Bulk Density Compensated [RWD]
 DRHFM    .g/cc         :16 Delta RHO - Density Correction [RWD]
 TVD      .m            :17 True Vertical Depth
 BLOCKCOMP.m            :18 Block/Topdrive Position Compensated
 INNM     .deg          :19 Inclination - Non-Rotating **MERGED**
 ROP_AVG  .m/hr         :20 Rate of Penetration
 WOB_AVG  .klbf         :21 Weight on Bit
 TCDM     .degC         :22 Downhole Temperature **MERGED**
 ABDCUM   .g/cc         :23 Azimuthal Bulk Density - Compensated - Up
 ABDCLM   .g/cc         :24 Azimuthal Bulk Density - Compensated - Left
 ABDCRM   .g/cc         :25 Azimuthal Bulk Density - Compensated - Right
 ABDCDM   .g/cc         :26 Azimuthal Bulk Density - Compensated - Down
 ABDC1M   .g/cc         :27 Azimuthal Bulk Density - Compensated - Sector 1
 ABDC2M   .g/cc         :28 Azimuthal Bulk Density - Compensated - Sector 2
 ABDC3M   .g/cc         :29 Azimuthal Bulk Density - Compensated - Sector 3
 ABDC4M   .g/cc         :30 Azimuthal Bulk Density - Compensated - Sector 4
 ABDC5M   .g/cc         :31 Azimuthal Bulk Density - Compensated - Sector 5
 ABDC6M   .g/cc         :32 Azimuthal Bulk Density - Compensated - Sector 6
 ABDC7M   .g/cc         :33 Azimuthal Bulk Density - Compensated - Sector 7
 ABDC8M   .g/cc         :34 Azimuthal Bulk Density - Compensated - Sector 8
 ABDC9M   .g/cc         :35 Azimuthal Bulk Density - Compensated - Sector 9
 ABDC10M  .g/cc         :36 Azimuthal Bulk Density - Compensated - Sector 10
 ABDC11M  .g/cc         :37 Azimuthal Bulk Density - Compensated - Sector 11
 ABDC12M  .g/cc         :38 Azimuthal Bulk Density - Compensated - Sector 12
 ABDC13M  .g/cc         :39 Azimuthal Bulk Density - Compensated - Sector 13
 ABDC14M  .g/cc         :40 Azimuthal Bulk Density - Compensated - Sector 14
 ABDC15M  .g/cc         :41 Azimuthal Bulk Density - Compensated - Sector 15
 ABDC16M  .g/cc         :42 Azimuthal Bulk Density - Compensated - Sector 16
 ABDCM    .g/cc         :43 Azimuthal Bulk Density Compensated Image
 GRAS0M   .API          :44 Azimuthal Gamma Ray - Apparent - Sector 0
 GRAS1M   .API          :45 Azimuthal Gamma Ray - Apparent - Sector 1
 GRAS2M   .API          :46 Azimuthal Gamma Ray - Apparent - Sector 2
 GRAS3M   .API          :47 Azimuthal Gamma Ray - Apparent - Sector 3
 GRAS4M   .API          :48 Azimuthal Gamma Ray - Apparent - Sector 4
 GRAS5M   .API          :49 Azimuthal Gamma Ray - Apparent - Sector 5
 GRAS6M   .API          :50 Azimuthal Gamma Ray - Apparent - Sector 6
 GRAS7M   .API          :51 Azimuthal Gamma Ray - Apparent - Sector 7
 GRASM    .API          :52 Gamma Ray Apparent Sector Image
~Parameter Information Section
#MNEM.UNIT                  VALUE                   DESCRIPTION
#----.----     ----------------------------------   --------------------
~Other Information Section
Disclaimer
Baker Hughes INTEQ does not guarantee the accuracy  or correctness
of  interpretations  provided  in  or  from this  data. Since  all
interpretations  are  opinions based on measurements, Baker Hughes
INTEQ  shall  under no  circumstances   be  held  responsible  for
consequential damages or any other loss, costs, damages or expenses
incurred  or  sustained  in  connection  with  the use of any such
interpretations. Baker  Hughes INTEQ  disclaims  all expressed and
implied  warranties  related to  its  service which is governed by
Baker Hughes INTEQ's standard terms and conditions.
#----------------------------------------------------------------------
 

~A  DEPTH   APRESM    GRAFM     RACELM    RPCELM    RACEHM    RPCEHM     RACESLM   RPCESLM    RACESHM   RPCESHM    RPTHM     NPCKLFM   DPEFM     BDCFM     DRHFM       TVD   BLOCKCOMP   INNM     ROP_AVG   WOB_AVG    TCDM     ABDCUM    ABDCLM    ABDCRM    ABDCDM    ABDC1M    ABDC2M    ABDC3M    ABDC4M    ABDC5M    ABDC6M    ABDC7M    ABDC8M    ABDC9M    ABDC10M   ABDC11M   ABDC12M   ABDC13M   ABDC14M   ABDC15M   ABDC16M   ABDCM     GRAS0M    GRAS1M    GRAS2M    GRAS3M    GRAS4M    GRAS5M    GRAS6M    GRAS7M    GRASM   
# ...
 2122.8000 3162.0000   85.5443    4.0370    3.9305    3.6246     4.2700    3.8186     3.7955    3.5093     3.9551   20.6000   20.8915    3.2535    2.4009    0.0878 1602.1900   24.6100   89.5800   14.2000   78.8000   68.1000    2.4796    2.5838    2.2976    2.3886    2.5232    2.3809    2.2391    2.2878    2.3037    2.3728    2.2864    2.3893    2.3738    2.5339    2.6160    2.5535    2.5350    2.6368    2.5908    2.4553    2.3685   84.7536   83.4183   82.6671   84.1571   82.6977   82.7350   87.4043   89.6423   44.3789
 2122.9000 3141.0000   85.2910    4.0335    3.9079    3.6041     4.2705    3.8169     3.7928    3.4853     3.9692   20.6000   21.0893    3.2575    2.4038    0.0882 1602.1900   24.5200   89.6300   14.1000   79.4000   68.2000    2.5108    2.6480    2.2916    2.3685    2.5517    2.3872    2.2853    2.2245    2.3120    2.3565    2.3477    2.2721    2.3992    2.4720    2.6735    2.6230    2.6306    2.6697    2.6192    2.5364    2.3682   91.8401   73.7479   76.5229   85.7006   79.8639   80.3409   75.0511   82.2128   31.8757
 2123.0000 3141.0000   86.8165    3.9923    3.8821    3.6040     4.2176    3.8168     3.7718    3.4759     3.9120   20.7000   21.3594    3.2287    2.4034    0.0852 1602.1900   24.4200   89.7100   14.4400   80.1000   68.2000    2.4849    2.5830    2.3262    2.3135    2.4843    2.3329    2.3183    2.3248    2.3067    2.3599    2.2621    2.2861    2.2786    2.4396    2.5804    2.6103    2.5846    2.5689    2.6546    2.5389    2.3679   94.1656   85.1105   87.9900   90.7270   79.4280   85.4818   80.1315   75.7958   28.6116
 2123.1000 3151.0000   88.6974    3.9944    3.8475    3.6025     4.1537    3.7869     3.7247    3.4633     3.8411   20.6000   21.5816    3.1859    2.4024    0.0820 1602.2000   24.3300   89.7500   14.9400   80.8000   68.2000    2.4810    2.5230    2.3114    2.3296    2.5267    2.3428    2.2944    2.2818    2.3700    2.3146    2.3082    2.3244    2.2698    2.4229    2.5220    2.4956    2.5570    2.5312    2.5788    2.5179    2.3644   96.0163   94.1534   97.1161   94.7273   79.0812   89.5731   84.1747   70.6889   26.0139
 2123.2000 3159.0000   89.4202    3.9876    3.8238    3.6057     4.1021    3.7940     3.6944    3.4646     3.7854   20.6000   21.3534    3.1501    2.4030    0.0817 1602.2000   24.2700   90.1300   15.4300   81.1000   68.2000    2.4070    2.5225    2.3427    2.3674    2.4069    2.3158    2.2983    2.3194    2.3927    2.3765    2.3497    2.3293    2.3863    2.4129    2.5284    2.5221    2.5294    2.5186    2.4426    2.4973    2.3608   81.2209  105.0642   90.7785   90.9099   88.2889   85.3454   88.2184   69.2684   24.5449
 2123.3000 3149.0000   91.2111    3.9608    3.8091    3.6027     4.0725    3.8210     3.6723    3.4671     3.7613   20.5000   21.5832    3.1263    2.4049    0.0852 1602.2000   24.2200   89.9000   15.9300   81.5000   68.2000    2.4052    2.4977    2.3440    2.3488    2.3539    2.3345    2.3201    2.3340    2.3723    2.3540    2.2827    2.3840    2.2829    2.4592    2.5161    2.5888    2.3917    2.5289    2.5044    2.4785    2.3573   86.7382   82.9124   93.4742   93.3670  113.8460   96.8486   93.2900   78.0503   38.7320
 2123.4000 3145.0000   90.7149    3.9488    3.8282    3.5986     4.1177    3.7918     3.6912    3.4660     3.8146   20.8000   21.4781    3.1149    2.4061    0.0904 1602.2000   24.1600   89.7500   16.4200   81.8000   68.2000    2.4452    2.5391    2.3575    2.3550    2.3724    2.3771    2.2662    2.3927    2.3625    2.4377    2.4068    2.4144    2.2786    2.3440    2.5325    2.5985    2.5360    2.5079    2.6266    2.4823    2.3537   89.1389   84.0873   84.4806   94.5398   96.4337   85.0166   93.6740   85.8059   42.9808
 2123.5000 3143.0000   92.3273    3.9557    3.8371    3.5848     4.1510    3.7832     3.7103    3.4495     3.8472   21.0000   21.1307    3.1067    2.4044    0.0931 1602.2000   24.1100   89.6300   16.9200   82.2000   68.2000    2.4384    2.5434    2.3606    2.3399    2.4137    2.3662    2.3156    2.3401    2.3849    2.4175    2.3378    2.3416    2.3130    2.3753    2.5287    2.6167    2.5277    2.5195    2.5424    2.4769    2.3501   88.9781  102.8593   92.6361  109.6154   92.1588   98.5545   81.4407  102.4660   45.7557
 2123.6000 3141.0000   88.9258    3.9425    3.8371    3.5545     4.1589    3.7545     3.7167    3.4231     3.8621   21.3000   21.2373    3.0990    2.3999    0.0918 1602.2000   24.0600   89.6700   17.4200   82.5000   68.2000    2.4049    2.5465    2.3547    2.3888    2.3698    2.2884    2.3395    2.3603    2.3980    2.3329    2.4115    2.4378    2.4198    2.3172    2.4945    2.5584    2.6217    2.5329    2.5275    2.4937    2.3466   73.1647   90.6250   94.7597   90.0814   98.9149   88.7763   83.5052   82.4141   31.9323
 2123.7000 3163.0000   87.2224    3.9424    3.8386    3.5465     4.1735    3.7667     3.7151    3.4119     3.8621   21.3000   21.4128    3.0873    2.3933    0.0876 1602.2000   23.9500   89.7500   17.9100   83.6000   68.2000    2.4107    2.5772    2.3318    2.3675    2.3411    2.2882    2.2959    2.3308    2.3617    2.3474    2.3405    2.3471    2.3874    2.4048    2.5293    2.5847    2.6030    2.6143    2.5969    2.4963    2.3430   73.9230   89.8054   97.1168   87.7314   99.8294   88.1382   86.4237   74.2251   38.3447
 2123.8000 3155.0000   87.2749    3.9282    3.8297    3.5544     4.1602    3.7479     3.7071    3.4259     3.8528   21.4000   21.8731    3.0724    2.3859    0.0826 1602.2000   23.8500   89.7500   18.4100   84.5000   68.2000    2.4148    2.5927    2.3008    2.3323    2.3002    2.2787    2.3376    2.2690    2.2926    2.3101    2.3473    2.3568    2.3002    2.3483    2.4626    2.6267    2.6590    2.6704    2.6356    2.5454    2.3403   75.0635   88.5728  100.6616   84.1972  101.2047   87.1786   90.8127   61.9098   47.9882
 2123.9000 3158.0000   87.2209    3.9198    3.8150    3.5768     4.1346    3.7698     3.6991    3.4337     3.8170   21.4000   21.8873    3.0603    2.3799    0.0788 1602.2100   23.7100   89.7500   18.9000   85.8000   68.2000    2.4596    2.5508    2.3380    2.3258    2.3990    2.3041    2.3256    2.3440    2.3481    2.3486    2.2959    2.3576    2.3290    2.3294    2.4277    2.5355    2.6833    2.5997    2.6464    2.5658    2.3364   83.0016   86.3471   81.6550  103.9020  111.6881   73.3209   85.5573   87.9764   27.1084
 2124.0000 3160.0000   88.8296    3.9162    3.8106    3.5998     4.1118    3.7762     3.6833    3.4759     3.8066   21.5000   21.4633    3.0515    2.3770    0.0772 1602.2100   23.6500   89.8800   19.4000   85.2000   68.2000    2.3821    2.4514    2.3170    2.3117    2.3827    2.2421    2.3039    2.2964    2.3440    2.3306    2.3692    2.2967    2.3248    2.2661    2.3568    2.4547    2.4878    2.5293    2.5558    2.4279    2.3324   85.5865   71.4891  113.5003  100.0288   96.4137   72.4228   76.1999   75.0141   21.5043
 2124.1000 3144.0000   90.6163    3.9024    3.7945    3.6240     4.1166    3.7410     3.6708    3.4626     3.7643   21.6000   21.3542    3.0395    2.3777    0.0777 1602.2100   23.5500   89.8800   19.8900   84.1000   68.2000    2.4043    2.4896    2.3285    2.3724    2.3579    2.2761    2.3174    2.3028    2.4024    2.2979    2.3578    2.4192    2.3960    2.3310    2.3410    2.5253    2.5232    2.6084    2.5815    2.4573    2.3284   91.5528   85.3436   94.3575   85.7998   99.0328   93.7024   89.5614   75.0662   23.6421
 2124.2000 3157.0000   90.7193    3.9252    3.8047    3.5840     4.1041    3.7394     3.6739    3.4598     3.7891   21.7000   21.2137    3.0149    2.3789    0.0782 1602.2100   23.4500   89.9400   20.3900   83.0000   68.2000    2.3852    2.5205    2.3493    2.3718    2.3876    2.2894    2.3292    2.3219    2.4192    2.3408    2.4124    2.3890    2.3490    2.3454    2.3991    2.5610    2.5666    2.5865    2.5402    2.3732    2.3244   80.9034   77.4246   97.5950   95.8756  105.8130   96.5408   94.2720   73.2611   45.9432
 2124.3000 3161.0000   91.2208    3.8862    3.8238    3.5621     4.1662    3.7189     3.7039    3.4341     3.8590   21.7000   21.9565    2.9789    2.3761    0.0766 1602.2100   23.3500   89.8200   20.8800   81.9000   68.3000    2.3894    2.4845    2.3426    2.3567    2.3396    2.3068    2.3331    2.4102    2.3121    2.3324    2.3573    2.3523    2.3686    2.3520    2.3950    2.4993    2.5353    2.5315    2.5148    2.4289    2.3205   82.5958   85.4530   90.9048   99.8872   99.6125   90.3815   98.4250   72.5692   47.0399
