~Version Information Section
 VERS.      2.0         :CWLS LOG ASCII STANDARD -VERSION 2.0
 WRAP.      NO          :One line per depth step
 MERG.      YES         :Data merged using LAS tools (www.logtechcan.com)
~Well Information Section
#MNEM.UNIT               VALUE/NAME                 DESCRIPTION
#----.----     ----------------------------------   --------------------
 STRT.m           1950.0000                         :Start Depth
 STOP.m           2686.0000                         :Stop  Depth
 STEP.m              0.1000                         :Step  Depth
 NULL.            -999.2500                         :Null value
 COMP.         PetroCanada                          :Company Name
 WELL.         P11-A-02A                            :Well Name
 PATH.         P11-A-02A                            :Path Name
 FLD .         De Ruyter                            :Field Name
 LOC .         De Ruyter                            :Location
 PROV.         Unused                               :Province
 SRVC.         BAKER HUGHES INTEQ                   :Service Company Name
DATE.DD/MM/YYYY21/05/2007                           :Date
 UWI .                                              :Unique Well ID
 ZONE.Hrs      2                                    :Time zone difference from GMT
 ZONE.Hrs      1                                    :Time zone difference from GMT
~Curve Information Section
#MNEM     .UNIT         CURVE DESCRIPTION
#----     .----         -------------------------
 DEPTH    .m            :1 Depth Hole
 APRESM   .psi          :2 Annular Pressure **MERGED**
 GRAFM    .API          :3 Gamma Ray App [RWD]
 RACELM   .ohm.m        :4 Resistivity Attenuation - Corrected - CRIM - 400kHz
 RPCELM   .ohm.m        :5 Resistivity Phase - Corrected - CRIM - 400kHz
 RACEHM   .ohm.m        :6 Resistivity Attenuation - Corrected - CRIM - 2MHz
 RPCEHM   .ohm.m        :7 Resistivity Phase - Corrected - CRIM - 2MHz
 RACESLM  .ohm.m        :8 Resistivity Attenuation Short Spaced - Corrected - CRIM - 400kHz
 RPCESLM  .ohm.m        :9 Resistivity Phase Short Spaced - Corrected - CRIM - 400kHz
 RACESHM  .ohm.m        :10 Resistivity Attenuation Short Spaced - Corrected - CRIM - 2MHz
 RPCESHM  .ohm.m        :11 Resistivity Phase Short Spaced - Corrected - CRIM - 2MHz
 RPTHM    .min          :12 Resistivity Time Since Drilled
 NPCKLFM  .pu           :13 Neutron Porosity (ls) [RWD] caliper & salinity corrected
 DPEFM    .unitless     :14 Phototelectric Cross Sect [RWD]
 BDCFM    .g/cc         :15 Bulk Density Compensated [RWD]
 DRHFM    .g/cc         :16 Delta RHO - Density Correction [RWD]
 TVD      .m            :17 True Vertical Depth
 BLOCKCOMP.m            :18 Block/Topdrive Position Compensated
 INNM     .deg          :19 Inclination - Non-Rotating **MERGED**
 ROP_AVG  .m/hr         :20 Rate of Penetration
 WOB_AVG  .klbf         :21 Weight on Bit
 TCDM     .degC         :22 Downhole Temperature **MERGED**
 ABDCUM   .g/cc         :23 Azimuthal Bulk Density - Compensated - Up
 ABDCLM   .g/cc         :24 Azimuthal Bulk Density - Compensated - Left
 ABDCRM   .g/cc         :25 Azimuthal Bulk Density - Compensated - Right
 ABDCDM   .g/cc         :26 Azimuthal Bulk Density - Compensated - Down
 ABDC1M   .g/cc         :27 Azimuthal Bulk Density - Compensated - Sector 1
 ABDC2M   .g/cc         :28 Azimuthal Bulk Density - Compensated - Sector 2
 ABDC3M   .g/cc         :29 Azimuthal Bulk Density - Compensated - Sector 3
 ABDC4M   .g/cc         :30 Azimuthal Bulk Density - Compensated - Sector 4
 ABDC5M   .g/cc         :31 Azimuthal Bulk Density - Compensated - Sector 5
 ABDC6M   .g/cc         :32 Azimuthal Bulk Density - Compensated - Sector 6
 ABDC7M   .g/cc         :33 Azimuthal Bulk Density - Compensated - Sector 7
 ABDC8M   .g/cc         :34 Azimuthal Bulk Density - Compensated - Sector 8
 ABDC9M   .g/cc         :35 Azimuthal Bulk Density - Compensated - Sector 9
 ABDC10M  .g/cc         :36 Azimuthal Bulk Density - Compensated - Sector 10
 ABDC11M  .g/cc         :37 Azimuthal Bulk Density - Compensated - Sector 11
 ABDC12M  .g/cc         :38 Azimuthal Bulk Density - Compensated - Sector 12
 ABDC13M  .g/cc         :39 Azimuthal Bulk Density - Compensated - Sector 13
 ABDC14M  .g/cc         :40 Azimuthal Bulk Density - Compensated - Sector 14
 ABDC15M  .g/cc         :41 Azimuthal Bulk Density - Compensated - Sector 15
 ABDC16M  .g/cc         :42 Azimuthal Bulk Density - Compensated - Sector 16
 ABDCM    .g/cc         :43 Azimuthal Bulk Density Compensated Image
 GRAS0M   .API          :44 Azimuthal Gamma Ray - Apparent - Sector 0
 GRAS1M   .API          :45 Azimuthal Gamma Ray - Apparent - Sector 1
 GRAS2M   .API          :46 Azimuthal Gamma Ray - Apparent - Sector 2
 GRAS3M   .API          :47 Azimuthal Gamma Ray - Apparent - Sector 3
 GRAS4M   .API          :48 Azimuthal Gamma Ray - Apparent - Sector 4
 GRAS5M   .API          :49 Azimuthal Gamma Ray - Apparent - Sector 5
 GRAS6M   .API          :50 Azimuthal Gamma Ray - Apparent - Sector 6
 GRAS7M   .API          :51 Azimuthal Gamma Ray - Apparent - Sector 7
 GRASM    .API          :52 Gamma Ray Apparent Sector Image
~Parameter Information Section
#MNEM.UNIT                  VALUE                   DESCRIPTION
#----.----     ----------------------------------   --------------------
~Other Information Section
Disclaimer
Baker Hughes INTEQ does not guarantee the accuracy  or correctness
of  interpretations  provided  in  or  from this  data. Since  all
interpretations  are  opinions based on measurements, Baker Hughes
INTEQ  shall  under no  circumstances   be  held  responsible  for
consequential damages or any other loss, costs, damages or expenses
incurred  or  sustained  in  connection  with  the use of any such
interpretations. Baker  Hughes INTEQ  disclaims  all expressed and
implied  warranties  related to  its  service which is governed by
Baker Hughes INTEQ's standard terms and conditions.
#----------------------------------------------------------------------
 

~A  DEPTH   APRESM    GRAFM     RACELM    RPCELM    RACEHM    RPCEHM     RACESLM   RPCESLM    RACESHM   RPCESHM    RPTHM     NPCKLFM   DPEFM     BDCFM     DRHFM       TVD   BLOCKCOMP   INNM     ROP_AVG   WOB_AVG    TCDM     ABDCUM    ABDCLM    ABDCRM    ABDCDM    ABDC1M    ABDC2M    ABDC3M    ABDC4M    ABDC5M    ABDC6M    ABDC7M    ABDC8M    ABDC9M    ABDC10M   ABDC11M   ABDC12M   ABDC13M   ABDC14M   ABDC15M   ABDC16M   ABDCM     GRAS0M    GRAS1M    GRAS2M    GRAS3M    GRAS4M    GRAS5M    GRAS6M    GRAS7M    GRASM   
# ...
 2030.0000 3077.0000   51.7772   12.4204   19.7167   13.9609    30.9013   10.9904    15.3857    9.7044    20.1590   14.8000   23.0724    2.5618    2.2747    0.0774 1599.6300   29.1700   87.6300   24.2600   14.4000   60.3000    2.2663    2.3745    2.2491    2.2481    2.1757    2.1779    2.2248    2.2851    2.2446    2.2490    2.2864    2.2384    2.2439    2.2275    2.2536    2.3104    2.4621    2.5280    2.4618    2.3126    2.2494   56.2925   41.0735   45.5385   53.0985   42.8275   45.0300   49.6862   78.3559   69.9938
 2030.1000 3071.0000   52.9347   13.5284   18.9159   13.4248    29.3255   13.3638    14.4609    9.4887    19.3603   14.8000   23.8153    2.5360    2.2648    0.0754 1599.6400   29.0700   87.6600   24.7400   14.5000   60.3000    2.2493    2.3845    2.2396    2.2256    2.2020    2.1920    2.2220    2.2079    2.2782    2.2550    2.2389    2.2237    2.2625    2.1853    2.2893    2.3570    2.4038    2.5093    2.3816    2.2490    2.2476   52.9074   51.8941   44.8068   50.2660   47.2600   45.4894   51.1765   76.5250   70.7868
 2030.2000 3073.0000   51.2774   13.5633   18.7806   13.7538    26.7433   10.6332    14.4247    9.9207    17.3247   14.8000   24.7097    2.5259    2.2525    0.0721 1599.6500   28.9700   87.7100   25.1000   14.7000   60.3000    2.2297    2.3119    2.2293    2.2470    2.2299    2.1852    2.2442    2.1958    2.2585    2.2232    2.2270    2.2649    2.2825    2.2252    2.2166    2.2687    2.3582    2.4329    2.2772    2.2390    2.2459   46.0563   73.7938   43.3260   44.5331   56.2306   46.4191   54.1929   72.8194   72.3917
 2030.3000 3075.0000   48.4823   14.0589   16.8075   12.3750    22.5063   10.5969    13.3543    9.3794    14.7498   14.8000   25.4556    2.5272    2.2409    0.0700 1599.6500   28.9100   87.7500   25.4600   14.7000   60.4000    2.2076    2.3010    2.1855    2.2646    2.1788    2.2010    2.2075    2.1735    2.1708    2.1957    2.2562    2.2780    2.2892    2.2386    2.1853    2.3100    2.3717    2.3739    2.2714    2.1897    2.2441   51.1185   62.4400   37.9632   46.4675   49.6538   41.2612   54.7586   56.1452   81.4974
 2030.4000 3077.0000   46.5969   13.5615   15.1885   12.3334    19.9200   12.2660    12.6257    9.2272    13.6639   18.5000   25.8382    2.5183    2.2308    0.0698 1599.6600   28.7700   87.7500   25.8200   14.9000   60.4000    2.2355    2.3134    2.2129    2.2207    2.2103    2.2131    2.1880    2.2123    2.1949    2.2587    2.2254    2.2449    2.2319    2.1877    2.2658    2.2875    2.3279    2.3815    2.2838    2.2500    2.2423   56.0011   51.4888   32.7905   48.3332   43.3103   36.2862   55.3042   40.0623   90.2802
 2030.5000 3058.0000   43.6185   12.4324   19.5229   14.0964    29.3545   11.0740    15.7161   10.0861    20.3870   25.8000   25.8082    2.4887    2.2210    0.0699 1599.6600   28.6700   87.7500   26.1800   15.0000   60.4000    2.2343    2.3225    2.1804    2.2241    2.2312    2.2095    2.1832    2.1933    2.1565    2.1938    2.2376    2.2588    2.1812    2.2314    2.3105    2.2894    2.2680    2.4337    2.2547    2.2542    2.2406   55.4120   41.1712   30.1802   40.7730   43.0393   44.3777   47.0322   43.0288   78.1656
 2030.6000 3047.0000   42.3797   12.8080   19.3095   13.8818    28.8968   10.9153    15.5284   10.0931    19.9782   25.9000   25.4499    2.4458    2.2094    0.0678 1599.6700   28.5700   87.7500   26.5400   15.1000   60.4000    2.2383    2.2727    2.1880    2.2018    2.2267    2.2318    2.2467    2.1674    2.1504    2.1973    2.2263    2.1879    2.1830    2.2182    2.2211    2.2786    2.2792    2.3219    2.3068    2.2038    2.2388   55.0766   35.2979   28.6944   36.4694   42.8851   48.9837   42.3234   44.7175   71.2694
 2030.7000 3061.0000   42.0612   12.7537   19.0766   13.6871    28.5741   11.3037    15.3245   10.1087    19.8361   26.0000   25.0019    2.4128    2.1963    0.0626 1599.6700   28.4700   87.7500   26.9000   15.3000   60.4000    2.1911    2.2262    2.1947    2.1858    2.1582    2.1960    2.1595    2.1744    2.2101    2.2432    2.2126    2.1730    2.2044    2.1615    2.2009    2.2277    2.2412    2.2428    2.2082    2.2175    2.2370   52.1738   36.6681   35.0898   34.5472   34.7726   44.3154   42.4351   48.3577   71.8562
 2030.8000 3061.0000   43.5464   12.9374   19.0071   13.5289    28.2559   12.0249    15.2229   10.1393    19.3265   26.0000   24.6859    2.4035    2.1855    0.0554 1599.6800   28.4100   87.7500   27.2600   15.3000   60.4000    2.1373    2.1740    2.1819    2.1927    2.1463    2.0885    2.1623    2.1590    2.2311    2.1901    2.1855    2.2215    2.1554    2.2172    2.1401    2.1695    2.1848    2.2085    2.1658    2.1623    2.2369   50.7431   37.3435   38.2420   33.5998   30.7741   42.0144   42.4901   50.1519   72.1454
 2030.9000 3062.0000   44.2015   12.8535   18.9854   13.5793    27.9317   11.2961    15.5695   10.2588    19.8095   26.0000   24.5117    2.4120    2.1805    0.0486 1599.6800   28.2700   87.7500   27.6200   14.8000   60.4000    2.1196    2.1549    2.2109    2.2296    2.1178    2.1346    2.1517    2.1935    2.2763    2.2336    2.2678    2.2411    2.2350    2.1887    2.1409    2.1624    2.1311    2.1896    2.1062    2.1236    2.2367   47.8574   37.9451   40.7800   44.5667   36.3681   42.9265   40.3519   36.5514   72.3411
 2031.0000 3066.0000   44.7970   13.0382   18.8255   13.4023    27.8249   10.5227    16.0616   10.3017    20.1308   26.1000   24.5201    2.4251    2.1820    0.0436 1599.6900   28.1700   87.7500   27.9800   14.4000   60.4000    2.1127    2.1961    2.2122    2.2245    2.1035    2.1318    2.1838    2.2290    2.2191    2.2208    2.2150    2.2615    2.2489    2.1797    2.2708    2.2418    2.1261    2.1572    2.0769    2.1427    2.2365   45.3544   38.4670   42.9814   54.0795   41.2204   43.7176   38.4973   24.7543   72.5108
 2031.1000 3055.0000   44.6955   12.5687   18.8707   13.5735    27.1114   11.7872    15.6550   10.4830    20.0230   26.1000   24.7780    2.4385    2.1878    0.0415 1599.6900   28.0700   87.7500   28.3400   14.0000   60.5000    2.1530    2.1868    2.2073    2.2467    2.1458    2.1708    2.1960    2.2328    2.1839    2.2219    2.2481    2.2767    2.2638    2.2125    2.2160    2.1933    2.1609    2.1844    2.1574    2.1388    2.2364   44.5145   42.5255   39.9743   47.8515   47.4809   39.2934   38.8300   29.9244   60.6240
 2031.2000 3046.0000   44.0723   12.7466   18.7514   13.6920    26.3943   11.9006    15.7885   10.5892    19.9640   26.3000   25.2137    2.4563    2.1948    0.0427 1599.7000   27.9600   87.7500   28.7100   13.6000   60.5000    2.1811    2.1931    2.1959    2.2333    2.1953    2.1635    2.2179    2.2890    2.1730    2.1163    2.2008    2.2570    2.2550    2.2350    2.2180    2.2044    2.1425    2.2123    2.2166    2.1625    2.2362   43.7025   46.4492   37.0670   41.8304   53.5335   35.0161   39.1516   34.9228   49.1320
 2031.3000 3075.0000   44.3377   13.0162   18.3848   13.8019    25.9645   11.2244    15.7585   10.6625    19.6868   26.5000   25.6512    2.4779    2.2002    0.0466 1599.7000   27.8700   87.7500   29.0700   13.9000   60.5000    2.1795    2.1888    2.2147    2.2230    2.1504    2.1954    2.2289    2.2117    2.1883    2.2322    2.2042    2.2228    2.2373    2.2440    2.1834    2.2101    2.1674    2.2064    2.1532    2.2390    2.2361   42.9897   41.0687   39.7775   39.2477   42.7641   38.0897   48.3008   35.8462   54.3667
 2031.4000 3087.0000   43.7774   12.9058   18.3432   13.8248    24.7899   11.2313    15.4660   10.6367    18.9698   26.5000   25.8683    2.4903    2.2007    0.0516 1599.7100   27.7700   87.7500   29.4300   14.3000   60.5000    2.1799    2.1691    2.2606    2.2273    2.1729    2.2099    2.2874    2.2573    2.2462    2.2559    2.2319    2.2389    2.2016    2.2516    2.1809    2.2349    2.1475    2.1279    2.1732    2.1684    2.2359   42.4415   36.9318   41.8615   37.2620   34.4837   40.4531   55.3355   36.5562   58.3915
 2031.5000 3070.0000   47.4916   13.0629   18.1087   13.6125    24.2777   11.9687    15.3841   10.7596    19.0935   26.6000   25.6800    2.4789    2.1960    0.0543 1599.7100   27.6700   87.7500   29.7600   14.7000   60.5000    2.1338    2.1504    2.2913    2.2292    2.1586    2.2043    2.2545    2.3462    2.2088    2.3785    2.3060    2.2062    2.2331    2.1849    2.1653    2.1790    2.1132    2.1485    2.0777    2.0949    2.2357   49.2274   38.5570   46.4798   41.1265   46.3349   37.3174   59.2403   54.8623   68.0189
