# LAS format data
~Version Information
VERS.     2.00: CWLS LOG ASCII STANDARD - VERSION 2.0
WRAP.       NO: ONE LINE PER DEPTH STEP
~Well Information
#MNEM   .UNITS    DATA                           DESCRIPTION
#----   ------    ----                           -----------
STRT    .M        96.2000                       :First Index Value
STOP    .M        4895.7008                     :Last Index Value
STEP    .M        0.0000                        :Frame Spacing
NULL    .         -999.2500                     :Absent Value
WELL    .         L05-06                        :Well Name   
FLD     .         FINDER_composites_22-02-2005  :Field Name  
CNTY    .                                       :County
STAT    .                                       :State
CTRY    .                                       :Country
LOC     .                                       :Location
API     .                                       :API Number
DATE    .                                       :Date
COMP    .         AMC                           :Company Name
SRVC    .                                       :Service Company
~Parameter Information
#MNEM   .UNITS    VALUE                          DESCRIPTION
#----   ------    -----                          -----------
TDD     .M        4888.00000                    :Total Depth (Driller)   
UBID    .         8073                          :Unique Borehole Id  
PDAT    .         Mean Sea Level                :Permanent Datum 
EPD     .M           0.00000                    :Elevation of Permanent Datum (PDAT) above Mean Sea Level
LMF     .                                       :Logging Measured From (Name of Logging Elevation Reference) 
APD     .M          35.05000                    :Elevation of Depth Reference (LMF) Above Permanent Datum
~Other Information
composite_curve_qc 
~Curve Information
#MNEM   .UNITS    API CODE                       CURVE DESCRIPTION
#----   ------    --------                       -----------------
DEPT    .M                                      :1     Index curve
GR      .GAPI                                   :2     L05-06
DT      .US/F                                   :3     L05-06
RHOB    .G/C3                                   :4     L05-06
DRHO    .G/C3                                   :5     L05-06
NPHI    .V/V                                    :6     L05-06
~Ascii Log Data
# ...
    4704.2008     91.721481     62.910721      2.562448      0.266063      0.217143
    4704.3008     93.836273     63.486588      2.558847      0.263817      0.212247
    4704.4008     98.018707     64.233444      2.549041      0.257523      0.209787
    4704.5008    104.180862     65.151703      2.534233      0.247726      0.213773
    4704.6008    111.053497     66.092026      2.523967      0.241248      0.224119
    4704.7008    118.264099     66.936707      2.518089      0.239779      0.232744
    4704.8008    124.359268     67.488174      2.507658      0.241069      0.235426
    4704.9008    127.263153     67.592514      2.484727      0.241279      0.236195
    4705.0008    127.580917     67.314911      2.454123      0.239879      0.236976
    4705.1008    126.991806     66.698746      2.424497      0.239206      0.237487
    4705.2008    126.783997     65.825012      2.402466      0.240145      0.237739
    4705.3008    126.677170     64.955811      2.399010      0.231987      0.240462
    4705.4008    126.017212     64.406906      2.427618      0.215399      0.242948
    4705.5008    124.657303     64.287460      2.489287      0.208190      0.237881
    4705.6008    120.645523     64.509964      2.581247      0.214554      0.228680
    4705.7008    114.414886     65.103531      2.664996      0.222459      0.221353
    4705.8008    110.105240     66.195465      2.683517      0.219592      0.215069
    4705.9008    109.368484     67.641693      2.641236      0.204382      0.212612
    4706.0008    112.179123     68.998962      2.584690      0.190407      0.214666
    4706.1008    118.603317     69.899048      2.547004      0.195166      0.214816
    4706.2008    126.410294     70.417374      2.532467      0.207911      0.212264
    4706.3008    132.347809     70.805923      2.532856      0.211686      0.209607
    4706.4008    135.607971     71.173691      2.541299      0.212106      0.205947
    4706.5008    136.425812     71.503769      2.548405      0.206605      0.202197
    4706.6006    135.527588     71.687607      2.549133      0.189229      0.201678
    4706.7006    134.147308     71.577362      2.552231      0.168903      0.206288
    4706.8006    132.795166     71.397552      2.558869      0.152207      0.213228
    4706.9006    131.535583     71.577850      2.562925      0.138967      0.220566
    4707.0006    130.462463     72.251770      2.564596      0.127878      0.234242
    4707.1006    128.994598     72.700119      2.560976      0.117045      0.248603
    4707.2006    126.805359     72.188721      2.549360      0.104861      0.251367
    4707.3006    125.445297     71.330292      2.536660      0.093735      0.244890
    4707.4006    125.125259     70.900864      2.529553      0.087044      0.230975
    4707.5006    124.597488     71.027420      2.528044      0.084901      0.209798
    4707.6006    124.544373     71.113312      2.526671      0.083944      0.188313
    4707.7006    124.541016     70.727295      2.525686      0.084910      0.174704
    4707.8006    122.626999     69.947357      2.531147      0.091122      0.171842
    4707.9006    119.989670     68.875565      2.541262      0.097021      0.173243
    4708.0006    117.141861     67.562851      2.552737      0.099070      0.174992
    4708.1006    112.888580     66.292191      2.561471      0.100396      0.178108
    4708.2006    108.639328     65.587280      2.558038      0.098574      0.179143
    4708.3006    105.999161     65.765656      2.536335      0.088206      0.174945
    4708.4006    104.401474     66.238892      2.508389      0.068406      0.167961
    4708.5006    102.442139     66.506653      2.481838      0.043638      0.155725
    4708.6006     99.418289     66.231995      2.467268      0.020831      0.137777
    4708.7006     97.460861     65.782074      2.475105      0.007664      0.128248
    4708.8006     94.877670     65.244980      2.488556     -0.000622      0.127131
    4708.9006     89.298279     64.507843      2.483559     -0.012456      0.133052
    4709.0006     85.066650     63.489586      2.473674     -0.026839      0.148399
    4709.1006     82.084915     62.347343      2.467606     -0.037533      0.166772
    4709.2006     79.089462     61.329254      2.473047     -0.035464      0.176918
    4709.3006     78.511566     60.353615      2.474862     -0.034204      0.185531
    4709.4006     80.069138     59.675293      2.472856     -0.035203      0.192264
    4709.5006     82.012009     60.082535      2.473168     -0.036037      0.193488
    4709.6006     83.622330     61.239708      2.474630     -0.036696      0.194772
    4709.7006     84.657684     63.128510      2.477994     -0.036248      0.196191
    4709.8006     85.195557     65.412170      2.485605     -0.031788      0.195345
    4709.9006     88.503708     67.663254      2.492702     -0.027125      0.196496
    4710.0006     95.695450     69.611801      2.498912     -0.022914      0.199701
    4710.1006    105.598801     70.102600      2.504859     -0.020138      0.199046
    4710.2006    118.320694     70.411789      2.508089     -0.018620      0.193421
    4710.3006    132.824432     70.665146      2.508353     -0.017982      0.178454
    4710.4006    135.294922     70.075745      2.511533     -0.014820      0.145168
    4710.5006    133.456421     69.115280      2.510939     -0.012409      0.108190
    4710.6006    128.018616     67.894943      2.503603     -0.012786      0.075559
    4710.7006    118.912994     66.680817      2.500478     -0.016397      0.055549
    4710.8006    109.969437     65.135681      2.498899     -0.019377      0.045474
    4710.9006    104.325485     63.160561      2.498850     -0.019290      0.049597
    4711.0006    101.036057     61.872917      2.500990     -0.019295      0.048828
    4711.1006     98.095108     61.419983      2.504772     -0.019227      0.047209
    4711.2006     94.660690     62.453491      2.510336     -0.019127      0.047423
    4711.3006     93.003860     63.171196      2.513453     -0.020847      0.049934
    4711.4006     91.776382     64.021317      2.516368     -0.022330      0.067530
    4711.5006     90.164154     65.611145      2.521167     -0.021303      0.123353
    4711.6006     92.671310     67.142746      2.522623     -0.021755      0.159131
    4711.7006     97.491562     68.279999      2.523426     -0.022133      0.185114
    4711.8006    103.239532     68.165176      2.527252     -0.019957      0.208617
    4711.9006    107.861328     67.606155      2.527651     -0.019215      0.201135
    4712.0006    110.042175     66.206085      2.526576     -0.018670      0.181140
    4712.1006    105.176422     62.715363      2.527663     -0.015656      0.184428
    4712.2006    100.578094     61.288635      2.527973     -0.014275      0.185308
    4712.3006     96.060059     61.557991      2.530817     -0.012968      0.184605
    4712.4006     90.903793     62.810387      2.548580     -0.004675      0.183146
    4712.5006     88.511734     64.079041      2.575409      0.016809      0.173952
    4712.6006     90.168762     65.162796      2.598821      0.049517      0.161161
    4712.7006     99.740601     65.755692      2.577502      0.086450      0.159184
    4712.8006    110.532303     66.915146      2.543293      0.115472      0.157356
    4712.9006    121.109161     68.557129      2.510148      0.141606      0.158984
    4713.0006    128.709473     69.821808      2.513803      0.187127      0.173819
    4713.1006    131.251740     70.220184      2.542124      0.236924      0.177327
    4713.2006    129.098145     69.798874      2.584164      0.281466      0.167244
    4713.3006    126.793091     69.398453      2.603729      0.298930      0.157065
    4713.4006    124.992264     69.281570      2.611166      0.306388      0.144558
    4713.5006    123.793442     69.343307      2.613585      0.311811      0.132138
    4713.6006    123.092545     69.087280      2.619500      0.320059      0.130187
    4713.7006    121.844040     68.803665      2.615361      0.315839      0.128251
