# LAS format data
~Version Information
VERS.     2.00: CWLS LOG ASCII STANDARD - VERSION 2.0
WRAP.       NO: ONE LINE PER DEPTH STEP
~Well Information
#MNEM   .UNITS    DATA                           DESCRIPTION
#----   ------    ----                           -----------
STRT    .M        96.2000                       :First Index Value
STOP    .M        4895.7008                     :Last Index Value
STEP    .M        0.0000                        :Frame Spacing
NULL    .         -999.2500                     :Absent Value
WELL    .         L05-06                        :Well Name   
FLD     .         FINDER_composites_22-02-2005  :Field Name  
CNTY    .                                       :County
STAT    .                                       :State
CTRY    .                                       :Country
LOC     .                                       :Location
API     .                                       :API Number
DATE    .                                       :Date
COMP    .         AMC                           :Company Name
SRVC    .                                       :Service Company
~Parameter Information
#MNEM   .UNITS    VALUE                          DESCRIPTION
#----   ------    -----                          -----------
TDD     .M        4888.00000                    :Total Depth (Driller)   
UBID    .         8073                          :Unique Borehole Id  
PDAT    .         Mean Sea Level                :Permanent Datum 
EPD     .M           0.00000                    :Elevation of Permanent Datum (PDAT) above Mean Sea Level
LMF     .                                       :Logging Measured From (Name of Logging Elevation Reference) 
APD     .M          35.05000                    :Elevation of Depth Reference (LMF) Above Permanent Datum
~Other Information
composite_curve_qc 
~Curve Information
#MNEM   .UNITS    API CODE                       CURVE DESCRIPTION
#----   ------    --------                       -----------------
DEPT    .M                                      :1     Index curve
GR      .GAPI                                   :2     L05-06
DT      .US/F                                   :3     L05-06
RHOB    .G/C3                                   :4     L05-06
DRHO    .G/C3                                   :5     L05-06
NPHI    .V/V                                    :6     L05-06
~Ascii Log Data
# ...
    4512.2006    103.681793     66.054596      2.684625      0.006603      0.159955
    4512.3006    108.712814     66.882889      2.678535      0.004398      0.168050
    4512.4006    114.177734     67.347916      2.666725      0.006252      0.177119
    4512.5006    119.605698     67.496643      2.652258      0.010505      0.186547
    4512.6006    123.053818     67.539368      2.647857      0.012241      0.193025
    4512.7006    123.918655     67.829788      2.651425      0.015555      0.197886
    4512.8006    122.481354     68.296936      2.665406      0.021118      0.200811
    4512.9006    120.786926     68.474167      2.691030      0.028554      0.201319
    4513.0006    118.836823     68.083221      2.709133      0.034664      0.200111
    4513.1006    116.495987     67.208801      2.710829      0.034460      0.196705
    4513.2006    113.624985     66.510727      2.693882      0.021272      0.190422
    4513.3006    110.733246     65.827759      2.682455      0.012068      0.181922
    4513.4006    108.047516     65.226364      2.684470      0.010865      0.170943
    4513.5006    105.488617     65.012680      2.694139      0.010684      0.157789
    4513.6006    103.096024     65.237656      2.701338      0.010284      0.145885
    4513.7006    101.152527     65.704987      2.701203      0.009315      0.137613
    4513.8006    100.190262     65.817871      2.695486      0.007412      0.133755
    4513.9006    100.598053     65.772400      2.688061      0.005818      0.134814
    4514.0006    103.177765     65.939575      2.680786      0.004933      0.143290
    4514.1006    107.922470     66.611191      2.674369      0.003835      0.159511
    4514.2006    113.265411     67.384094      2.670245      0.003011      0.178983
    4514.3006    117.550629     67.957260      2.669909      0.002768      0.198519
    4514.4006    120.159271     68.439819      2.672475      0.002536      0.216554
    4514.5006    122.811478     69.011581      2.676100      0.002650      0.229742
    4514.6006    125.674591     69.504807      2.679875      0.003164      0.235541
    4514.7006    125.971985     69.414337      2.683886      0.003257      0.236680
    4514.8006    122.364487     68.817154      2.686215      0.003135      0.234153
    4514.9006    114.087814     67.953278      2.686470      0.003045      0.228474
    4515.0006    102.147964     66.980789      2.687618      0.002645      0.222000
    4515.1006     89.521713     66.021545      2.688357      0.002106      0.214790
    4515.2006     79.368362     65.209763      2.686044      0.001487      0.205591
    4515.3006     72.635193     64.627945      2.681258      0.000376      0.194315
    4515.4006     69.455444     64.204803      2.675770     -0.000645      0.180704
    4515.5006     69.422882     63.800903      2.671657     -0.000825      0.163814
    4515.6006     70.984329     63.329491      2.670103     -0.000439      0.143287
    4515.7006     73.787521     62.948921      2.668881      0.000461      0.122993
    4515.8006     77.166763     62.893631      2.666591      0.001864      0.106815
    4515.9006     79.319809     63.183823      2.665690      0.003330      0.092768
    4516.0006     79.762604     63.602348      2.664402      0.003751      0.085138
    4516.1006     78.736450     63.939919      2.661606      0.002826      0.088326
    4516.2006     75.981979     64.256485      2.662799      0.002098      0.096618
    4516.3006     72.985367     64.611145      2.668783      0.001772      0.109089
    4516.4006     72.120865     64.960815      2.675809      0.001086      0.126396
    4516.5006     73.982956     65.269028      2.683548      0.000329      0.143135
    4516.6006     79.676697     65.498886      2.690869     -0.000254      0.156871
    4516.7006     88.866516     65.657639      2.695499     -0.000662      0.168215
    4516.8006     97.994476     65.796494      2.696949     -0.000417      0.173625
    4516.9006    105.051025     65.919464      2.694016      0.000325      0.172510
    4517.0006    110.201050     66.012131      2.686639      0.000764      0.168944
    4517.1006    111.718979     66.102188      2.677978      0.000543      0.163731
    4517.2006    110.443146     66.067230      2.672451      0.000281      0.156872
    4517.3006    110.011383     65.762711      2.672523      0.000876      0.150208
    4517.4006    109.390808     65.374649      2.677167      0.002133      0.145467
    4517.5006    108.245316     65.208801      2.683063      0.003404      0.144556
    4517.6006    108.827118     65.414078      2.686070      0.004108      0.148634
    4517.7006    109.335800     65.854752      2.684784      0.003677      0.157414
    4517.8006    108.436798     66.297394      2.681594      0.002417      0.169232
    4517.9006    108.169159     66.570145      2.680905      0.001550      0.180486
    4518.0006    108.551392     66.732254      2.679942      0.000107      0.188477
    4518.1006    108.813065     66.802216      2.676497     -0.002399      0.192497
    4518.2006    109.100815     66.648376      2.675416     -0.003669      0.195442
    4518.3006    108.987579     66.285110      2.674908     -0.003989      0.196852
    4518.4006    108.241852     65.919983      2.673252     -0.003970      0.195441
    4518.5006    108.064224     65.898529      2.676461     -0.002261      0.193586
    4518.6006    108.565979     66.044235      2.681161      0.000517      0.191924
    4518.7006    109.356293     66.008926      2.681574      0.003214      0.190134
    4518.8006    110.284424     65.972076      2.684393      0.006679      0.188363
    4518.9006    110.259583     66.133133      2.689075      0.009756      0.186496
    4519.0006    108.000015     66.736816      2.691806      0.010491      0.183553
    4519.1006    106.375061     67.630157      2.696356      0.011571      0.178179
    4519.2006    105.436768     68.790970      2.700809      0.012658      0.171013
    4519.3006    103.957397     69.929047      2.699048      0.011500      0.165254
    4519.4006    104.038055     70.311478      2.698592      0.010470      0.160613
    4519.5006    105.723969     69.836304      2.699930      0.009986      0.155964
    4519.6006    106.726913     69.200104      2.697929      0.009179      0.149515
    4519.7006    108.358139     68.674377      2.697250      0.008617      0.143248
    4519.8006    110.495499     68.224747      2.698411      0.008333      0.138008
    4519.9006    110.335281     67.547714      2.696514      0.007559      0.134909
    4520.0006    109.271881     66.757309      2.695601      0.006745      0.135850
    4520.1006    107.596786     65.970566      2.697205      0.005964      0.141564
    4520.2006    104.792130     65.390976      2.696958      0.004514      0.145009
    4520.3006    100.870041     64.882492      2.692916      0.002512      0.146050
    4520.4006     96.337936     64.418579      2.684825      0.000241      0.144145
    4520.5006     94.816223     63.999786      2.683829     -0.000852      0.142216
    4520.6006     95.254623     63.743515      2.685207     -0.001723      0.141707
    4520.7006     97.956680     63.859070      2.686203     -0.002864      0.144356
    4520.8006    103.072327     64.205734      2.688336     -0.003150      0.147466
    4520.9006    107.936386     64.712234      2.686317     -0.003569      0.149326
    4521.0006    109.565369     65.377136      2.672008     -0.005329      0.147618
    4521.1006    109.192123     65.578430      2.659667     -0.006666      0.146276
    4521.2006    107.800110     65.554474      2.650693     -0.007310      0.145465
    4521.3006    106.172134     65.543396      2.649108     -0.006328      0.145782
    4521.4006    103.852859     65.373184      2.651401     -0.004299      0.146690
    4521.5006    101.944046     65.194885      2.655694     -0.001983      0.148066
    4521.6006    103.603516     65.389221      2.659149     -0.001106      0.149870
    4521.7006    105.646225     65.519424      2.667699     -0.000256      0.150870
