# LAS format data
~Version Information
VERS.     2.00: CWLS LOG ASCII STANDARD - VERSION 2.0
WRAP.       NO: ONE LINE PER DEPTH STEP
~Well Information
#MNEM   .UNITS    DATA                           DESCRIPTION
#----   ------    ----                           -----------
STRT    .M        96.2000                       :First Index Value
STOP    .M        4895.7008                     :Last Index Value
STEP    .M        0.0000                        :Frame Spacing
NULL    .         -999.2500                     :Absent Value
WELL    .         L05-06                        :Well Name   
FLD     .         FINDER_composites_22-02-2005  :Field Name  
CNTY    .                                       :County
STAT    .                                       :State
CTRY    .                                       :Country
LOC     .                                       :Location
API     .                                       :API Number
DATE    .                                       :Date
COMP    .         AMC                           :Company Name
SRVC    .                                       :Service Company
~Parameter Information
#MNEM   .UNITS    VALUE                          DESCRIPTION
#----   ------    -----                          -----------
TDD     .M        4888.00000                    :Total Depth (Driller)   
UBID    .         8073                          :Unique Borehole Id  
PDAT    .         Mean Sea Level                :Permanent Datum 
EPD     .M           0.00000                    :Elevation of Permanent Datum (PDAT) above Mean Sea Level
LMF     .                                       :Logging Measured From (Name of Logging Elevation Reference) 
APD     .M          35.05000                    :Elevation of Depth Reference (LMF) Above Permanent Datum
~Other Information
composite_curve_qc 
~Curve Information
#MNEM   .UNITS    API CODE                       CURVE DESCRIPTION
#----   ------    --------                       -----------------
DEPT    .M                                      :1     Index curve
GR      .GAPI                                   :2     L05-06
DT      .US/F                                   :3     L05-06
RHOB    .G/C3                                   :4     L05-06
DRHO    .G/C3                                   :5     L05-06
NPHI    .V/V                                    :6     L05-06
~Ascii Log Data
# ...
    3590.6002     19.544090     55.307709   -999.250000   -999.250000     -0.012517
    3590.7002     20.314068     55.404877   -999.250000   -999.250000     -0.012687
    3590.8002     20.867538     55.446182   -999.250000   -999.250000     -0.012752
    3590.9002     20.916409     55.420418   -999.250000   -999.250000     -0.012819
    3591.0002     20.092796     55.349503   -999.250000   -999.250000     -0.013023
    3591.1002     18.490379     55.291138   -999.250000   -999.250000     -0.013313
    3591.2002     17.250179     55.227203   -999.250000   -999.250000     -0.013585
    3591.3002     17.231155     55.116280   -999.250000   -999.250000     -0.013726
    3591.4002     17.078560     54.976357   -999.250000   -999.250000     -0.013728
    3591.5002     16.722317     54.880219   -999.250000   -999.250000     -0.013551
    3591.6002     16.511284     54.909912   -999.250000   -999.250000     -0.013230
    3591.7002     15.921162     54.992416   -999.250000   -999.250000     -0.013115
    3591.8002     15.296343     55.080093   -999.250000   -999.250000     -0.013167
    3591.9002     15.492872     55.122421   -999.250000   -999.250000     -0.013165
    3592.0002     16.094009     55.115326   -999.250000   -999.250000     -0.013173
    3592.1002     17.011154     55.106270   -999.250000   -999.250000     -0.013196
    3592.2002     18.203995     55.195786   -999.250000   -999.250000     -0.013190
    3592.3002     19.017700     55.267044   -999.250000   -999.250000     -0.013176
    3592.4002     19.321960     55.248802   -999.250000   -999.250000     -0.013224
    3592.5002     19.381618     55.073463   -999.250000   -999.250000     -0.013515
    3592.6002     19.465958     54.985580   -999.250000   -999.250000     -0.013897
    3592.7002     19.637650     55.041069   -999.250000   -999.250000     -0.014292
    3592.8002     19.856262     55.124054   -999.250000   -999.250000     -0.014529
    3592.9002     20.024368     55.245506   -999.250000   -999.250000     -0.014623
    3593.0002     19.890553     55.424011   -999.250000   -999.250000     -0.014521
    3593.1002     18.661606     55.589104   -999.250000   -999.250000     -0.014205
    3593.2002     17.093349     55.692574   -999.250000   -999.250000     -0.013902
    3593.3002     15.816149     55.681480   -999.250000   -999.250000     -0.013704
    3593.4002     17.079311     55.573738   -999.250000   -999.250000     -0.013483
    3593.5002     18.811977     55.403267   -999.250000   -999.250000     -0.013308
    3593.6002     19.963657     55.156136   -999.250000   -999.250000     -0.013276
    3593.7002     21.246735     54.992241   -999.250000   -999.250000     -0.013430
    3593.8002     21.336254     54.857956   -999.250000   -999.250000     -0.013702
    3593.9002     18.219303     54.778008   -999.250000   -999.250000     -0.014053
    3594.0002     17.364582     54.990356   -999.250000   -999.250000     -0.014223
    3594.1002     17.609238     55.310844   -999.250000   -999.250000     -0.014273
    3594.2002     18.171608     55.496948   -999.250000   -999.250000     -0.014179
    3594.3002     18.992893     55.429047   -999.250000   -999.250000     -0.013986
    3594.4002     19.653290     55.185883   -999.250000   -999.250000     -0.013819
    3594.5002     18.982235     54.839127   -999.250000   -999.250000     -0.013999
    3594.6002     18.922352     54.715790   -999.250000   -999.250000     -0.014003
    3594.7002     19.323299     54.776344   -999.250000   -999.250000     -0.013900
    3594.8002     20.064018     55.028328   -999.250000   -999.250000     -0.013851
    3594.9002     21.404972     55.186447   -999.250000   -999.250000     -0.013719
    3595.0002     22.904232     55.236588   -999.250000   -999.250000     -0.013524
    3595.1002     22.454781     55.079903   -999.250000   -999.250000     -0.013336
    3595.2002     22.409451     54.915497   -999.250000   -999.250000     -0.013166
    3595.3002     22.537106     54.767624   -999.250000   -999.250000     -0.013006
    3595.4002     21.594505     54.737473   -999.250000   -999.250000     -0.012800
    3595.5002     20.929321     54.761620   -999.250000   -999.250000     -0.012711
    3595.6002     20.699383     54.845596   -999.250000   -999.250000     -0.012774
    3595.7002     20.524811     54.993690   -999.250000   -999.250000     -0.012916
    3595.8002     19.546127     55.224373   -999.250000   -999.250000     -0.012925
    3595.9002     18.312969     55.539810   -999.250000   -999.250000     -0.012776
    3596.0002     19.820045     55.840279   -999.250000   -999.250000     -0.012660
    3596.1002     22.084660     56.000076   -999.250000   -999.250000     -0.012541
    3596.2002     24.416775     55.907417   -999.250000   -999.250000     -0.012407
    3596.3002     26.423130     55.568893   -999.250000   -999.250000     -0.012279
    3596.4002     26.943668     55.242073   -999.250000   -999.250000     -0.012075
    3596.5002     25.198463     55.075249   -999.250000   -999.250000     -0.011733
    3596.6002     22.391998     55.082314   -999.250000   -999.250000     -0.011334
    3596.7002     19.609947     55.147751   -999.250000   -999.250000     -0.010948
    3596.8002     17.520752     55.186127   -999.250000   -999.250000     -0.010646
    3596.9002     16.285030     55.147629   -999.250000   -999.250000     -0.010525
    3597.0002     15.726929     55.049400   -999.250000   -999.250000     -0.010629
    3597.1002     16.052601     54.918541   -999.250000   -999.250000     -0.010986
    3597.2002     17.466827     54.812668   -999.250000   -999.250000     -0.011380
    3597.3002     19.595329     54.733627   -999.250000   -999.250000     -0.011589
    3597.4002     21.630936     54.682053   -999.250000   -999.250000     -0.011415
    3597.5002     22.452709     54.675453   -999.250000   -999.250000     -0.010953
    3597.6002     22.284439     54.759323   -999.250000   -999.250000     -0.010432
    3597.7002     21.764175     54.979523   -999.250000   -999.250000     -0.010117
    3597.8002     21.433712     55.274452   -999.250000   -999.250000     -0.010059
    3597.9002     21.903755     55.485497   -999.250000   -999.250000     -0.010151
    3598.0002     23.342091     55.475220   -999.250000   -999.250000     -0.010280
    3598.1002     24.642941     55.359848   -999.250000   -999.250000     -0.010444
    3598.2002     24.834221     55.278610   -999.250000   -999.250000     -0.010334
    3598.3002     23.524532     55.287285   -999.250000   -999.250000     -0.009757
    3598.4002     21.627205     55.265106   -999.250000   -999.250000     -0.009219
    3598.5002     20.117886     55.212486   -999.250000   -999.250000     -0.008958
    3598.6002     19.692207     55.214653   -999.250000   -999.250000     -0.008997
    3598.7002     20.262463     55.282997   -999.250000   -999.250000     -0.009398
    3598.8002     21.547329     55.298767   -999.250000   -999.250000     -0.009880
    3598.9002     23.066692     55.169983   -999.250000   -999.250000     -0.010044
    3599.0002     24.359295     54.999039   -999.250000   -999.250000     -0.009914
    3599.1002     24.486839     54.900612   -999.250000   -999.250000     -0.009714
    3599.2002     23.114384     54.883400   -999.250000   -999.250000     -0.009667
    3599.3002     21.543831     54.860863   -999.250000   -999.250000     -0.009860
    3599.4002     20.938740     54.769371   -999.250000   -999.250000     -0.010173
    3599.5002     21.288746     54.626892   -999.250000   -999.250000     -0.010395
    3599.6002     21.869461     54.499992   -999.250000   -999.250000     -0.010412
    3599.7002     22.324745     54.445015   -999.250000   -999.250000     -0.010291
    3599.8002     22.620037     54.477638   -999.250000   -999.250000     -0.010171
    3599.9002     22.175110     54.597214   -999.250000   -999.250000     -0.010080
    3600.0002     21.503147     54.801636   -999.250000   -999.250000     -0.010080
    3600.1002     21.792122     55.038872   -999.250000   -999.250000     -0.010251
