# LAS format data
~Version Information
VERS.     2.00: CWLS LOG ASCII STANDARD - VERSION 2.0
WRAP.       NO: ONE LINE PER DEPTH STEP
~Well Information
#MNEM   .UNITS    DATA                           DESCRIPTION
#----   ------    ----                           -----------
STRT    .M        96.2000                       :First Index Value
STOP    .M        4895.7008                     :Last Index Value
STEP    .M        0.0000                        :Frame Spacing
NULL    .         -999.2500                     :Absent Value
WELL    .         L05-06                        :Well Name   
FLD     .         FINDER_composites_22-02-2005  :Field Name  
CNTY    .                                       :County
STAT    .                                       :State
CTRY    .                                       :Country
LOC     .                                       :Location
API     .                                       :API Number
DATE    .                                       :Date
COMP    .         AMC                           :Company Name
SRVC    .                                       :Service Company
~Parameter Information
#MNEM   .UNITS    VALUE                          DESCRIPTION
#----   ------    -----                          -----------
TDD     .M        4888.00000                    :Total Depth (Driller)   
UBID    .         8073                          :Unique Borehole Id  
PDAT    .         Mean Sea Level                :Permanent Datum 
EPD     .M           0.00000                    :Elevation of Permanent Datum (PDAT) above Mean Sea Level
LMF     .                                       :Logging Measured From (Name of Logging Elevation Reference) 
APD     .M          35.05000                    :Elevation of Depth Reference (LMF) Above Permanent Datum
~Other Information
composite_curve_qc 
~Curve Information
#MNEM   .UNITS    API CODE                       CURVE DESCRIPTION
#----   ------    --------                       -----------------
DEPT    .M                                      :1     Index curve
GR      .GAPI                                   :2     L05-06
DT      .US/F                                   :3     L05-06
RHOB    .G/C3                                   :4     L05-06
DRHO    .G/C3                                   :5     L05-06
NPHI    .V/V                                    :6     L05-06
~Ascii Log Data
# ...
    3773.0002     18.601074     55.345505   -999.250000   -999.250000     -0.006946
    3773.1002     17.418671     55.583542   -999.250000   -999.250000     -0.007324
    3773.2002     17.056709     55.615196   -999.250000   -999.250000     -0.007730
    3773.3002     17.942440     55.412033   -999.250000   -999.250000     -0.008176
    3773.4002     22.360561     55.086205   -999.250000   -999.250000     -0.008556
    3773.5002     26.021385     54.796921   -999.250000   -999.250000     -0.008954
    3773.6002     28.012665     54.581573   -999.250000   -999.250000     -0.009325
    3773.7002     28.219635     54.411560   -999.250000   -999.250000     -0.009348
    3773.8002     28.078060     54.254898   -999.250000   -999.250000     -0.009028
    3773.9002     27.586914     54.123291   -999.250000   -999.250000     -0.008338
    3774.0002     25.734554     54.072914   -999.250000   -999.250000     -0.008141
    3774.1002     24.108162     54.156815   -999.250000   -999.250000     -0.008050
    3774.2002     23.474983     54.479355   -999.250000   -999.250000     -0.008055
    3774.3002     23.050961     55.041725   -999.250000   -999.250000     -0.008553
    3774.4002     22.303249     55.615952   -999.250000   -999.250000     -0.009022
    3774.5002     20.919205     56.006538   -999.250000   -999.250000     -0.009149
    3774.6002     20.199257     55.977577   -999.250000   -999.250000     -0.009201
    3774.7002     20.197884     55.742500   -999.250000   -999.250000     -0.009194
    3774.8002     21.490959     55.439018   -999.250000   -999.250000     -0.009119
    3774.9002     24.296848     55.284691   -999.250000   -999.250000     -0.009047
    3775.0002     27.417572     55.179825   -999.250000   -999.250000     -0.008904
    3775.1002     29.378529     55.013435   -999.250000   -999.250000     -0.008551
    3775.2002     29.951077     54.830093   -999.250000   -999.250000     -0.008056
    3775.3002     29.486153     54.730995   -999.250000   -999.250000     -0.007702
    3775.4002     28.247139     54.882195   -999.250000   -999.250000     -0.007824
    3775.5002     26.722141     55.198624   -999.250000   -999.250000     -0.007935
    3775.6002     25.502628     55.524681   -999.250000   -999.250000     -0.007982
    3775.7002     25.459087     55.635086   -999.250000   -999.250000     -0.007951
    3775.8002     26.076008     55.599266   -999.250000   -999.250000     -0.007728
    3775.9002     26.884037     55.563713   -999.250000   -999.250000     -0.007539
    3776.0002     27.298065     55.741051   -999.250000   -999.250000     -0.007780
    3776.1002     27.546364     55.985260   -999.250000   -999.250000     -0.008129
    3776.2002     27.278156     56.177422   -999.250000   -999.250000     -0.008532
    3776.3002     26.141197     56.164085   -999.250000   -999.250000     -0.009007
    3776.4002     25.564354     56.022499   -999.250000   -999.250000     -0.009495
    3776.5002     25.318672     55.794724   -999.250000   -999.250000     -0.009918
    3776.6002     24.431267     55.570915   -999.250000   -999.250000     -0.010157
    3776.7002     23.778507     55.462456   -999.250000   -999.250000     -0.010276
    3776.8002     23.661160     55.482841   -999.250000   -999.250000     -0.010349
    3776.9002     23.582153     55.522751   -999.250000   -999.250000     -0.010461
    3777.0002     23.038425     55.452682   -999.250000   -999.250000     -0.010613
    3777.1002     22.423176     55.228348   -999.250000   -999.250000     -0.010698
    3777.2002     22.474094     54.984772   -999.250000   -999.250000     -0.010577
    3777.3002     22.383522     55.011047   -999.250000   -999.250000     -0.010277
    3777.4002     22.208611     55.419647   -999.250000   -999.250000     -0.009970
    3777.5002     22.723644     55.989433   -999.250000   -999.250000     -0.009875
    3777.6002     22.888203     56.457535   -999.250000   -999.250000     -0.009981
    3777.7002     22.563606     56.724136   -999.250000   -999.250000     -0.010213
    3777.8002     22.864010     56.872047   -999.250000   -999.250000     -0.010467
    3777.9002     23.094963     56.902817   -999.250000   -999.250000     -0.010638
    3778.0002     22.862793     56.779167   -999.250000   -999.250000     -0.010628
    3778.1002     22.943069     56.556496   -999.250000   -999.250000     -0.010443
    3778.2002     22.998356     56.335007   -999.250000   -999.250000     -0.010271
    3778.3002     22.778851     56.141510   -999.250000   -999.250000     -0.010280
    3778.4002     22.901699     55.918701   -999.250000   -999.250000     -0.010448
    3778.5002     23.330269     55.651642   -999.250000   -999.250000     -0.010743
    3778.6002     23.529896     55.414459   -999.250000   -999.250000     -0.011034
    3778.7002     23.257076     55.291679   -999.250000   -999.250000     -0.011123
    3778.8002     22.685623     55.290688   -999.250000   -999.250000     -0.010986
    3778.9002     21.969212     55.367348   -999.250000   -999.250000     -0.010778
    3779.0002     21.032299     55.480995   -999.250000   -999.250000     -0.010676
    3779.1002     20.587875     55.611847   -999.250000   -999.250000     -0.010653
    3779.2002     21.298386     55.733292   -999.250000   -999.250000     -0.010588
    3779.3002     22.689449     55.806526   -999.250000   -999.250000     -0.010451
    3779.4002     24.487629     55.763062   -999.250000   -999.250000     -0.010112
    3779.5002     26.339569     55.605011   -999.250000   -999.250000     -0.009448
    3779.6002     27.338928     55.461075   -999.250000   -999.250000     -0.008558
    3779.7002     27.044849     55.349884   -999.250000   -999.250000     -0.007453
    3779.8002     26.195255     55.215553   -999.250000   -999.250000     -0.006169
    3779.9002     26.276657     55.076180   -999.250000   -999.250000     -0.004857
    3780.0002     26.934540     55.063240   -999.250000   -999.250000     -0.003796
    3780.1002     27.094227     55.247475   -999.250000   -999.250000     -0.003240
    3780.2002     28.152374     55.425301   -999.250000   -999.250000     -0.002980
    3780.3002     29.549839     55.437988   -999.250000   -999.250000     -0.002703
    3780.4002     29.210991     55.314072   -999.250000   -999.250000     -0.002156
    3780.5002     29.271763     55.203529   -999.250000   -999.250000     -0.001358
    3780.6002     30.221565     55.137695   -999.250000   -999.250000     -0.000283
    3780.7002     29.864098     55.017586   -999.250000   -999.250000      0.001027
    3780.8002     29.854549     54.857033   -999.250000   -999.250000      0.002220
    3780.9002     30.877831     54.782997   -999.250000   -999.250000      0.002812
    3781.0002     30.648529     54.922218   -999.250000   -999.250000      0.002627
    3781.1002     30.409397     55.099754   -999.250000   -999.250000      0.001859
    3781.2002     31.385132     55.142570   -999.250000   -999.250000      0.000858
    3781.3002     32.105888     55.101936   -999.250000   -999.250000      0.000281
    3781.4002     32.466621     55.008034   -999.250000   -999.250000      0.000238
    3781.5002     32.738152     54.848190   -999.250000   -999.250000      0.000890
    3781.6002     32.869217     54.611305   -999.250000   -999.250000      0.002199
    3781.7002     32.112747     54.340897   -999.250000   -999.250000      0.003279
    3781.8002     30.144428     54.122093   -999.250000   -999.250000      0.003151
    3781.9002     30.067650     54.039040   -999.250000   -999.250000      0.003040
    3782.0002     30.494930     54.059845   -999.250000   -999.250000      0.002635
    3782.1002     28.471649     54.093903   -999.250000   -999.250000      0.001127
    3782.2002     27.224411     54.046577   -999.250000   -999.250000      0.000019
    3782.3002     26.707813     53.931000   -999.250000   -999.250000     -0.000634
    3782.4002     25.741886     53.839661   -999.250000   -999.250000     -0.001250
    3782.5002     26.031677     53.912186   -999.250000   -999.250000     -0.001523
