# LAS format data
~Version Information
VERS.     2.00: CWLS LOG ASCII STANDARD - VERSION 2.0
WRAP.       NO: ONE LINE PER DEPTH STEP
~Well Information
#MNEM   .UNITS    DATA                           DESCRIPTION
#----   ------    ----                           -----------
STRT    .M        96.2000                       :First Index Value
STOP    .M        4895.7008                     :Last Index Value
STEP    .M        0.0000                        :Frame Spacing
NULL    .         -999.2500                     :Absent Value
WELL    .         L05-06                        :Well Name   
FLD     .         FINDER_composites_22-02-2005  :Field Name  
CNTY    .                                       :County
STAT    .                                       :State
CTRY    .                                       :Country
LOC     .                                       :Location
API     .                                       :API Number
DATE    .                                       :Date
COMP    .         AMC                           :Company Name
SRVC    .                                       :Service Company
~Parameter Information
#MNEM   .UNITS    VALUE                          DESCRIPTION
#----   ------    -----                          -----------
TDD     .M        4888.00000                    :Total Depth (Driller)   
UBID    .         8073                          :Unique Borehole Id  
PDAT    .         Mean Sea Level                :Permanent Datum 
EPD     .M           0.00000                    :Elevation of Permanent Datum (PDAT) above Mean Sea Level
LMF     .                                       :Logging Measured From (Name of Logging Elevation Reference) 
APD     .M          35.05000                    :Elevation of Depth Reference (LMF) Above Permanent Datum
~Other Information
composite_curve_qc 
~Curve Information
#MNEM   .UNITS    API CODE                       CURVE DESCRIPTION
#----   ------    --------                       -----------------
DEPT    .M                                      :1     Index curve
GR      .GAPI                                   :2     L05-06
DT      .US/F                                   :3     L05-06
RHOB    .G/C3                                   :4     L05-06
DRHO    .G/C3                                   :5     L05-06
NPHI    .V/V                                    :6     L05-06
~Ascii Log Data
# ...
    4147.4004     23.532909     61.685928   -999.250000   -999.250000     -0.007489
    4147.5004     23.874187     61.882347   -999.250000   -999.250000     -0.007496
    4147.6004     25.245117     61.992004   -999.250000   -999.250000     -0.007277
    4147.7004     25.555683     62.027435   -999.250000   -999.250000     -0.007198
    4147.8004     25.190762     62.050095   -999.250000   -999.250000     -0.007224
    4147.9004     23.816975     62.103706   -999.250000   -999.250000     -0.007512
    4148.0004     21.297306     62.175850   -999.250000   -999.250000     -0.008161
    4148.1004     19.575832     62.204826   -999.250000   -999.250000     -0.008780
    4148.2004     19.485168     61.917297   -999.250000   -999.250000     -0.009298
    4148.3004     20.005741     61.065048   -999.250000   -999.250000     -0.009845
    4148.4004     20.073277     59.757935   -999.250000   -999.250000     -0.010141
    4148.5004     19.825546     58.374001   -999.250000   -999.250000     -0.010177
    4148.6004     19.915451     57.311806   -999.250000   -999.250000     -0.010224
    4148.7004     20.118462     56.702972   -999.250000   -999.250000     -0.010214
    4148.8004     20.170506     56.392136   -999.250000   -999.250000     -0.010156
    4148.9004     20.183201     56.130417   -999.250000   -999.250000     -0.010214
    4149.0004     20.248703     56.009666   -999.250000   -999.250000     -0.010274
    4149.1004     20.313469     56.002289   -999.250000   -999.250000     -0.010268
    4149.2004     20.277527     55.813774   -999.250000   -999.250000     -0.010305
    4149.3004     20.313328     55.482727   -999.250000   -999.250000     -0.010393
    4149.4004     20.641727     55.262550   -999.250000   -999.250000     -0.010552
    4149.5004     21.178646     55.418953   -999.250000   -999.250000     -0.010833
    4149.6004     21.435928     55.987488   -999.250000   -999.250000     -0.011245
    4149.7004     21.142723     56.750519   -999.250000   -999.250000     -0.011625
    4149.8004     20.820736     57.157654   -999.250000   -999.250000     -0.011633
    4149.9004     20.217438     57.322639   -999.250000   -999.250000     -0.011352
    4150.0004     19.275700     57.382645   -999.250000   -999.250000     -0.010995
    4150.1004     19.149803     57.076805   -999.250000   -999.250000     -0.010659
    4150.2004     19.457069     56.720001   -999.250000   -999.250000     -0.010372
    4150.3004     19.575451     56.809319   -999.250000   -999.250000     -0.010178
    4150.4004     20.538616     56.932678   -999.250000   -999.250000     -0.010057
    4150.5004     21.857670     56.941711   -999.250000   -999.250000     -0.009933
    4150.6004     22.245373     56.789276   -999.250000   -999.250000     -0.009708
    4150.7004     22.639370     56.638474   -999.250000   -999.250000     -0.009521
    4150.8004     23.019543     56.520927   -999.250000   -999.250000     -0.009342
    4150.9004     22.840511     56.439087   -999.250000   -999.250000     -0.009035
    4151.0004     22.770126     56.390823   -999.250000   -999.250000     -0.008689
    4151.1004     23.158878     56.326668   -999.250000   -999.250000     -0.008357
    4151.2004     24.361080     56.112648   -999.250000   -999.250000     -0.008139
    4151.3004     25.128311     55.933899   -999.250000   -999.250000     -0.008005
    4151.4004     25.503147     55.828613   -999.250000   -999.250000     -0.007908
    4151.5004     26.990070     55.717850   -999.250000   -999.250000     -0.007671
    4151.6004     27.893860     55.662155   -999.250000   -999.250000     -0.007562
    4151.7004     27.681564     55.681679   -999.250000   -999.250000     -0.007654
    4151.8004     27.756229     55.665878   -999.250000   -999.250000     -0.007634
    4151.9004     27.749737     55.665657   -999.250000   -999.250000     -0.007601
    4152.0004     27.434776     55.700050   -999.250000   -999.250000     -0.007510
    4152.1004     26.794735     55.697594   -999.250000   -999.250000     -0.006764
    4152.2004     25.977730     55.694679   -999.250000   -999.250000     -0.005652
    4152.3004     24.985779     55.711266   -999.250000   -999.250000     -0.004244
    4152.4004     24.280907     55.715187   -999.250000   -999.250000     -0.003720
    4152.5004     23.670219     55.743317   -999.250000   -999.250000     -0.003711
    4152.6004     23.001991     55.823006   -999.250000   -999.250000     -0.004325
    4152.7004     22.480782     55.656494   -999.250000   -999.250000     -0.005380
    4152.8004     21.930344     55.396423   -999.250000   -999.250000     -0.006443
    4152.9004     21.182442     55.165543   -999.250000   -999.250000     -0.007001
    4153.0004     21.730846     55.141022   -999.250000   -999.250000     -0.007331
    4153.1004     22.981396     55.249260   -999.250000   -999.250000     -0.007554
    4153.2004     24.324585     55.468086   -999.250000   -999.250000     -0.007821
    4153.3004     24.473793     55.655609   -999.250000   -999.250000     -0.008033
    4153.4004     24.175423     55.737617   -999.250000   -999.250000     -0.008240
    4153.5004     25.070549     55.454529   -999.250000   -999.250000     -0.008607
    4153.6004     24.849289     55.569756   -999.250000   -999.250000     -0.008948
    4153.7004     24.078571     55.840065   -999.250000   -999.250000     -0.009192
    4153.8004     24.548889     55.433899   -999.250000   -999.250000     -0.009000
    4153.9004     24.407532     55.245605   -999.250000   -999.250000     -0.009085
    4154.0004     23.771812     55.170860   -999.250000   -999.250000     -0.009318
    4154.1004     23.298946     54.781784   -999.250000   -999.250000     -0.009159
    4154.2004     22.779713     54.649788   -999.250000   -999.250000     -0.009280
    4154.3004     22.057693     54.792404   -999.250000   -999.250000     -0.009592
    4154.4004     20.958569     54.967010   -999.250000   -999.250000     -0.009488
    4154.5004     20.626667     55.062912   -999.250000   -999.250000     -0.009550
    4154.6004     21.372616     55.064003   -999.250000   -999.250000     -0.009839
    4154.7004     22.596119     55.045097   -999.250000   -999.250000     -0.010000
    4154.8004     23.950783     54.934715   -999.250000   -999.250000     -0.010171
    4154.9004     25.029594     54.748070   -999.250000   -999.250000     -0.010376
    4155.0004     25.022980     54.668785   -999.250000   -999.250000     -0.010528
    4155.1004     24.374031     54.622887   -999.250000   -999.250000     -0.010662
    4155.2004     23.239105     54.631439   -999.250000   -999.250000     -0.010776
    4155.3004     22.053310     54.794617   -999.250000   -999.250000     -0.010838
    4155.4004     21.504444     54.950432   -999.250000   -999.250000     -0.010797
    4155.5004     21.864895     54.964851   -999.250000   -999.250000     -0.010653
    4155.6004     22.270420     54.871094   -999.250000   -999.250000     -0.010552
    4155.7004     22.650875     54.820351   -999.250000   -999.250000     -0.010533
    4155.8004     22.901966     54.888206   -999.250000   -999.250000     -0.010657
    4155.9004     22.636295     54.938774   -999.250000   -999.250000     -0.010947
    4156.0004     21.944088     54.923927   -999.250000   -999.250000     -0.011231
    4156.1004     21.142796     54.842621   -999.250000   -999.250000     -0.011349
    4156.2004     20.703423     54.764473   -999.250000   -999.250000     -0.011332
    4156.3004     20.805820     54.819565   -999.250000   -999.250000     -0.011057
    4156.4004     21.591408     55.051010   -999.250000   -999.250000     -0.010443
    4156.5004     22.946106     55.248238   -999.250000   -999.250000     -0.009760
    4156.6004     24.610287     55.231674   -999.250000   -999.250000     -0.009150
    4156.7004     25.891685     54.981735   -999.250000   -999.250000     -0.008697
    4156.8004     26.001785     54.744553   -999.250000   -999.250000     -0.008448
    4156.9004     25.490776     54.646751   -999.250000   -999.250000     -0.008434
