# LAS format data
~Version Information
VERS.     2.00: CWLS LOG ASCII STANDARD - VERSION 2.0
WRAP.       NO: ONE LINE PER DEPTH STEP
~Well Information
#MNEM   .UNITS    DATA                           DESCRIPTION
#----   ------    ----                           -----------
STRT    .M        96.2000                       :First Index Value
STOP    .M        4895.7008                     :Last Index Value
STEP    .M        0.0000                        :Frame Spacing
NULL    .         -999.2500                     :Absent Value
WELL    .         L05-06                        :Well Name   
FLD     .         FINDER_composites_22-02-2005  :Field Name  
CNTY    .                                       :County
STAT    .                                       :State
CTRY    .                                       :Country
LOC     .                                       :Location
API     .                                       :API Number
DATE    .                                       :Date
COMP    .         AMC                           :Company Name
SRVC    .                                       :Service Company
~Parameter Information
#MNEM   .UNITS    VALUE                          DESCRIPTION
#----   ------    -----                          -----------
TDD     .M        4888.00000                    :Total Depth (Driller)   
UBID    .         8073                          :Unique Borehole Id  
PDAT    .         Mean Sea Level                :Permanent Datum 
EPD     .M           0.00000                    :Elevation of Permanent Datum (PDAT) above Mean Sea Level
LMF     .                                       :Logging Measured From (Name of Logging Elevation Reference) 
APD     .M          35.05000                    :Elevation of Depth Reference (LMF) Above Permanent Datum
~Other Information
composite_curve_qc 
~Curve Information
#MNEM   .UNITS    API CODE                       CURVE DESCRIPTION
#----   ------    --------                       -----------------
DEPT    .M                                      :1     Index curve
GR      .GAPI                                   :2     L05-06
DT      .US/F                                   :3     L05-06
RHOB    .G/C3                                   :4     L05-06
DRHO    .G/C3                                   :5     L05-06
NPHI    .V/V                                    :6     L05-06
~Ascii Log Data
# ...
     893.0000     13.884399     68.622452      2.039409     -0.006493   -999.250000
     893.1000     13.241129     68.728592      2.038269     -0.007334   -999.250000
     893.2000     12.162508     68.779068      2.035432     -0.008507   -999.250000
     893.3000     11.404961     68.796860      2.030807     -0.009482   -999.250000
     893.4000     11.226082     68.772614      2.027606     -0.009255   -999.250000
     893.5000     11.379395     68.673767      2.029748     -0.007086   -999.250000
     893.6000     11.416134     68.513748      2.032382     -0.004814   -999.250000
     893.7000     11.486279     68.374420      2.034927     -0.002737   -999.250000
     893.8000     11.998095     68.391724      2.039454     -0.000227   -999.250000
     893.9000     12.345896     68.512619      2.042596      0.001664   -999.250000
     894.0000     12.483990     68.633087      2.042549      0.002145   -999.250000
     894.1000     12.921585     68.595474      2.040584      0.001295   -999.250000
     894.2000     13.113623     68.519501      2.039232     -0.000016   -999.250000
     894.3000     12.875572     68.493011      2.038450     -0.001426   -999.250000
     894.4000     12.758486     68.550980      2.035024     -0.002938   -999.250000
     894.5000     12.550568     68.587326      2.031691     -0.004943   -999.250000
     894.6000     12.138037     68.556717      2.029908     -0.007475   -999.250000
     894.7000     11.839996     68.545059      2.027974     -0.009318   -999.250000
     894.8000     11.479738     68.497284      2.027172     -0.010195   -999.250000
     894.9000     10.941603     68.354034      2.028421     -0.010056   -999.250000
     895.0000     10.547852     68.172455      2.028805     -0.010559   -999.250000
     895.1000     10.156536     68.056931      2.029495     -0.011163   -999.250000
     895.2000      9.712704     68.151291      2.032170     -0.011146   -999.250000
     895.3000     10.001621     68.386139      2.034997     -0.010652   -999.250000
     895.4000     10.571480     68.607300      2.037256     -0.009608   -999.250000
     895.5000     10.818899     68.587891      2.037418     -0.007905   -999.250000
     895.6000     10.660509     68.472198      2.034660     -0.008827   -999.250000
     895.7000     10.371021     68.327530      2.031662     -0.011013   -999.250000
     895.8000     10.426050     68.258209      2.034411     -0.011902   -999.250000
     895.9000     10.170935     68.187836      2.037584     -0.010857   -999.250000
     896.0000      9.871994     68.148743      2.040176     -0.008641   -999.250000
     896.1000     10.620691     68.307465      2.036923     -0.008000   -999.250000
     896.2000     10.953382     68.363113      2.032868     -0.009015   -999.250000
     896.3000     10.964855     68.330078      2.028931     -0.010904   -999.250000
     896.4000     11.050343     68.266800      2.032851     -0.008400   -999.250000
     896.5000     10.994459     68.320206      2.039755     -0.005387   -999.250000
     896.6000     10.786158     68.463715      2.048728     -0.002226   -999.250000
     896.7000     10.508211     68.388428      2.048445     -0.002873   -999.250000
     896.8000     10.405239     68.260193      2.047783     -0.003054   -999.250000
     896.9000     10.545937     68.107391      2.047311     -0.002196   -999.250000
     897.0000     10.969728     68.181656      2.047760      0.000736   -999.250000
     897.1000     11.150379     68.233490      2.047713      0.002885   -999.250000
     897.2000     11.003263     68.218689      2.047057      0.003624   -999.250000
     897.3000     11.195538     68.194626      2.047681      0.004504   -999.250000
     897.4000     11.035618     68.168167      2.046956      0.004042   -999.250000
     897.5000     10.331779     68.141403      2.044598      0.001760   -999.250000
     897.6000     10.093132     68.124481      2.046558      0.001151   -999.250000
     897.7000      9.834101     68.174973      2.048927      0.000404   -999.250000
     897.8000      9.456963     68.300354      2.050488     -0.001395   -999.250000
     897.9000      9.571005     68.255417      2.053350     -0.003957   -999.250000
     898.0000      9.937712     68.169571      2.052991     -0.006860   -999.250000
     898.1000     10.397156     68.155472      2.045857     -0.009379   -999.250000
     898.2000     10.697569     68.260361      2.039344     -0.009623   -999.250000
     898.3000     10.971518     68.369110      2.033917     -0.009250   -999.250000
     898.4000     11.334791     68.363556      2.030228     -0.009789   -999.250000
     898.5000     11.627777     68.284378      2.029264     -0.010614   -999.250000
     898.6000     11.633375     68.175140      2.031271     -0.011018   -999.250000
     898.7000     11.100878     68.060944      2.036090     -0.010405   -999.250000
     898.8000     10.450718     67.927673      2.039015     -0.009941   -999.250000
     898.9000      9.913122     67.851044      2.039891     -0.009926   -999.250000
     899.0000      9.836636     67.934113      2.038792     -0.010834   -999.250000
     899.1000     10.410841     68.069839      2.035135     -0.013042   -999.250000
     899.2000     11.180449     68.186981      2.030916     -0.015217   -999.250000
     899.3000     11.430815     68.239334      2.029119     -0.015399   -999.250000
     899.4000     11.342529     68.303375      2.028534     -0.014668   -999.250000
     899.5000     10.970165     68.393936      2.027847     -0.013729   -999.250000
     899.6000     10.357069     68.488510      2.025897     -0.012793   -999.250000
     899.7000      9.769615     68.557388      2.023715     -0.010991   -999.250000
     899.8000      9.582123     68.585312      2.021703     -0.008242   -999.250000
     899.9000     10.076191     68.563873      2.020354     -0.005305   -999.250000
     900.0000     10.687864     68.504532      2.020592     -0.002797   -999.250000
     900.1000     11.240211     68.449097      2.022493     -0.001270   -999.250000
     900.2000     11.648619     68.448547      2.024733     -0.000795   -999.250000
     900.3000     11.471571     68.473022      2.025668     -0.000026   -999.250000
     900.4000     10.844446     68.483383      2.025807      0.000584   -999.250000
     900.5000     10.379297     68.473907      2.026135     -0.000117   -999.250000
     900.6000     10.060074     68.504211      2.024223     -0.000625   -999.250000
     900.7000      9.903076     68.557510      2.023035     -0.000459   -999.250000
     900.8000     10.000620     68.570312      2.027822     -0.000363   -999.250000
     900.9000     10.102505     68.600998      2.034172      0.000603   -999.250000
     901.0000     10.219587     68.630203      2.039315      0.002158   -999.250000
     901.1000     10.539385     68.574905      2.044645      0.002737   -999.250000
     901.2000     10.727249     68.513947      2.047160      0.002917   -999.250000
     901.3000     10.668823     68.492905      2.045110      0.002820   -999.250000
     901.4000     10.677933     68.456955      2.041686      0.001687   -999.250000
     901.5000     10.690083     68.436020      2.039883      0.000875   -999.250000
     901.6000     10.655958     68.467636      2.039720      0.000804   -999.250000
     901.7000     10.763363     68.521210      2.039358     -0.000066   -999.250000
     901.8000     10.882948     68.578583      2.038628     -0.001387   -999.250000
     901.9000     10.867479     68.634048      2.037340     -0.002387   -999.250000
     902.0000     10.805603     68.667725      2.034546     -0.003455   -999.250000
     902.1000     10.510395     68.582001      2.032693     -0.004115   -999.250000
     902.2000     10.175095     68.389694      2.032323     -0.004165   -999.250000
     902.3000     10.498285     68.267548      2.029749     -0.004559   -999.250000
     902.4000     11.564877     68.325760      2.026790     -0.005123   -999.250000
     902.5000     12.803055     68.515137      2.026510     -0.005371   -999.250000
