# LAS format data
~Version Information
VERS.     2.00: CWLS LOG ASCII STANDARD - VERSION 2.0
WRAP.       NO: ONE LINE PER DEPTH STEP
~Well Information
#MNEM   .UNITS    DATA                           DESCRIPTION
#----   ------    ----                           -----------
STRT    .M        96.2000                       :First Index Value
STOP    .M        4895.7008                     :Last Index Value
STEP    .M        0.0000                        :Frame Spacing
NULL    .         -999.2500                     :Absent Value
WELL    .         L05-06                        :Well Name   
FLD     .         FINDER_composites_22-02-2005  :Field Name  
CNTY    .                                       :County
STAT    .                                       :State
CTRY    .                                       :Country
LOC     .                                       :Location
API     .                                       :API Number
DATE    .                                       :Date
COMP    .         AMC                           :Company Name
SRVC    .                                       :Service Company
~Parameter Information
#MNEM   .UNITS    VALUE                          DESCRIPTION
#----   ------    -----                          -----------
TDD     .M        4888.00000                    :Total Depth (Driller)   
UBID    .         8073                          :Unique Borehole Id  
PDAT    .         Mean Sea Level                :Permanent Datum 
EPD     .M           0.00000                    :Elevation of Permanent Datum (PDAT) above Mean Sea Level
LMF     .                                       :Logging Measured From (Name of Logging Elevation Reference) 
APD     .M          35.05000                    :Elevation of Depth Reference (LMF) Above Permanent Datum
~Other Information
composite_curve_qc 
~Curve Information
#MNEM   .UNITS    API CODE                       CURVE DESCRIPTION
#----   ------    --------                       -----------------
DEPT    .M                                      :1     Index curve
GR      .GAPI                                   :2     L05-06
DT      .US/F                                   :3     L05-06
RHOB    .G/C3                                   :4     L05-06
DRHO    .G/C3                                   :5     L05-06
NPHI    .V/V                                    :6     L05-06
~Ascii Log Data
# ...
    1267.4001     11.929815     68.782135      2.029263     -0.009392   -999.250000
    1267.5001     11.972139     68.722916      2.027822     -0.010394   -999.250000
    1267.6001     11.732924     68.625488      2.027078     -0.011497   -999.250000
    1267.7001     11.399057     68.545349      2.027390     -0.011988   -999.250000
    1267.8001     11.069937     68.567352      2.028852     -0.011073   -999.250000
    1267.9001     10.377914     68.591339      2.029373     -0.010319   -999.250000
    1268.0001      9.471628     68.584732      2.030397     -0.009428   -999.250000
    1268.1001      8.813896     68.555222      2.034848     -0.007130   -999.250000
    1268.2001      8.315664     68.585648      2.039202     -0.003866   -999.250000
    1268.3001      8.409267     68.645081      2.042798     -0.000346   -999.250000
    1268.4001      9.665236     68.628326      2.046371      0.002445   -999.250000
    1268.5001     11.184654     68.574875      2.048096      0.004574   -999.250000
    1268.6001     12.248550     68.497345      2.049131      0.006178   -999.250000
    1268.7001     12.537464     68.413956      2.052381      0.007586   -999.250000
    1268.8001     12.583952     68.426682      2.054835      0.009157   -999.250000
    1268.9001     12.365503     68.469818      2.054739      0.010611   -999.250000
    1269.0001     11.747147     68.396866      2.053147      0.011325   -999.250000
    1269.1001     11.830734     68.410583      2.051095      0.011767   -999.250000
    1269.2001     12.541801     68.606354      2.049163      0.011972   -999.250000
    1269.3001     12.612127     68.802597      2.047978      0.011419   -999.250000
    1269.4001     12.603340     68.832779      2.048156      0.010056   -999.250000
    1269.5001     12.705366     68.741989      2.047361      0.007483   -999.250000
    1269.6001     12.198229     68.731827      2.042260      0.003547   -999.250000
    1269.7001     11.581362     68.799286      2.035458     -0.000473   -999.250000
    1269.8001     11.403095     68.837006      2.029690     -0.003690   -999.250000
    1269.9001     11.420298     68.784607      2.024427     -0.006637   -999.250000
    1270.0001     11.572384     68.631592      2.020317     -0.009764   -999.250000
    1270.1001     11.907227     68.459015      2.018378     -0.012410   -999.250000
    1270.2001     12.313520     68.382599      2.017949     -0.013647   -999.250000
    1270.3001     12.799582     68.363510      2.018631     -0.013474   -999.250000
    1270.4001     13.277304     68.323486      2.019670     -0.012993   -999.250000
    1270.5001     13.517166     68.265717      2.019847     -0.013436   -999.250000
    1270.6001     13.366129     68.240829      2.021172     -0.014292   -999.250000
    1270.7001     12.920631     68.282944      2.024581     -0.014201   -999.250000
    1270.8001     12.477093     68.376343      2.027123     -0.012651   -999.250000
    1270.9001     12.350441     68.368423      2.030213     -0.010186   -999.250000
    1271.0001     12.519487     68.167389      2.035263     -0.007816   -999.250000
    1271.1001     12.586113     67.892105      2.038529     -0.006184   -999.250000
    1271.2001     12.474745     67.761948      2.041081     -0.004964   -999.250000
    1271.3001     12.382521     67.821823      2.045382     -0.003857   -999.250000
    1271.4001     12.386745     67.838379      2.048428     -0.003478   -999.250000
    1271.5001     12.438221     67.858459      2.048835     -0.003979   -999.250000
    1271.6001     12.370275     68.066208      2.047805     -0.004906   -999.250000
    1271.7001     11.974113     68.333328      2.045492     -0.006119   -999.250000
    1271.8001     11.090609     68.423721      2.042720     -0.007001   -999.250000
    1271.9001      9.926695     68.259003      2.041227     -0.006789   -999.250000
    1272.0001      9.205915     68.078293      2.041508     -0.005855   -999.250000
    1272.1001      9.054829     68.026688      2.043891     -0.004532   -999.250000
    1272.2001      8.970367     68.053375      2.047846     -0.002899   -999.250000
    1272.3001      8.955910     68.085953      2.050990     -0.001035   -999.250000
    1272.4001      8.892540     68.148087      2.051882      0.000637   -999.250000
    1272.5001      8.504499     68.309494      2.051445      0.001451   -999.250000
    1272.6001      8.476252     68.497711      2.051291      0.001741   -999.250000
    1272.7001      9.170725     68.583038      2.052255      0.001944   -999.250000
    1272.8001      9.822351     68.476349      2.053542      0.002176   -999.250000
    1272.9001     10.301138     68.257431      2.053809      0.001944   -999.250000
    1273.0001     10.608419     68.050217      2.051382      0.000840   -999.250000
    1273.1001     10.645741     67.981995      2.046259     -0.000436   -999.250000
    1273.2001     10.779318     68.010406      2.041241     -0.001015   -999.250000
    1273.3001     11.350567     68.063065      2.039275     -0.000493   -999.250000
    1273.4001     11.923649     68.092743      2.039387     -0.000414   -999.250000
    1273.5001     12.495184     68.118088      2.040534     -0.000936   -999.250000
    1273.6001     12.989807     68.180008      2.042309     -0.001472   -999.250000
    1273.7001     12.851177     68.274857      2.045570     -0.000947   -999.250000
    1273.8001     12.387379     68.338501      2.047832     -0.000096   -999.250000
    1273.9001     12.239267     68.267776      2.044416     -0.000549   -999.250000
    1274.0001     11.839008     68.216492      2.040734     -0.001171   -999.250000
    1274.1001     11.185047     68.177704      2.038050     -0.001380   -999.250000
    1274.2001     10.644863     68.089630      2.037680     -0.000300   -999.250000
    1274.3001     10.425867     68.091034      2.038672      0.000439   -999.250000
    1274.4001     10.419868     68.169891      2.041373      0.000358   -999.250000
    1274.5001     10.199753     68.187714      2.046153     -0.001066   -999.250000
    1274.6001     10.663792     68.165863      2.047465     -0.002454   -999.250000
    1274.7001     11.669079     68.099411      2.045335     -0.003397   -999.250000
    1274.8001     11.475254     67.997330      2.046436     -0.003481   -999.250000
    1274.9001     11.167553     67.977615      2.045330     -0.004028   -999.250000
    1275.0001     10.913563     68.072418      2.040545     -0.005467   -999.250000
    1275.1001     10.421988     68.140884      2.035672     -0.007434   -999.250000
    1275.2001     10.236656     68.138519      2.033562     -0.007959   -999.250000
    1275.3001     10.747618     68.044708      2.035583     -0.006281   -999.250000
    1275.4001     12.347282     68.067825      2.033990     -0.007077   -999.250000
    1275.5001     13.465172     68.163162      2.032480     -0.008261   -999.250000
    1275.6001     13.317886     68.314636      2.032166     -0.009261   -999.250000
    1275.7001     13.546581     68.231552      2.027890     -0.011453   -999.250000
    1275.8001     13.383039     68.083954      2.023574     -0.012999   -999.250000
    1275.9001     12.210995     67.975876      2.022164     -0.012330   -999.250000
    1276.0001     11.936741     68.097260      2.024266     -0.011421   -999.250000
    1276.1001     11.812922     68.228485      2.028014     -0.009738   -999.250000
    1276.2001     11.119558     68.151718      2.032855     -0.006140   -999.250000
    1276.3001     10.568989     68.157440      2.036564     -0.004627   -999.250000
    1276.4001     10.259390     68.205139      2.040096     -0.004257   -999.250000
    1276.5001     10.508018     68.280090      2.044715     -0.004474   -999.250000
    1276.6001     10.476570     68.419968      2.045592     -0.004435   -999.250000
    1276.7001     10.433481     68.526703      2.043189     -0.005020   -999.250000
    1276.8001     10.889688     68.386993      2.036082     -0.008429   -999.250000
    1276.9001     11.088179     68.281967      2.028777     -0.011194   -999.250000
