# LAS format data
~Version Information
VERS.     2.00: CWLS LOG ASCII STANDARD - VERSION 2.0
WRAP.       NO: ONE LINE PER DEPTH STEP
~Well Information
#MNEM   .UNITS    DATA                           DESCRIPTION
#----   ------    ----                           -----------
STRT    .M        96.2000                       :First Index Value
STOP    .M        4895.7008                     :Last Index Value
STEP    .M        0.0000                        :Frame Spacing
NULL    .         -999.2500                     :Absent Value
WELL    .         L05-06                        :Well Name   
FLD     .         FINDER_composites_22-02-2005  :Field Name  
CNTY    .                                       :County
STAT    .                                       :State
CTRY    .                                       :Country
LOC     .                                       :Location
API     .                                       :API Number
DATE    .                                       :Date
COMP    .         AMC                           :Company Name
SRVC    .                                       :Service Company
~Parameter Information
#MNEM   .UNITS    VALUE                          DESCRIPTION
#----   ------    -----                          -----------
TDD     .M        4888.00000                    :Total Depth (Driller)   
UBID    .         8073                          :Unique Borehole Id  
PDAT    .         Mean Sea Level                :Permanent Datum 
EPD     .M           0.00000                    :Elevation of Permanent Datum (PDAT) above Mean Sea Level
LMF     .                                       :Logging Measured From (Name of Logging Elevation Reference) 
APD     .M          35.05000                    :Elevation of Depth Reference (LMF) Above Permanent Datum
~Other Information
composite_curve_qc 
~Curve Information
#MNEM   .UNITS    API CODE                       CURVE DESCRIPTION
#----   ------    --------                       -----------------
DEPT    .M                                      :1     Index curve
GR      .GAPI                                   :2     L05-06
DT      .US/F                                   :3     L05-06
RHOB    .G/C3                                   :4     L05-06
DRHO    .G/C3                                   :5     L05-06
NPHI    .V/V                                    :6     L05-06
~Ascii Log Data
# ...
    3965.0004     40.303886     66.486588   -999.250000   -999.250000     -0.007187
    3965.1004     39.209595     66.346191   -999.250000   -999.250000     -0.007735
    3965.2004     37.556648     66.203705   -999.250000   -999.250000     -0.008305
    3965.3004     35.725136     66.147476   -999.250000   -999.250000     -0.008479
    3965.4004     34.355164     66.148346   -999.250000   -999.250000     -0.008247
    3965.5004     33.360451     66.289780   -999.250000   -999.250000     -0.007847
    3965.6004     32.612793     66.654816   -999.250000   -999.250000     -0.007508
    3965.7004     31.974205     67.037872   -999.250000   -999.250000     -0.007286
    3965.8004     31.918732     67.321869   -999.250000   -999.250000     -0.007179
    3965.9004     32.485153     67.431000   -999.250000   -999.250000     -0.007086
    3966.0004     31.975330     67.464142   -999.250000   -999.250000     -0.006756
    3966.1004     31.144699     67.453033   -999.250000   -999.250000     -0.006219
    3966.2004     31.136223     67.413025   -999.250000   -999.250000     -0.005655
    3966.3004     30.789978     67.388901   -999.250000   -999.250000     -0.005302
    3966.4004     30.059383     67.401962   -999.250000   -999.250000     -0.005322
    3966.5004     29.280617     67.439102   -999.250000   -999.250000     -0.005824
    3966.6004     28.078403     67.434158   -999.250000   -999.250000     -0.006589
    3966.7004     27.219341     67.372345   -999.250000   -999.250000     -0.007456
    3966.8004     27.786907     67.249512   -999.250000   -999.250000     -0.008178
    3966.9004     28.894218     67.034317   -999.250000   -999.250000     -0.008581
    3967.0004     30.083748     66.800400   -999.250000   -999.250000     -0.008644
    3967.1004     30.947479     66.649002   -999.250000   -999.250000     -0.008515
    3967.2004     30.631744     66.494034   -999.250000   -999.250000     -0.008416
    3967.3004     29.737083     66.389160   -999.250000   -999.250000     -0.008584
    3967.4004     29.548458     66.490112   -999.250000   -999.250000     -0.009090
    3967.5004     29.621147     66.813202   -999.250000   -999.250000     -0.009636
    3967.6004     29.886799     67.186432   -999.250000   -999.250000     -0.009986
    3967.7004     30.587238     67.407410   -999.250000   -999.250000     -0.010117
    3967.8004     30.762985     67.520401   -999.250000   -999.250000     -0.010058
    3967.9004     29.914272     67.562332   -999.250000   -999.250000     -0.009941
    3968.0004     28.652660     67.478378   -999.250000   -999.250000     -0.009924
    3968.1004     27.627434     67.182449   -999.250000   -999.250000     -0.009956
    3968.2004     27.514111     66.837936   -999.250000   -999.250000     -0.009968
    3968.3004     28.598534     66.720215   -999.250000   -999.250000     -0.009942
    3968.4004     30.358185     66.775635   -999.250000   -999.250000     -0.009762
    3968.5004     31.844707     66.874451   -999.250000   -999.250000     -0.009460
    3968.6004     32.501114     66.994888   -999.250000   -999.250000     -0.009217
    3968.7004     33.108131     67.115952   -999.250000   -999.250000     -0.008916
    3968.8004     33.942070     67.184448   -999.250000   -999.250000     -0.008547
    3968.9004     34.212303     67.158035   -999.250000   -999.250000     -0.008366
    3969.0004     34.218262     66.991272   -999.250000   -999.250000     -0.008310
    3969.1004     34.217422     66.770554   -999.250000   -999.250000     -0.008333
    3969.2004     33.587250     66.697296   -999.250000   -999.250000     -0.008614
    3969.3004     32.790504     66.898209   -999.250000   -999.250000     -0.008969
    3969.4004     32.980247     67.278320   -999.250000   -999.250000     -0.009127
    3969.5004     34.454468     67.552124   -999.250000   -999.250000     -0.009175
    3969.6004     36.036270     67.550507   -999.250000   -999.250000     -0.009167
    3969.7004     36.566406     67.351837   -999.250000   -999.250000     -0.009139
    3969.8004     36.685127     67.259155   -999.250000   -999.250000     -0.009215
    3969.9004     36.031784     67.265228   -999.250000   -999.250000     -0.009327
    3970.0004     34.029633     67.303421   -999.250000   -999.250000     -0.009331
    3970.1004     32.002060     67.631958   -999.250000   -999.250000     -0.009283
    3970.2004     30.789921     68.107620   -999.250000   -999.250000     -0.009183
    3970.3004     30.560272     68.278259   -999.250000   -999.250000     -0.009007
    3970.4004     30.866909     68.263580   -999.250000   -999.250000     -0.008860
    3970.5004     31.587650     68.180359   -999.250000   -999.250000     -0.008809
    3970.6004     32.670891     68.052200   -999.250000   -999.250000     -0.008835
    3970.7004     33.916481     67.837524   -999.250000   -999.250000     -0.008822
    3970.8004     35.186157     67.523468   -999.250000   -999.250000     -0.008761
    3970.9004     36.241600     67.222183   -999.250000   -999.250000     -0.008718
    3971.0004     37.005013     67.039230   -999.250000   -999.250000     -0.008504
    3971.1004     37.171707     66.984787   -999.250000   -999.250000     -0.008006
    3971.2004     36.356369     66.894043   -999.250000   -999.250000     -0.007439
    3971.3004     34.772308     66.756210   -999.250000   -999.250000     -0.006917
    3971.4004     33.056129     66.610306   -999.250000   -999.250000     -0.006490
    3971.5004     32.644424     66.524414   -999.250000   -999.250000     -0.006088
    3971.6004     32.623894     66.448318   -999.250000   -999.250000     -0.005832
    3971.7004     32.485863     66.345947   -999.250000   -999.250000     -0.005887
    3971.8004     33.565865     66.273849   -999.250000   -999.250000     -0.006066
    3971.9004     35.063606     66.230103   -999.250000   -999.250000     -0.006247
    3972.0004     35.953751     66.225067   -999.250000   -999.250000     -0.006304
    3972.1004     36.949921     66.284622   -999.250000   -999.250000     -0.006271
    3972.2002     38.070633     66.400940   -999.250000   -999.250000     -0.006179
    3972.3002     39.240456     66.600540   -999.250000   -999.250000     -0.006059
    3972.4002     40.448685     66.943726   -999.250000   -999.250000     -0.005975
    3972.5002     41.727806     67.312775   -999.250000   -999.250000     -0.005990
    3972.6002     42.908615     67.433777   -999.250000   -999.250000     -0.006253
    3972.7002     42.057289     67.537170   -999.250000   -999.250000     -0.006470
    3972.8002     39.470642     67.617035   -999.250000   -999.250000     -0.006641
    3972.9002     36.461433     67.601486   -999.250000   -999.250000     -0.006849
    3973.0002     33.897926     67.573746   -999.250000   -999.250000     -0.007204
    3973.1002     32.210999     67.544479   -999.250000   -999.250000     -0.007698
    3973.2002     33.327271     67.575394   -999.250000   -999.250000     -0.008425
    3973.3002     34.751724     67.621765   -999.250000   -999.250000     -0.009355
    3973.4002     36.147453     67.677856   -999.250000   -999.250000     -0.010366
    3973.5002     35.602043     67.701721   -999.250000   -999.250000     -0.010431
    3973.6002     34.554176     67.704926   -999.250000   -999.250000     -0.010480
    3973.7002     33.146294     67.681519   -999.250000   -999.250000     -0.010563
    3973.8002     32.048630     67.624069   -999.250000   -999.250000     -0.010182
    3973.9002     31.792793     67.604843   -999.250000   -999.250000     -0.009894
    3974.0002     32.835152     67.705917   -999.250000   -999.250000     -0.009837
    3974.1002     34.184303     68.205627   -999.250000   -999.250000     -0.009701
    3974.2002     35.328545     68.517899   -999.250000   -999.250000     -0.009661
    3974.3002     35.818420     68.328476   -999.250000   -999.250000     -0.009848
    3974.4002     34.727188     68.092041   -999.250000   -999.250000     -0.010112
    3974.5002     32.962471     67.847382   -999.250000   -999.250000     -0.010353
