# LAS format data
~Version Information
VERS.     2.00: CWLS LOG ASCII STANDARD - VERSION 2.0
WRAP.       NO: ONE LINE PER DEPTH STEP
~Well Information
#MNEM   .UNITS    DATA                           DESCRIPTION
#----   ------    ----                           -----------
STRT    .M        96.2000                       :First Index Value
STOP    .M        4895.7008                     :Last Index Value
STEP    .M        0.0000                        :Frame Spacing
NULL    .         -999.2500                     :Absent Value
WELL    .         L05-06                        :Well Name   
FLD     .         FINDER_composites_22-02-2005  :Field Name  
CNTY    .                                       :County
STAT    .                                       :State
CTRY    .                                       :Country
LOC     .                                       :Location
API     .                                       :API Number
DATE    .                                       :Date
COMP    .         AMC                           :Company Name
SRVC    .                                       :Service Company
~Parameter Information
#MNEM   .UNITS    VALUE                          DESCRIPTION
#----   ------    -----                          -----------
TDD     .M        4888.00000                    :Total Depth (Driller)   
UBID    .         8073                          :Unique Borehole Id  
PDAT    .         Mean Sea Level                :Permanent Datum 
EPD     .M           0.00000                    :Elevation of Permanent Datum (PDAT) above Mean Sea Level
LMF     .                                       :Logging Measured From (Name of Logging Elevation Reference) 
APD     .M          35.05000                    :Elevation of Depth Reference (LMF) Above Permanent Datum
~Other Information
composite_curve_qc 
~Curve Information
#MNEM   .UNITS    API CODE                       CURVE DESCRIPTION
#----   ------    --------                       -----------------
DEPT    .M                                      :1     Index curve
GR      .GAPI                                   :2     L05-06
DT      .US/F                                   :3     L05-06
RHOB    .G/C3                                   :4     L05-06
DRHO    .G/C3                                   :5     L05-06
NPHI    .V/V                                    :6     L05-06
~Ascii Log Data
# ...
    4329.8006     26.502712     56.185699   -999.250000   -999.250000      0.002324
    4329.9006     26.853012     56.536697   -999.250000   -999.250000      0.002960
    4330.0006     28.009727     56.707123   -999.250000   -999.250000      0.004403
    4330.1006     30.665344     56.790855   -999.250000   -999.250000      0.008072
    4330.2006     33.441658     56.780182   -999.250000   -999.250000      0.012724
    4330.3006     34.815964     56.622536   -999.250000   -999.250000      0.017485
    4330.4006     34.405891     56.360672   -999.250000   -999.250000      0.022427
    4330.5006     33.762932     56.019814   -999.250000   -999.250000      0.024143
    4330.6006     34.251534     55.611900   -999.250000   -999.250000      0.018601
    4330.7006     34.447861     55.337822   -999.250000   -999.250000      0.012685
    4330.8006     34.170616     55.235313   -999.250000   -999.250000      0.007141
    4330.9006     33.111954     55.395882   -999.250000   -999.250000      0.002453
    4331.0006     31.767487     55.550003   -999.250000   -999.250000     -0.000672
    4331.1006     30.240658     55.689476   -999.250000   -999.250000     -0.002420
    4331.2006     28.657597     55.822044   -999.250000   -999.250000     -0.002542
    4331.3006     27.771473     55.933380   -999.250000   -999.250000     -0.002462
    4331.4006     27.311539     56.023781   -999.250000   -999.250000     -0.002182
    4331.5006     26.448772     56.063263   -999.250000   -999.250000     -0.001312
    4331.6006     25.968708     55.904694   -999.250000   -999.250000     -0.000712
    4331.7006     25.851158     55.612762   -999.250000   -999.250000     -0.000357
    4331.8006     26.146328     55.534958   -999.250000   -999.250000     -0.000237
    4331.9006     26.461349     55.612892   -999.250000   -999.250000     -0.000759
    4332.0006     26.593456     55.821243   -999.250000   -999.250000     -0.001953
    4332.1006     25.162949     55.865440   -999.250000   -999.250000     -0.003699
    4332.2006     24.284203     55.794708   -999.250000   -999.250000     -0.004860
    4332.3006     24.055397     55.624786   -999.250000   -999.250000     -0.005270
    4332.4006     23.260860     55.693665   -999.250000   -999.250000     -0.005180
    4332.5006     23.610912     55.710320   -999.250000   -999.250000     -0.004944
    4332.6006     25.467045     55.628914   -999.250000   -999.250000     -0.004617
    4332.7006     25.481365     55.668396   -999.250000   -999.250000     -0.004667
    4332.8006     26.024651     55.760269   -999.250000   -999.250000     -0.004773
    4332.9006     27.644791     55.892136   -999.250000   -999.250000     -0.004745
    4333.0006     27.911823     55.936287   -999.250000   -999.250000     -0.004034
    4333.1006     28.045895     55.770134   -999.250000   -999.250000     -0.003668
    4333.2006     28.304680     55.334717   -999.250000   -999.250000     -0.004318
    4333.3006     27.337269     55.253624   -999.250000   -999.250000     -0.005248
    4333.4006     26.142422     55.348572   -999.250000   -999.250000     -0.006525
    4333.5006     25.407444     55.536720   -999.250000   -999.250000     -0.008146
    4333.6006     24.795357     55.666336   -999.250000   -999.250000     -0.009146
    4333.7006     23.806366     55.692795   -999.250000   -999.250000     -0.009813
    4333.8006     22.136433     55.546669   -999.250000   -999.250000     -0.010353
    4333.9006     21.119675     55.371330   -999.250000   -999.250000     -0.010942
    4334.0006     20.596886     55.354507   -999.250000   -999.250000     -0.011357
    4334.1006     20.584843     55.672836   -999.250000   -999.250000     -0.011258
    4334.2006     21.373474     55.855400   -999.250000   -999.250000     -0.010995
    4334.3006     22.738258     55.906418   -999.250000   -999.250000     -0.010536
    4334.4006     24.045269     55.920555   -999.250000   -999.250000     -0.009759
    4334.5006     24.424126     55.897034   -999.250000   -999.250000     -0.008944
    4334.6006     24.978626     55.848381   -999.250000   -999.250000     -0.007983
    4334.7006     27.062130     55.801956   -999.250000   -999.250000     -0.006711
    4334.8006     27.991585     55.758713   -999.250000   -999.250000     -0.005545
    4334.9006     28.004311     55.763847   -999.250000   -999.250000     -0.004517
    4335.0006     28.545773     55.838013   -999.250000   -999.250000     -0.003466
    4335.1006     28.808353     55.818451   -999.250000   -999.250000     -0.002417
    4335.2006     29.205723     55.665901   -999.250000   -999.250000     -0.001171
    4335.3006     30.708256     55.492500   -999.250000   -999.250000      0.000478
    4335.4006     32.227043     55.472092   -999.250000   -999.250000      0.002005
    4335.5006     32.675232     55.526527   -999.250000   -999.250000      0.002778
    4335.6006     31.658581     55.488831   -999.250000   -999.250000      0.002479
    4335.7006     30.115070     55.558434   -999.250000   -999.250000      0.001666
    4335.8006     28.846085     55.752190   -999.250000   -999.250000      0.000538
    4335.9006     28.357311     55.866005   -999.250000   -999.250000     -0.000796
    4336.0006     28.724991     55.870163   -999.250000   -999.250000     -0.001791
    4336.1006     29.499958     55.832458   -999.250000   -999.250000     -0.002328
    4336.2006     29.875099     55.830864   -999.250000   -999.250000     -0.002681
    4336.3006     29.630798     55.876183   -999.250000   -999.250000     -0.002680
    4336.4006     28.664692     55.906868   -999.250000   -999.250000     -0.002305
    4336.5006     27.249023     55.862617   -999.250000   -999.250000     -0.001881
    4336.6006     26.541313     55.782402   -999.250000   -999.250000     -0.001282
    4336.7006     27.159603     55.719612   -999.250000   -999.250000     -0.000579
    4336.8006     28.406902     55.692665   -999.250000   -999.250000     -0.000182
    4336.9006     29.409782     55.750107   -999.250000   -999.250000     -0.000024
    4337.0006     30.167030     55.845406   -999.250000   -999.250000      0.000053
    4337.1006     31.212021     55.858421   -999.250000   -999.250000      0.000028
    4337.2006     31.885101     55.832901   -999.250000   -999.250000      0.000041
    4337.3006     31.865303     55.853668   -999.250000   -999.250000      0.000186
    4337.4006     31.994804     55.903526   -999.250000   -999.250000      0.000338
    4337.5006     31.629135     55.923157   -999.250000   -999.250000      0.000364
    4337.6006     30.348598     55.876282   -999.250000   -999.250000      0.000313
    4337.7006     29.434753     55.776955   -999.250000   -999.250000      0.000387
    4337.8006     29.185722     55.678719   -999.250000   -999.250000      0.000910
    4337.9006     29.345936     55.642632   -999.250000   -999.250000      0.001944
    4338.0006     30.242348     55.693542   -999.250000   -999.250000      0.003100
    4338.1006     31.622295     55.910133   -999.250000   -999.250000      0.003929
    4338.2006     32.487404     56.325516   -999.250000   -999.250000      0.004152
    4338.3006     32.054146     56.826111   -999.250000   -999.250000      0.003838
    4338.4006     30.530163     57.173721   -999.250000   -999.250000      0.003183
    4338.5006     28.892105     57.214958   -999.250000   -999.250000      0.002522
    4338.6006     27.787498     57.136040   -999.250000   -999.250000      0.002153
    4338.7006     27.673500     57.105690   -999.250000   -999.250000      0.002360
    4338.8006     28.419407     57.128708   -999.250000   -999.250000      0.003228
    4338.9006     28.806648     57.007469   -999.250000   -999.250000      0.004396
    4339.0006     28.740662     56.724915   -999.250000   -999.250000      0.005968
    4339.1006     29.184322     56.501289   -999.250000   -999.250000      0.008151
    4339.2006     30.093613     56.482582   -999.250000   -999.250000      0.010012
    4339.3006     31.165279     56.644028   -999.250000   -999.250000      0.011319
