# LAS format data
~Version Information
VERS.     2.00: CWLS LOG ASCII STANDARD - VERSION 2.0
WRAP.       NO: ONE LINE PER DEPTH STEP
~Well Information
#MNEM   .UNITS    DATA                           DESCRIPTION
#----   ------    ----                           -----------
STRT    .M        96.2000                       :First Index Value
STOP    .M        4895.7008                     :Last Index Value
STEP    .M        0.0000                        :Frame Spacing
NULL    .         -999.2500                     :Absent Value
WELL    .         L05-06                        :Well Name   
FLD     .         FINDER_composites_22-02-2005  :Field Name  
CNTY    .                                       :County
STAT    .                                       :State
CTRY    .                                       :Country
LOC     .                                       :Location
API     .                                       :API Number
DATE    .                                       :Date
COMP    .         AMC                           :Company Name
SRVC    .                                       :Service Company
~Parameter Information
#MNEM   .UNITS    VALUE                          DESCRIPTION
#----   ------    -----                          -----------
TDD     .M        4888.00000                    :Total Depth (Driller)   
UBID    .         8073                          :Unique Borehole Id  
PDAT    .         Mean Sea Level                :Permanent Datum 
EPD     .M           0.00000                    :Elevation of Permanent Datum (PDAT) above Mean Sea Level
LMF     .                                       :Logging Measured From (Name of Logging Elevation Reference) 
APD     .M          35.05000                    :Elevation of Depth Reference (LMF) Above Permanent Datum
~Other Information
composite_curve_qc 
~Curve Information
#MNEM   .UNITS    API CODE                       CURVE DESCRIPTION
#----   ------    --------                       -----------------
DEPT    .M                                      :1     Index curve
GR      .GAPI                                   :2     L05-06
DT      .US/F                                   :3     L05-06
RHOB    .G/C3                                   :4     L05-06
DRHO    .G/C3                                   :5     L05-06
NPHI    .V/V                                    :6     L05-06
~Ascii Log Data
# ...
    1075.4001     23.970509     67.986847      2.082450     -0.004064   -999.250000
    1075.5001     22.779694     67.948105      2.087143     -0.003412   -999.250000
    1075.6001     22.318645     67.862778      2.086151     -0.001456   -999.250000
    1075.7001     21.572224     67.872833      2.083689      0.000281   -999.250000
    1075.8001     19.941875     68.094482      2.081488      0.000511   -999.250000
    1075.9001     19.716293     68.049438      2.078402      0.000099   -999.250000
    1076.0001     19.802292     67.902771      2.075727     -0.000135   -999.250000
    1076.1001     19.439919     67.763107      2.075455      0.000815   -999.250000
    1076.2001     19.509846     67.749695      2.076558      0.002126   -999.250000
    1076.3001     19.472469     67.768982      2.075918      0.002304   -999.250000
    1076.4001     18.588398     67.718933      2.068302     -0.001368   -999.250000
    1076.5001     18.477497     67.700150      2.064518     -0.002635   -999.250000
    1076.6001     18.947693     67.694855      2.063154     -0.002875   -999.250000
    1076.7001     19.761250     67.668671      2.062734     -0.004427   -999.250000
    1076.8001     19.615253     67.605804      2.063036     -0.006945   -999.250000
    1076.9001     19.224613     67.557266      2.063536     -0.009943   -999.250000
    1077.0001     20.058239     67.635513      2.063772     -0.012020   -999.250000
    1077.1001     19.552799     67.650681      2.067825     -0.011471   -999.250000
    1077.2001     18.371120     67.621216      2.073946     -0.009715   -999.250000
    1077.3001     18.539467     67.614197      2.076941     -0.010730   -999.250000
    1077.4001     17.635979     67.526505      2.081076     -0.010545   -999.250000
    1077.5001     16.625965     67.458435      2.085992     -0.009004   -999.250000
    1077.6001     18.645855     67.681015      2.089008     -0.007456   -999.250000
    1077.7001     20.642376     67.864700      2.088560     -0.007361   -999.250000
    1077.8001     22.129425     67.900879      2.084804     -0.008841   -999.250000
    1077.9001     23.491318     67.766205      2.080163     -0.010765   -999.250000
    1078.0001     23.615990     67.628708      2.075128     -0.012358   -999.250000
    1078.1001     22.594177     67.574417      2.070272     -0.013376   -999.250000
    1078.2001     22.125782     67.635269      2.066858     -0.014061   -999.250000
    1078.3001     22.148468     67.695541      2.064859     -0.014853   -999.250000
    1078.4001     22.344025     67.720108      2.065041     -0.015407   -999.250000
    1078.5001     22.121433     67.739578      2.068281     -0.014656   -999.250000
    1078.6001     21.281147     67.718750      2.073281     -0.013044   -999.250000
    1078.7001     19.904922     67.684830      2.078200     -0.011180   -999.250000
    1078.8001     18.723244     67.740616      2.080345     -0.009899   -999.250000
    1078.9001     18.312614     67.818130      2.080361     -0.009089   -999.250000
    1079.0001     18.964420     67.832413      2.079437     -0.008220   -999.250000
    1079.1001     20.134880     67.763397      2.078893     -0.006757   -999.250000
    1079.2001     20.815037     67.666824      2.078866     -0.005271   -999.250000
    1079.3001     20.762165     67.581909      2.079475     -0.004049   -999.250000
    1079.4001     20.980049     67.505417      2.080964     -0.002432   -999.250000
    1079.5001     21.310020     67.490967      2.083303     -0.000226   -999.250000
    1079.6001     21.462635     67.553406      2.085845      0.002160   -999.250000
    1079.7001     21.737152     67.601501      2.087565      0.004063   -999.250000
    1079.8001     21.539932     67.627472      2.088544      0.005396   -999.250000
    1079.9001     20.677387     67.633286      2.089689      0.006337   -999.250000
    1080.0001     20.203037     67.582275      2.091826      0.007104   -999.250000
    1080.1001     20.235920     67.519501      2.093695      0.007035   -999.250000
    1080.2001     20.563198     67.500000      2.093729      0.005991   -999.250000
    1080.3001     21.408306     67.500000      2.092304      0.005274   -999.250000
    1080.4001     22.079178     67.500000      2.089671      0.004720   -999.250000
    1080.5001     21.996159     67.498520      2.085198      0.003352   -999.250000
    1080.6001     21.856590     67.493011      2.078158      0.001121   -999.250000
    1080.7001     21.627357     67.476318      2.072247     -0.000417   -999.250000
    1080.8001     21.070644     67.464584      2.070575     -0.000398   -999.250000
    1080.9001     20.804440     67.501068      2.070267     -0.000286   -999.250000
    1081.0001     20.781139     67.535095      2.070225     -0.000817   -999.250000
    1081.1001     20.471489     67.485153      2.071514     -0.001385   -999.250000
    1081.2001     19.931282     67.366638      2.073789     -0.001318   -999.250000
    1081.3001     19.381130     67.303467      2.074747     -0.000891   -999.250000
    1081.4001     18.925152     67.425308      2.073060     -0.000736   -999.250000
    1081.5001     18.636299     67.763641      2.070982     -0.000673   -999.250000
    1081.6001     18.567680     68.019348      2.069695     -0.000518   -999.250000
    1081.7001     18.779167     67.896561      2.069173     -0.000464   -999.250000
    1081.8001     19.445103     67.641769      2.071775     -0.000701   -999.250000
    1081.9001     20.487160     67.549194      2.076751     -0.001848   -999.250000
    1082.0001     21.425247     67.617737      2.080018     -0.004108   -999.250000
    1082.1001     21.936691     67.641205      2.082343     -0.006027   -999.250000
    1082.2001     21.903450     67.537399      2.084120     -0.006737   -999.250000
    1082.3001     21.476650     67.436417      2.083667     -0.007033   -999.250000
    1082.4001     20.831123     67.373413      2.083414     -0.007508   -999.250000
    1082.5001     20.556328     67.346329      2.084793     -0.008171   -999.250000
    1082.6001     21.369225     67.371490      2.085224     -0.008635   -999.250000
    1082.7001     22.521072     67.416702      2.084624     -0.008670   -999.250000
    1082.8001     23.236851     67.423447      2.083644     -0.008218   -999.250000
    1082.9001     23.863552     67.368927      2.081934     -0.007632   -999.250000
    1083.0001     24.050800     67.376419      2.079761     -0.007904   -999.250000
    1083.1001     23.390984     67.500305      2.078010     -0.009315   -999.250000
    1083.2001     22.740593     67.484512      2.077289     -0.009714   -999.250000
    1083.3001     22.198338     67.419083      2.077238     -0.009050   -999.250000
    1083.4001     21.624527     67.502258      2.077620     -0.007777   -999.250000
    1083.5001     21.324699     67.542862      2.079359     -0.005006   -999.250000
    1083.6001     21.235470     67.532013      2.081268     -0.002090   -999.250000
    1083.7001     21.185509     67.554916      2.081072     -0.001713   -999.250000
    1083.8001     21.538082     67.545578      2.081311     -0.001312   -999.250000
    1083.9001     22.079765     67.514542      2.082644     -0.000242   -999.250000
    1084.0001     22.044884     67.541656      2.084600      0.001013   -999.250000
    1084.1001     21.618618     67.627136      2.086273      0.001559   -999.250000
    1084.2001     21.019577     67.703491      2.086877      0.000970   -999.250000
    1084.3001     20.716621     67.619568      2.085763     -0.000513   -999.250000
    1084.4001     20.412518     67.583389      2.085772     -0.001100   -999.250000
    1084.5001     20.256893     67.612961      2.086948     -0.000564   -999.250000
    1084.6001     20.913452     67.512451      2.085640     -0.000827   -999.250000
    1084.7001     21.531387     67.449203      2.083350     -0.001608   -999.250000
    1084.8001     21.683434     67.486771      2.081455     -0.002514   -999.250000
    1084.9001     21.367474     67.488708      2.083206     -0.002261   -999.250000
