# LAS format data
~Version Information
VERS.     2.00: CWLS LOG ASCII STANDARD - VERSION 2.0
WRAP.       NO: ONE LINE PER DEPTH STEP
~Well Information
#MNEM   .UNITS    DATA                           DESCRIPTION
#----   ------    ----                           -----------
STRT    .M        96.2000                       :First Index Value
STOP    .M        4895.7008                     :Last Index Value
STEP    .M        0.0000                        :Frame Spacing
NULL    .         -999.2500                     :Absent Value
WELL    .         L05-06                        :Well Name   
FLD     .         FINDER_composites_22-02-2005  :Field Name  
CNTY    .                                       :County
STAT    .                                       :State
CTRY    .                                       :Country
LOC     .                                       :Location
API     .                                       :API Number
DATE    .                                       :Date
COMP    .         AMC                           :Company Name
SRVC    .                                       :Service Company
~Parameter Information
#MNEM   .UNITS    VALUE                          DESCRIPTION
#----   ------    -----                          -----------
TDD     .M        4888.00000                    :Total Depth (Driller)   
UBID    .         8073                          :Unique Borehole Id  
PDAT    .         Mean Sea Level                :Permanent Datum 
EPD     .M           0.00000                    :Elevation of Permanent Datum (PDAT) above Mean Sea Level
LMF     .                                       :Logging Measured From (Name of Logging Elevation Reference) 
APD     .M          35.05000                    :Elevation of Depth Reference (LMF) Above Permanent Datum
~Other Information
composite_curve_qc 
~Curve Information
#MNEM   .UNITS    API CODE                       CURVE DESCRIPTION
#----   ------    --------                       -----------------
DEPT    .M                                      :1     Index curve
GR      .GAPI                                   :2     L05-06
DT      .US/F                                   :3     L05-06
RHOB    .G/C3                                   :4     L05-06
DRHO    .G/C3                                   :5     L05-06
NPHI    .V/V                                    :6     L05-06
~Ascii Log Data
# ...
     317.0000     19.269676    174.195618      1.896676      0.002104   -999.250000
     317.1000     21.115116    174.634003      1.895838      0.002108   -999.250000
     317.2000     24.254276    174.934906      1.898646      0.003150   -999.250000
     317.3000     28.352573    174.986908      1.908214      0.004739   -999.250000
     317.4000     32.346077    175.296204      1.916986      0.006624   -999.250000
     317.5000     35.905609    175.838745      1.926429      0.008661   -999.250000
     317.6000     37.848068    176.747162      1.937248      0.010702   -999.250000
     317.7000     40.385918    177.798492      1.939795      0.013844   -999.250000
     317.8000     43.117729    178.849640      1.937710      0.016387   -999.250000
     317.9000     44.879639    179.462402      1.934412      0.014541   -999.250000
     318.0000     44.987793    179.751740      1.932917      0.013926   -999.250000
     318.1000     44.191582    179.766846      1.934591      0.014961   -999.250000
     318.2000     43.757645    179.461945      1.942990      0.018605   -999.250000
     318.3000     42.789635    179.199097      1.945420      0.019504   -999.250000
     318.4000     42.037506    178.930298      1.942426      0.017927   -999.250000
     318.5000     43.442497    178.387238      1.937925      0.015955   -999.250000
     318.6000     43.129868    177.615326      1.932547      0.015158   -999.250000
     318.7000     41.549248    176.773285      1.926479      0.015273   -999.250000
     318.8000     41.363350    176.495514      1.919995      0.014543   -999.250000
     318.9000     40.594902    177.118958      1.912483      0.012789   -999.250000
     319.0000     39.674782    178.628540      1.906804      0.010929   -999.250000
     319.1000     40.596512    180.156586      1.909734      0.011207   -999.250000
     319.2000     41.260918    180.692505      1.916184      0.011139   -999.250000
     319.3000     41.335159    180.002258      1.923753      0.010189   -999.250000
     319.4000     41.792984    178.683167      1.930254      0.009449   -999.250000
     319.5000     41.413979    176.465881      1.936216      0.008528   -999.250000
     319.6000     40.083961    173.209045      1.941871      0.007174   -999.250000
     319.7000     39.383232    169.804291      1.947313      0.005639   -999.250000
     319.8000     39.070053    167.593658      1.953044      0.004251   -999.250000
     319.9000     38.632401    167.175201      1.959241      0.003745   -999.250000
     320.0000     37.603447    167.514984      1.965068      0.004783   -999.250000
     320.1000     35.882126    168.140503      1.968700      0.006197   -999.250000
     320.2000     33.400269    168.834167      1.969364      0.007812   -999.250000
     320.3000     30.587059    169.332458      1.968475      0.010715   -999.250000
     320.4000     28.021080    169.647003      1.964461      0.014408   -999.250000
     320.5000     26.648544    169.851074      1.957576      0.018079   -999.250000
     320.6000     27.084480    169.997864      1.952718      0.021113   -999.250000
     320.7000     28.067238    170.054474      1.949742      0.022824   -999.250000
     320.8000     28.618572    169.962524      1.950415      0.023426   -999.250000
     320.9000     29.231163    169.751831      1.958950      0.024271   -999.250000
     321.0000     29.559135    169.544830      1.967281      0.023285   -999.250000
     321.1000     29.132587    169.440094      1.968761      0.018981   -999.250000
     321.2000     28.465694    169.417755      1.969796      0.014144   -999.250000
     321.3000     28.477985    169.811005      1.968052      0.010967   -999.250000
     321.4000     29.585678    170.968231      1.959484      0.009932   -999.250000
     321.5000     31.154961    172.719788      1.949186      0.009916   -999.250000
     321.6000     32.974884    174.519165      1.937117      0.010177   -999.250000
     321.7000     34.780556    175.733765      1.922766      0.010771   -999.250000
     321.8000     35.803543    176.138824      1.911536      0.012067   -999.250000
     321.9000     35.300171    175.910065      1.907338      0.015758   -999.250000
     322.0000     33.250198    175.469635      1.909525      0.021952   -999.250000
     322.1000     30.367001    175.139740      1.915243      0.027533   -999.250000
     322.2000     27.337666    175.068573      1.924555      0.031529   -999.250000
     322.3000     24.598335    175.228821      1.938041      0.034834   -999.250000
     322.4000     22.295746    175.454285      1.954052      0.037001   -999.250000
     322.5000     21.452000    175.467651      1.969530      0.036881   -999.250000
     322.6000     22.534779    175.256653      1.982145      0.034180   -999.250000
     322.7000     24.081928    175.326202      1.991603      0.029265   -999.250000
     322.8000     25.739132    176.065918      1.991433      0.023358   -999.250000
     322.9000     28.066177    177.365906      1.973664      0.018090   -999.250000
     323.0000     30.141659    178.867126      1.937348      0.013921   -999.250000
     323.1000     31.525597    181.776886      1.892510      0.010869   -999.250000
     323.2000     32.739845    187.561920      1.856394      0.008956   -999.250000
     323.3000     33.222412    194.942902      1.839142      0.008420   -999.250000
     323.4000     32.383652    200.786041      1.845894      0.010392   -999.250000
     323.5000     30.704338    202.811005      1.871176      0.014960   -999.250000
     323.6000     28.859882    202.638763      1.896976      0.018188   -999.250000
     323.7000     27.325943    202.187195      1.910456      0.017221   -999.250000
     323.8000     26.307724    201.698242      1.915353      0.014392   -999.250000
     323.9000     25.822777    201.140808      1.917928      0.011711   -999.250000
     324.0000     25.812744    200.622650      1.921591      0.009934   -999.250000
     324.1000     25.917084    200.282928      1.925817      0.008738   -999.250000
     324.2000     25.446796    199.937927      1.929244      0.008157   -999.250000
     324.3000     23.759495    199.330231      1.931259      0.008352   -999.250000
     324.4000     21.443226    198.590607      1.933302      0.008762   -999.250000
     324.5000     19.198273    198.276184      1.934895      0.009105   -999.250000
     324.6000     18.035934    199.008362      1.933834      0.009530   -999.250000
     324.7000     18.115334    200.013885      1.929366      0.010792   -999.250000
     324.8000     19.119892    200.719116      1.923778      0.013633   -999.250000
     324.9000     20.283680    200.575989      1.920739      0.017478   -999.250000
     325.0000     21.190514    200.249329      1.915750      0.017687   -999.250000
     325.1000     21.701599    199.938904      1.912220      0.015804   -999.250000
     325.2000     21.818691    199.718536      1.918880      0.017683   -999.250000
     325.3000     22.190819    199.550079      1.923799      0.018596   -999.250000
     325.4000     22.604443    199.398285      1.924937      0.017185   -999.250000
     325.5000     21.989258    199.137848      1.927167      0.014796   -999.250000
     325.6000     21.138805    198.535522      1.928653      0.012191   -999.250000
     325.7000     20.439384    197.496277      1.929137      0.010331   -999.250000
     325.8000     20.260715    196.365753      1.930959      0.011015   -999.250000
     325.9000     20.799458    195.839539      1.931377      0.010974   -999.250000
     326.0000     22.112431    196.401642      1.929700      0.009600   -999.250000
     326.1000     23.026909    197.642059      1.930533      0.011128   -999.250000
     326.2000     23.276371    199.013184      1.933046      0.013111   -999.250000
     326.3000     22.468922    200.225586      1.936336      0.014422   -999.250000
     326.4000     21.068569    201.355469      1.935546      0.016851   -999.250000
     326.5000     20.101707    202.265961      1.931370      0.017855   -999.250000
