# LAS format data
~Version Information
VERS.     2.00: CWLS LOG ASCII STANDARD - VERSION 2.0
WRAP.       NO: ONE LINE PER DEPTH STEP
~Well Information
#MNEM   .UNITS    DATA                           DESCRIPTION
#----   ------    ----                           -----------
STRT    .M        96.2000                       :First Index Value
STOP    .M        4895.7008                     :Last Index Value
STEP    .M        0.0000                        :Frame Spacing
NULL    .         -999.2500                     :Absent Value
WELL    .         L05-06                        :Well Name   
FLD     .         FINDER_composites_22-02-2005  :Field Name  
CNTY    .                                       :County
STAT    .                                       :State
CTRY    .                                       :Country
LOC     .                                       :Location
API     .                                       :API Number
DATE    .                                       :Date
COMP    .         AMC                           :Company Name
SRVC    .                                       :Service Company
~Parameter Information
#MNEM   .UNITS    VALUE                          DESCRIPTION
#----   ------    -----                          -----------
TDD     .M        4888.00000                    :Total Depth (Driller)   
UBID    .         8073                          :Unique Borehole Id  
PDAT    .         Mean Sea Level                :Permanent Datum 
EPD     .M           0.00000                    :Elevation of Permanent Datum (PDAT) above Mean Sea Level
LMF     .                                       :Logging Measured From (Name of Logging Elevation Reference) 
APD     .M          35.05000                    :Elevation of Depth Reference (LMF) Above Permanent Datum
~Other Information
composite_curve_qc 
~Curve Information
#MNEM   .UNITS    API CODE                       CURVE DESCRIPTION
#----   ------    --------                       -----------------
DEPT    .M                                      :1     Index curve
GR      .GAPI                                   :2     L05-06
DT      .US/F                                   :3     L05-06
RHOB    .G/C3                                   :4     L05-06
DRHO    .G/C3                                   :5     L05-06
NPHI    .V/V                                    :6     L05-06
~Ascii Log Data
# ...
     710.6001     15.067747     68.399994   -999.250000   -999.250000   -999.250000
     710.7001     14.768227     68.399994   -999.250000   -999.250000   -999.250000
     710.8001     14.628403     68.399994   -999.250000   -999.250000   -999.250000
     710.9001     14.754812     68.399994   -999.250000   -999.250000   -999.250000
     711.0001     14.907299     68.399994   -999.250000   -999.250000   -999.250000
     711.1001     15.040379     68.399994   -999.250000   -999.250000   -999.250000
     711.2001     15.400213     68.399994   -999.250000   -999.250000   -999.250000
     711.3001     15.576899     68.399994   -999.250000   -999.250000   -999.250000
     711.4001     15.329250     68.399994   -999.250000   -999.250000   -999.250000
     711.5001     15.089565     68.399994   -999.250000   -999.250000   -999.250000
     711.6001     14.675344     68.399994   -999.250000   -999.250000   -999.250000
     711.7001     14.164312     68.399994   -999.250000   -999.250000   -999.250000
     711.8001     14.320612     68.399994   -999.250000   -999.250000   -999.250000
     711.9001     14.858387     68.399994   -999.250000   -999.250000   -999.250000
     712.0001     15.118345     68.399994   -999.250000   -999.250000   -999.250000
     712.1001     15.196270     68.399994   -999.250000   -999.250000   -999.250000
     712.2001     15.553736     68.399994   -999.250000   -999.250000   -999.250000
     712.3001     16.227276     68.399994   -999.250000   -999.250000   -999.250000
     712.4001     16.660320     68.399994   -999.250000   -999.250000   -999.250000
     712.5001     16.766258     68.399994   -999.250000   -999.250000   -999.250000
     712.6001     16.647724     68.399994   -999.250000   -999.250000   -999.250000
     712.7001     15.953932     68.399994   -999.250000   -999.250000   -999.250000
     712.8001     14.948341     68.399994   -999.250000   -999.250000   -999.250000
     712.9001     14.345562     68.399994   -999.250000   -999.250000   -999.250000
     713.0001     14.203119     68.399994   -999.250000   -999.250000   -999.250000
     713.1001     14.171885     68.399994   -999.250000   -999.250000   -999.250000
     713.2001     14.033224     68.399994   -999.250000   -999.250000   -999.250000
     713.3001     14.108738     68.399994   -999.250000   -999.250000   -999.250000
     713.4001     14.271101     68.399994   -999.250000   -999.250000   -999.250000
     713.5001     14.080631     68.399994   -999.250000   -999.250000   -999.250000
     713.6001     14.086544     68.399994   -999.250000   -999.250000   -999.250000
     713.7001     14.495382     68.399994   -999.250000   -999.250000   -999.250000
     713.8001     14.747431     68.399994   -999.250000   -999.250000   -999.250000
     713.9001     14.956194     68.399994   -999.250000   -999.250000   -999.250000
     714.0001     15.160734     68.399994   -999.250000   -999.250000   -999.250000
     714.1001     15.035112     68.399994   -999.250000   -999.250000   -999.250000
     714.2001     14.955853     68.399994   -999.250000   -999.250000   -999.250000
     714.3001     15.235394     68.399994   -999.250000   -999.250000   -999.250000
     714.4001     15.488667     68.399994   -999.250000   -999.250000   -999.250000
     714.5001     15.882475     68.399994   -999.250000   -999.250000   -999.250000
     714.6001     16.365227     68.399994   -999.250000   -999.250000   -999.250000
     714.7001     15.926916     68.399994   -999.250000   -999.250000   -999.250000
     714.8001     15.106079     68.399994   -999.250000   -999.250000   -999.250000
     714.9001     14.751781     68.399994   -999.250000   -999.250000   -999.250000
     715.0001     14.071442     68.399994   -999.250000   -999.250000   -999.250000
     715.1001     13.554684     68.399994   -999.250000   -999.250000   -999.250000
     715.2001     14.248112     68.399994   -999.250000   -999.250000   -999.250000
     715.3001     14.842299     68.399994   -999.250000   -999.250000   -999.250000
     715.4001     15.285318     68.399994   -999.250000   -999.250000   -999.250000
     715.5001     16.106487     68.399994   -999.250000   -999.250000   -999.250000
     715.6001     16.708839     68.399994   -999.250000   -999.250000   -999.250000
     715.7001     16.997124     68.399994   -999.250000   -999.250000   -999.250000
     715.8001     17.048260     68.399994   -999.250000   -999.250000   -999.250000
     715.9001     16.672405     68.399994   -999.250000   -999.250000   -999.250000
     716.0001     16.220154     68.399994   -999.250000   -999.250000   -999.250000
     716.1001     17.436436     68.399994   -999.250000   -999.250000   -999.250000
     716.2001     18.668957     68.399994   -999.250000   -999.250000   -999.250000
     716.3001     19.503925     68.399994      1.697100     -0.019702   -999.250000
     716.4001     20.226856     68.399994      1.617599     -0.026337   -999.250000
     716.5001     19.926373     68.399994      1.555008     -0.031585   -999.250000
     716.6001     17.894924     68.399994      1.514915     -0.035354   -999.250000
     716.7001     16.177116     68.399994      1.500959     -0.041265   -999.250000
     716.8001     15.013107     68.399994      1.493592     -0.047315   -999.250000
     716.9001     14.854866     68.399994      1.487020     -0.052452   -999.250000
     717.0001     15.147598     68.399994      1.484365     -0.053521   -999.250000
     717.1001     15.419708     68.399994      1.484789     -0.052554   -999.250000
     717.2001     15.315798     68.399994      1.490211     -0.049522   -999.250000
     717.3001     15.355648     68.399994      1.498044     -0.045742   -999.250000
     717.4001     15.311211     68.399994      1.506028     -0.042186   -999.250000
     717.5001     14.912071     68.399994      1.510427     -0.040701   -999.250000
     717.6001     15.233870     68.399994      1.512779     -0.039865   -999.250000
     717.7001     15.663729     68.399994      1.514046     -0.039271   -999.250000
     717.8001     15.174517     68.399994      1.514892     -0.038799   -999.250000
     717.9001     15.366564     68.399994      1.515985     -0.041156   -999.250000
     718.0001     16.029053     68.399994      1.516695     -0.044728   -999.250000
     718.1001     16.834541     68.399994      1.515073     -0.045471   -999.250000
     718.2001     17.135906     68.399994      1.515348     -0.045305   -999.250000
     718.3001     17.222591     68.399994      1.516364     -0.044140   -999.250000
     718.4001     17.962330     68.399994      1.514326     -0.041579   -999.250000
     718.5001     17.906818     68.399994      1.513027     -0.040361   -999.250000
     718.6001     17.158470     68.399994      1.512362     -0.040123   -999.250000
     718.7001     16.396873     68.399994      1.511651     -0.038870   -999.250000
     718.8001     15.411074     68.399994      1.512970     -0.037736   -999.250000
     718.9001     14.448465     68.399994      1.516804     -0.036761   -999.250000
     719.0001     14.578320     68.399994      1.522910     -0.035637   -999.250000
     719.1001     15.762562     68.399994      1.530069     -0.034722   -999.250000
     719.2001     17.478703     68.399994      1.538519     -0.033600   -999.250000
     719.3001     17.667217     68.399994      1.548913     -0.030714   -999.250000
     719.4001     17.214882     68.399994      1.557476     -0.027183   -999.250000
     719.5001     16.383739     68.399994      1.559635     -0.024573   -999.250000
     719.6001     15.295012     68.399994      1.552790     -0.025640   -999.250000
     719.7001     14.276140     68.399994      1.554796     -0.028190   -999.250000
     719.8001     13.648491     68.399994      1.582167     -0.029891   -999.250000
     719.9001     13.544451     68.564240      1.642989     -0.027853   -999.250000
     720.0001     13.240547     69.610458      1.732460     -0.023700   -999.250000
     720.1001     12.505232     70.957947      1.842638     -0.018748   -999.250000
