# LAS format data
~Version Information
VERS.     2.00: CWLS LOG ASCII STANDARD - VERSION 2.0
WRAP.       NO: ONE LINE PER DEPTH STEP
~Well Information
#MNEM   .UNITS    DATA                           DESCRIPTION
#----   ------    ----                           -----------
STRT    .M        96.2000                       :First Index Value
STOP    .M        4895.7008                     :Last Index Value
STEP    .M        0.0000                        :Frame Spacing
NULL    .         -999.2500                     :Absent Value
WELL    .         L05-06                        :Well Name   
FLD     .         FINDER_composites_22-02-2005  :Field Name  
CNTY    .                                       :County
STAT    .                                       :State
CTRY    .                                       :Country
LOC     .                                       :Location
API     .                                       :API Number
DATE    .                                       :Date
COMP    .         AMC                           :Company Name
SRVC    .                                       :Service Company
~Parameter Information
#MNEM   .UNITS    VALUE                          DESCRIPTION
#----   ------    -----                          -----------
TDD     .M        4888.00000                    :Total Depth (Driller)   
UBID    .         8073                          :Unique Borehole Id  
PDAT    .         Mean Sea Level                :Permanent Datum 
EPD     .M           0.00000                    :Elevation of Permanent Datum (PDAT) above Mean Sea Level
LMF     .                                       :Logging Measured From (Name of Logging Elevation Reference) 
APD     .M          35.05000                    :Elevation of Depth Reference (LMF) Above Permanent Datum
~Other Information
composite_curve_qc 
~Curve Information
#MNEM   .UNITS    API CODE                       CURVE DESCRIPTION
#----   ------    --------                       -----------------
DEPT    .M                                      :1     Index curve
GR      .GAPI                                   :2     L05-06
DT      .US/F                                   :3     L05-06
RHOB    .G/C3                                   :4     L05-06
DRHO    .G/C3                                   :5     L05-06
NPHI    .V/V                                    :6     L05-06
~Ascii Log Data
# ...
    4886.6008    148.124481     64.274216      2.781309      0.099715      0.210401
    4886.7008    148.181335     64.012833      2.741433      0.100201      0.210859
    4886.8008    147.877838     63.846802      2.667570      0.102845      0.208389
    4886.9008    146.107452     64.165726      2.575025      0.099869      0.204919
    4887.0008    144.791595     64.894684      2.498899      0.099941      0.203570
    4887.1008    145.059143     65.629868      2.453804      0.105314      0.209959
    4887.2008    147.425873     65.873718      2.439573      0.112377      0.228899
    4887.3008    151.480133     65.733124      2.442036      0.118028      0.251258
    4887.4008    156.213806     65.423309      2.446595      0.114371      0.265856
    4887.5008    159.788635     65.231567      2.442821      0.094503      0.262409
    4887.6008    161.234009     65.220535      2.455248      0.078000      0.253022
    4887.7008    160.194458     65.296494      2.494949      0.072064      0.242040
    4887.8008    157.183472     65.198318      2.556476      0.075707      0.230872
    4887.9008    154.025085     64.834381      2.618351      0.088230      0.225873
    4888.0008    152.175018     64.332336      2.663060      0.107904      0.227319
    4888.1008    153.140228     64.102020      2.670504      0.125600      0.228590
    4888.2008    154.567322     63.992210      2.662467      0.135256      0.231279
    4888.3008    155.019623     63.820091      2.651371      0.135485      0.235599
    4888.4008    153.801697     63.374062      2.653506      0.135261      0.236355
    4888.5008    152.260132     62.992737      2.674231      0.137992      0.232875
    4888.6008    150.721954     62.858894      2.710640      0.142086      0.224266
    4888.7008    148.485138   -999.250000      2.720453      0.135026      0.214927
    4888.8008    148.203979   -999.250000      2.715815      0.122056      0.210043
    4888.9008    151.821045   -999.250000      2.703238      0.107135      0.213786
    4889.0008    154.240753   -999.250000      2.687745      0.099355      0.219161
    4889.1008    154.993561   -999.250000      2.676045      0.098312      0.225304
    4889.2008    153.537994   -999.250000      2.676071      0.105354      0.231252
    4889.3008    152.786346   -999.250000      2.675750      0.110753      0.233172
    4889.4008    151.441193   -999.250000      2.677800      0.115581      0.234789
    4889.5008    147.677246   -999.250000      2.688660      0.121584      0.240692
    4889.6008    147.337616   -999.250000      2.700383      0.126757      0.242125
    4889.7008    148.852356   -999.250000      2.713849      0.130932      0.240439
    4889.8008    149.826630   -999.250000      2.730212      0.131961      0.236834
    4889.9008    152.853302   -999.250000      2.740704      0.129925      0.232000
    4890.0008    157.060974   -999.250000      2.747325      0.125237      0.227849
    4890.1008    158.855225   -999.250000      2.750629      0.117847      0.233323
    4890.2008    158.786011   -999.250000      2.741146      0.103585      0.241029
    4890.3008    157.108398   -999.250000      2.721446      0.083855      0.250540
    4890.4008    154.656281   -999.250000      2.700711      0.063136      0.260264
    4890.5008    152.826111   -999.250000      2.678301      0.044414      0.262810
    4890.6008    151.740814   -999.250000      2.656058      0.028616      0.258545
    4890.7008    151.398590   -999.250000      2.643415      0.017203      0.255003
    4890.8008    150.980591   -999.250000      2.639527      0.011341      0.248936
    4890.9008    150.717316   -999.250000      2.646069      0.012298      0.241490
    4891.0008    152.463623   -999.250000      2.661078      0.018701      0.243722
    4891.1008    153.315430   -999.250000      2.674467      0.026653      0.245964
    4891.2008    152.877655   -999.250000      2.684199      0.038239      0.247143
    4891.3008    153.099548   -999.250000      2.690180      0.065774      0.249316
    4891.4008    153.787872   -999.250000      2.685889      0.094724      0.252462
    4891.5008    154.670135   -999.250000      2.666830      0.120421      0.255619
    4891.6008    154.005585   -999.250000      2.643994      0.139635      0.252449
    4891.7008    154.231140   -999.250000      2.625130      0.158910      0.247521
    4891.8008    155.894196   -999.250000      2.616084      0.182304      0.241479
    4891.9008    155.034912   -999.250000      2.618727      0.206676      0.232689
    4892.0008    155.258911   -999.250000      2.616571      0.220956      0.227760
    4892.1008    158.365997   -999.250000      2.587530      0.212091      0.232265
    4892.2008    158.719025   -999.250000      2.512660      0.183015      0.240812
    4892.3008    157.389832   -999.250000      2.426517      0.152554      0.248392
    4892.4008    155.707153   -999.250000      2.355420      0.133733      0.250259
    4892.5008    155.287048   -999.250000      2.301253      0.118015      0.245951
    4892.6008    155.595734   -999.250000      2.280469      0.108352      0.238589
    4892.7008    156.177338   -999.250000      2.319021      0.110605      0.231651
    4892.8008    157.274445   -999.250000      2.393578      0.120006      0.228770
    4892.9008    157.667358   -999.250000      2.488001      0.134310      0.230810
    4893.0008    156.171326   -999.250000      2.583104      0.149211      0.237818
    4893.1008    155.292053   -999.250000      2.658071      0.154650      0.243455
    4893.2008    155.135620   -999.250000      2.709455      0.154097      0.246782
    4893.3008    155.407990   -999.250000      2.735248      0.154171      0.247656
    4893.4008    156.672638   -999.250000      2.753854      0.153615      0.246305
    4893.5008    158.710114   -999.250000      2.764992      0.151187      0.243542
    4893.6008    160.614075   -999.250000      2.763186      0.148429      0.241081
    4893.7008    161.825165   -999.250000      2.760815      0.151463      0.239987
    4893.8008    161.361359   -999.250000      2.764453      0.165452      0.239220
    4893.9008    158.557220   -999.250000      2.773069      0.189485      0.237063
    4894.0008    154.857819   -999.250000      2.775695      0.210807      0.234652
    4894.1008    152.258545   -999.250000      2.768926      0.223978      0.231858
    4894.2008    152.254669   -999.250000      2.757770      0.232821      0.228347
    4894.3008    153.606445   -999.250000      2.747036      0.243984      0.226252
    4894.4008    156.070679   -999.250000      2.731936      0.253158      0.225491
    4894.5008    159.157166   -999.250000      2.705103      0.252106      0.224725
    4894.6008    159.936951   -999.250000      2.671868      0.244408      0.225918
    4894.7008    158.387360   -999.250000      2.639497      0.234290      0.228755
    4894.8008    157.239075   -999.250000      2.613242      0.224261      0.230928
    4894.9008    156.367615   -999.250000      2.597900      0.218590      0.234225
    4895.0008    156.395050   -999.250000      2.588531      0.214768      0.238347
    4895.1008    158.438873   -999.250000      2.575406      0.206803      0.240240
    4895.2008    159.770874   -999.250000      2.562551      0.198596      0.240216
    4895.3008    157.356934   -999.250000      2.554659      0.194403      0.238888
    4895.4008    152.140625   -999.250000      2.549232      0.192630      0.236629
    4895.5008    149.384399   -999.250000      2.545715      0.191609      0.237306
    4895.6008   -999.250000   -999.250000   -999.250000   -999.250000   -999.250000
    4895.7008   -999.250000   -999.250000   -999.250000   -999.250000   -999.250000
