# LAS format data
~Version Information
VERS.     2.00: CWLS LOG ASCII STANDARD - VERSION 2.0
WRAP.       NO: ONE LINE PER DEPTH STEP
~Well Information
#MNEM   .UNITS    DATA                           DESCRIPTION
#----   ------    ----                           -----------
STRT    .M        96.2000                       :First Index Value
STOP    .M        4895.7008                     :Last Index Value
STEP    .M        0.0000                        :Frame Spacing
NULL    .         -999.2500                     :Absent Value
WELL    .         L05-06                        :Well Name   
FLD     .         FINDER_composites_22-02-2005  :Field Name  
CNTY    .                                       :County
STAT    .                                       :State
CTRY    .                                       :Country
LOC     .                                       :Location
API     .                                       :API Number
DATE    .                                       :Date
COMP    .         AMC                           :Company Name
SRVC    .                                       :Service Company
~Parameter Information
#MNEM   .UNITS    VALUE                          DESCRIPTION
#----   ------    -----                          -----------
TDD     .M        4888.00000                    :Total Depth (Driller)   
UBID    .         8073                          :Unique Borehole Id  
PDAT    .         Mean Sea Level                :Permanent Datum 
EPD     .M           0.00000                    :Elevation of Permanent Datum (PDAT) above Mean Sea Level
LMF     .                                       :Logging Measured From (Name of Logging Elevation Reference) 
APD     .M          35.05000                    :Elevation of Depth Reference (LMF) Above Permanent Datum
~Other Information
composite_curve_qc 
~Curve Information
#MNEM   .UNITS    API CODE                       CURVE DESCRIPTION
#----   ------    --------                       -----------------
DEPT    .M                                      :1     Index curve
GR      .GAPI                                   :2     L05-06
DT      .US/F                                   :3     L05-06
RHOB    .G/C3                                   :4     L05-06
DRHO    .G/C3                                   :5     L05-06
NPHI    .V/V                                    :6     L05-06
~Ascii Log Data
# ...
    3408.2000     37.427216     67.781784   -999.250000   -999.250000      0.001791
    3408.3000     38.112968     67.930054   -999.250000   -999.250000      0.001463
    3408.4000     38.139862     67.975479   -999.250000   -999.250000      0.001417
    3408.5000     37.498100     67.987625   -999.250000   -999.250000      0.001171
    3408.6000     36.874886     67.977081   -999.250000   -999.250000      0.000768
    3408.7000     36.883385     67.930862   -999.250000   -999.250000      0.000576
    3408.8000     36.802727     67.855240   -999.250000   -999.250000      0.000148
    3408.9000     36.445786     67.794250   -999.250000   -999.250000     -0.000568
    3409.0000     36.163208     67.796249   -999.250000   -999.250000     -0.001085
    3409.1000     35.335045     67.850220   -999.250000   -999.250000     -0.001329
    3409.2000     33.945557     67.922867   -999.250000   -999.250000     -0.001335
    3409.3000     32.924194     67.996841   -999.250000   -999.250000     -0.001117
    3409.4000     32.698166     68.101868   -999.250000   -999.250000     -0.000797
    3409.5000     32.938477     68.305115   -999.250000   -999.250000     -0.000625
    3409.6000     33.038490     68.584198   -999.250000   -999.250000     -0.000802
    3409.7000     32.881004     68.677429   -999.250000   -999.250000     -0.001344
    3409.8000     32.700996     68.423798   -999.250000   -999.250000     -0.002114
    3409.9000     32.696465     67.998993   -999.250000   -999.250000     -0.002860
    3410.0000     32.873993     67.642212   -999.250000   -999.250000     -0.003312
    3410.1000     33.177925     67.441040   -999.250000   -999.250000     -0.003391
    3410.2000     33.565727     67.320908   -999.250000   -999.250000     -0.003304
    3410.3000     33.948639     67.232834   -999.250000   -999.250000     -0.003339
    3410.4000     34.035034     67.163559   -999.250000   -999.250000     -0.003697
    3410.5000     33.551659     67.088608   -999.250000   -999.250000     -0.004375
    3410.6000     33.004906     67.039902   -999.250000   -999.250000     -0.005056
    3410.7000     32.846626     67.039261   -999.250000   -999.250000     -0.005470
    3410.8000     32.658844     67.037567   -999.250000   -999.250000     -0.005740
    3410.9000     33.032883     67.364441   -999.250000   -999.250000     -0.005898
    3411.0000     34.214119     68.127640   -999.250000   -999.250000     -0.005949
    3411.1000     34.592026     68.672287   -999.250000   -999.250000     -0.006074
    3411.2000     33.880386     68.689514   -999.250000   -999.250000     -0.006013
    3411.3000     32.825348     68.355423   -999.250000   -999.250000     -0.005472
    3411.4000     31.393711     67.983566   -999.250000   -999.250000     -0.004847
    3411.5000     30.830750     67.689102   -999.250000   -999.250000     -0.004297
    3411.6000     32.644005     67.473068   -999.250000   -999.250000     -0.003796
    3411.7000     35.268295     67.331940   -999.250000   -999.250000     -0.003520
    3411.8000     37.406776     67.225388   -999.250000   -999.250000     -0.003481
    3411.9000     38.684738     67.081299   -999.250000   -999.250000     -0.003434
    3412.0000     39.348282     66.951157   -999.250000   -999.250000     -0.003316
    3412.1000     39.358589     66.879959   -999.250000   -999.250000     -0.003251
    3412.2000     38.842972     66.850204   -999.250000   -999.250000     -0.003402
    3412.3000     38.613884     66.844467   -999.250000   -999.250000     -0.003530
    3412.4000     38.811920     66.872192   -999.250000   -999.250000     -0.003484
    3412.5000     38.523659     66.946594   -999.250000   -999.250000     -0.003358
    3412.6000     38.346428     67.021454   -999.250000   -999.250000     -0.003087
    3412.7000     38.636360     67.050629   -999.250000   -999.250000     -0.002726
    3412.8000     38.447540     67.027573   -999.250000   -999.250000     -0.002694
    3412.9000     37.606094     66.993927   -999.250000   -999.250000     -0.002801
    3413.0000     36.454170     66.979370   -999.250000   -999.250000     -0.002850
    3413.1000     36.489563     66.956909   -999.250000   -999.250000     -0.002952
    3413.2000     37.070801     66.922699   -999.250000   -999.250000     -0.003155
    3413.3000     37.431168     66.874130   -999.250000   -999.250000     -0.003575
    3413.4000     38.296509     66.824158   -999.250000   -999.250000     -0.004211
    3413.5000     38.876045     66.792358   -999.250000   -999.250000     -0.004863
    3413.6000     37.689110     66.832047   -999.250000   -999.250000     -0.005112
    3413.7000     36.925270     66.962189   -999.250000   -999.250000     -0.004812
    3413.8000     36.743332     67.100220   -999.250000   -999.250000     -0.004233
    3413.9000     37.176849     67.027023   -999.250000   -999.250000     -0.004025
    3414.0000     37.881226     66.872482   -999.250000   -999.250000     -0.004116
    3414.1000     38.563698     66.682388   -999.250000   -999.250000     -0.004400
    3414.2000     38.303680     66.585251   -999.250000   -999.250000     -0.004506
    3414.3000     39.032486     66.487900   -999.250000   -999.250000     -0.004352
    3414.4000     40.291771     66.412125   -999.250000   -999.250000     -0.003894
    3414.5000     37.827873     66.551712   -999.250000   -999.250000     -0.003231
    3414.6000     36.210274     66.738159   -999.250000   -999.250000     -0.002951
    3414.7000     35.513817     66.952820   -999.250000   -999.250000     -0.003053
    3414.8000     33.191544     66.960098   -999.250000   -999.250000     -0.002571
    3414.9000     33.263634     66.916977   -999.250000   -999.250000     -0.002402
    3415.0000     36.626999     66.850388   -999.250000   -999.250000     -0.002732
    3415.1000     37.219368     66.932846   -999.250000   -999.250000     -0.002912
    3415.2000     37.240646     67.081833   -999.250000   -999.250000     -0.003414
    3415.3000     36.863770     67.271683   -999.250000   -999.250000     -0.004316
    3415.4000     34.904358     67.296371   -999.250000   -999.250000     -0.003921
    3415.5000     33.979683     67.327286   -999.250000   -999.250000     -0.003187
    3415.6000     35.691475     67.439362   -999.250000   -999.250000     -0.002376
    3415.7000     35.662468     67.494690   -999.250000   -999.250000     -0.001239
    3415.8000     35.309258     67.509537   -999.250000   -999.250000     -0.000327
    3415.9000     35.631447     67.464783   -999.250000   -999.250000     -0.000224
    3416.0000     37.107880     67.392044   -999.250000   -999.250000      0.000018
    3416.1000     39.161827     67.361694   -999.250000   -999.250000      0.000087
    3416.2000     41.213028     67.458832   -999.250000   -999.250000     -0.000393
    3416.3000     41.513046     67.495270   -999.250000   -999.250000     -0.000677
    3416.4000     40.362640     67.470322   -999.250000   -999.250000     -0.000878
    3416.5000     37.747742     67.384064   -999.250000   -999.250000     -0.001104
    3416.6000     35.516968     67.384781   -999.250000   -999.250000     -0.001078
    3416.7000     34.253815     67.424927   -999.250000   -999.250000     -0.000766
    3416.8000     34.949371     67.406677   -999.250000   -999.250000     -0.000127
    3416.9000     35.751869     67.339066   -999.250000   -999.250000      0.000276
    3417.0000     36.777634     67.249466   -999.250000   -999.250000      0.000634
    3417.1000     38.593735     67.182587   -999.250000   -999.250000      0.001270
    3417.2000     40.366707     67.108200   -999.250000   -999.250000      0.001255
    3417.3000     42.167900     67.048370   -999.250000   -999.250000      0.000869
    3417.4000     44.390915     67.070114   -999.250000   -999.250000      0.001041
    3417.5000     46.299644     67.159668   -999.250000   -999.250000      0.001326
    3417.6000     47.252586     67.271698   -999.250000   -999.250000      0.001660
    3417.7000     46.759331     67.307480   -999.250000   -999.250000      0.002184
