# LAS format data
~Version Information
VERS.     2.00: CWLS LOG ASCII STANDARD - VERSION 2.0
WRAP.       NO: ONE LINE PER DEPTH STEP
~Well Information
#MNEM   .UNITS    DATA                           DESCRIPTION
#----   ------    ----                           -----------
STRT    .M        96.2000                       :First Index Value
STOP    .M        4895.7008                     :Last Index Value
STEP    .M        0.0000                        :Frame Spacing
NULL    .         -999.2500                     :Absent Value
WELL    .         L05-06                        :Well Name   
FLD     .         FINDER_composites_22-02-2005  :Field Name  
CNTY    .                                       :County
STAT    .                                       :State
CTRY    .                                       :Country
LOC     .                                       :Location
API     .                                       :API Number
DATE    .                                       :Date
COMP    .         AMC                           :Company Name
SRVC    .                                       :Service Company
~Parameter Information
#MNEM   .UNITS    VALUE                          DESCRIPTION
#----   ------    -----                          -----------
TDD     .M        4888.00000                    :Total Depth (Driller)   
UBID    .         8073                          :Unique Borehole Id  
PDAT    .         Mean Sea Level                :Permanent Datum 
EPD     .M           0.00000                    :Elevation of Permanent Datum (PDAT) above Mean Sea Level
LMF     .                                       :Logging Measured From (Name of Logging Elevation Reference) 
APD     .M          35.05000                    :Elevation of Depth Reference (LMF) Above Permanent Datum
~Other Information
composite_curve_qc 
~Curve Information
#MNEM   .UNITS    API CODE                       CURVE DESCRIPTION
#----   ------    --------                       -----------------
DEPT    .M                                      :1     Index curve
GR      .GAPI                                   :2     L05-06
DT      .US/F                                   :3     L05-06
RHOB    .G/C3                                   :4     L05-06
DRHO    .G/C3                                   :5     L05-06
NPHI    .V/V                                    :6     L05-06
~Ascii Log Data
# ...
     134.6000     16.409775    196.001648      1.896365      0.040177   -999.250000
     134.7000     15.424229    196.201782      1.897107      0.038743   -999.250000
     134.8000     14.375380    196.395325      1.895042      0.035121   -999.250000
     134.9000     13.588140    196.494171      1.890409      0.030503   -999.250000
     135.0000     13.462906    196.302673      1.887387      0.028537   -999.250000
     135.1000     13.645235    195.544647      1.886566      0.028837   -999.250000
     135.2000     14.137062    194.369995      1.887146      0.030360   -999.250000
     135.3000     15.111103    193.467224      1.887275      0.030952   -999.250000
     135.4000     16.134094    192.428253      1.889166      0.030591   -999.250000
     135.5000     16.864544    191.391815      1.895170      0.030034   -999.250000
     135.6000     17.143188    191.312103      1.905638      0.031024   -999.250000
     135.7000     17.095867    191.566376      1.917513      0.032322   -999.250000
     135.8000     16.662651    191.656708      1.929043      0.033523   -999.250000
     135.9000     15.810959    191.342560      1.940081      0.036024   -999.250000
     136.0000     14.957222    191.208618      1.946292      0.038112   -999.250000
     136.1000     14.461847    191.621918      1.944138      0.038175   -999.250000
     136.2000     14.365284    191.760040      1.941767      0.036979   -999.250000
     136.3000     14.502182    191.581024      1.939194      0.035831   -999.250000
     136.4000     14.747547    190.965851      1.936617      0.035783   -999.250000
     136.5000     14.835558    189.925446      1.939930      0.035408   -999.250000
     136.6000     15.079664    188.832947      1.945658      0.034611   -999.250000
     136.7000     16.045208    188.120117      1.949887      0.033524   -999.250000
     136.8000     16.653797    187.358765      1.955788      0.034955   -999.250000
     136.9000     16.981087    186.718628      1.961985      0.038302   -999.250000
     137.0000     17.140030    186.767273      1.965094      0.043634   -999.250000
     137.1000     17.286179    187.243927      1.964761      0.048421   -999.250000
     137.2000     17.406250    187.862701      1.961884      0.051873   -999.250000
     137.3000     17.472115    187.646301      1.956746      0.049411   -999.250000
     137.4000     18.067974    187.403961      1.951042      0.047648   -999.250000
     137.5000     18.940857    187.276581      1.946119      0.046911   -999.250000
     137.6000     18.787075    188.187866      1.950475      0.049741   -999.250000
     137.7000     19.190117    188.503479      1.952621      0.050506   -999.250000
     137.8000     20.159641    188.327332      1.953468      0.049364   -999.250000
     137.9000     21.017502    188.895996      1.961508      0.049613   -999.250000
     138.0000     21.817654    189.071594      1.970838      0.052125   -999.250000
     138.1000     22.582878    188.822418      1.980889      0.056882   -999.250000
     138.2000     23.211880    189.247070      1.984498      0.057613   -999.250000
     138.3000     23.312904    190.045837      1.985003      0.054624   -999.250000
     138.4000     22.616661    191.266876      1.981843      0.047481   -999.250000
     138.5000     21.397926    192.174683      1.976338      0.044553   -999.250000
     138.6000     21.018177    192.706604      1.971121      0.042025   -999.250000
     138.7000     22.253880    192.574951      1.966749      0.039205   -999.250000
     138.8000     24.223335    191.818024      1.960507      0.036912   -999.250000
     138.9000     26.466484    191.495667      1.958230      0.037491   -999.250000
     139.0000     28.234127    192.169800      1.963369      0.042663   -999.250000
     139.1000     27.149284    192.569244      1.965005      0.046064   -999.250000
     139.2000     25.231712    193.028381      1.962287      0.047272   -999.250000
     139.3000     23.809719    193.700287      1.954268      0.044907   -999.250000
     139.4000     23.452240    193.990448      1.948889      0.040578   -999.250000
     139.5000     24.146168    194.064392      1.945807      0.037257   -999.250000
     139.6000     25.899712    194.285828      1.945366      0.037021   -999.250000
     139.7000     27.150749    195.298157      1.948467      0.034794   -999.250000
     139.8000     27.770912    196.468323      1.953853      0.033152   -999.250000
     139.9000     27.759571    196.935364      1.960688      0.035607   -999.250000
     140.0000     27.685188    196.932678      1.968856      0.038324   -999.250000
     140.1000     27.856842    196.704437      1.975206      0.040255   -999.250000
     140.2000     28.415596    196.520447      1.974858      0.040299   -999.250000
     140.3000     28.533157    196.397827      1.970504      0.038151   -999.250000
     140.4000     28.010769    196.357788      1.965625      0.035202   -999.250000
     140.5000     26.630951    196.415497      1.962835      0.033070   -999.250000
     140.6000     24.384899    196.470001      1.956288      0.029889   -999.250000
     140.7000     21.857044    196.522095      1.944950      0.025551   -999.250000
     140.8000     20.037643    196.604034      1.931200      0.021694   -999.250000
     140.9000     18.863991    196.666687      1.919306      0.020541   -999.250000
     141.0000     18.413471    196.707336      1.908679      0.020721   -999.250000
     141.1000     18.613403    196.767456      1.897537      0.019320   -999.250000
     141.2000     18.798550    196.877472      1.889811      0.018153   -999.250000
     141.3000     18.661983    197.028625      1.885424      0.017123   -999.250000
     141.4000     18.204887    197.156647      1.881843      0.014891   -999.250000
     141.5000     17.556561    197.195831      1.881023      0.012648   -999.250000
     141.6000     16.876095    197.120178      1.883485      0.011276   -999.250000
     141.7000     16.397877    196.989105      1.886618      0.010716   -999.250000
     141.8000     16.236942    196.922302      1.888725      0.010614   -999.250000
     141.9000     16.210480    196.968140      1.888486      0.010516   -999.250000
     142.0000     16.022945    197.061340      1.885924      0.010316   -999.250000
     142.1000     15.805285    197.099121      1.883948      0.011123   -999.250000
     142.2000     15.771397    197.075958      1.885503      0.013831   -999.250000
     142.3000     15.991499    197.060516      1.890720      0.017502   -999.250000
     142.4000     16.569302    197.031525      1.896613      0.019178   -999.250000
     142.5000     17.419991    196.962250      1.901887      0.018610   -999.250000
     142.6000     18.205482    196.883667      1.907883      0.018726   -999.250000
     142.7000     18.608383    196.828766      1.915089      0.020202   -999.250000
     142.8000     18.560936    196.775482      1.921381      0.020617   -999.250000
     142.9000     18.284805    196.667542      1.924876      0.017953   -999.250000
     143.0000     17.862003    196.470856      1.929015      0.014922   -999.250000
     143.1000     17.327206    196.268066      1.935536      0.014778   -999.250000
     143.2000     16.810158    196.197937      1.940992      0.017206   -999.250000
     143.3000     16.345890    196.234680      1.943236      0.020046   -999.250000
     143.4000     16.091721    196.346741      1.941114      0.021037   -999.250000
     143.5000     16.297852    196.603058      1.933763      0.019296   -999.250000
     143.6000     16.446491    196.934296      1.926345      0.018103   -999.250000
     143.7000     16.311573    197.217773      1.923563      0.019825   -999.250000
     143.8000     16.685463    197.446991      1.922998      0.021961   -999.250000
     143.9000     17.528858    197.546204      1.922361      0.023160   -999.250000
     144.0000     18.474846    197.470825      1.921442      0.023968   -999.250000
     144.1000     19.932304    197.366638      1.920762      0.024778   -999.250000
