# LAS format data
~Version Information
VERS.     2.00: CWLS LOG ASCII STANDARD - VERSION 2.0
WRAP.       NO: ONE LINE PER DEPTH STEP
~Well Information
#MNEM   .UNITS    DATA                           DESCRIPTION
#----   ------    ----                           -----------
STRT    .M        96.2000                       :First Index Value
STOP    .M        4895.7008                     :Last Index Value
STEP    .M        0.0000                        :Frame Spacing
NULL    .         -999.2500                     :Absent Value
WELL    .         L05-06                        :Well Name   
FLD     .         FINDER_composites_22-02-2005  :Field Name  
CNTY    .                                       :County
STAT    .                                       :State
CTRY    .                                       :Country
LOC     .                                       :Location
API     .                                       :API Number
DATE    .                                       :Date
COMP    .         AMC                           :Company Name
SRVC    .                                       :Service Company
~Parameter Information
#MNEM   .UNITS    VALUE                          DESCRIPTION
#----   ------    -----                          -----------
TDD     .M        4888.00000                    :Total Depth (Driller)   
UBID    .         8073                          :Unique Borehole Id  
PDAT    .         Mean Sea Level                :Permanent Datum 
EPD     .M           0.00000                    :Elevation of Permanent Datum (PDAT) above Mean Sea Level
LMF     .                                       :Logging Measured From (Name of Logging Elevation Reference) 
APD     .M          35.05000                    :Elevation of Depth Reference (LMF) Above Permanent Datum
~Other Information
composite_curve_qc 
~Curve Information
#MNEM   .UNITS    API CODE                       CURVE DESCRIPTION
#----   ------    --------                       -----------------
DEPT    .M                                      :1     Index curve
GR      .GAPI                                   :2     L05-06
DT      .US/F                                   :3     L05-06
RHOB    .G/C3                                   :4     L05-06
DRHO    .G/C3                                   :5     L05-06
NPHI    .V/V                                    :6     L05-06
~Ascii Log Data
# ...
     509.0000     52.979019    199.633026      1.907639      0.015209   -999.250000
     509.1000     53.013496    199.879059      1.917062      0.015493   -999.250000
     509.2000     51.986496    200.164917      1.922374      0.014613   -999.250000
     509.3000     51.353378    200.293152      1.917200      0.013141   -999.250000
     509.4000     51.420586    200.419128      1.907419      0.011988   -999.250000
     509.5000     52.153336    200.483612      1.894943      0.011736   -999.250000
     509.6000     53.205826    200.353333      1.881636      0.012314   -999.250000
     509.7000     54.392845    200.266846      1.871116      0.012025   -999.250000
     509.8000     54.736954    200.300629      1.865324      0.011346   -999.250000
     509.9000     53.281624    200.332916      1.864013      0.012512   -999.250000
     510.0000     52.030113    200.271301      1.866644      0.015132   -999.250000
     510.1000     51.899986    200.136993      1.869744      0.016766   -999.250000
     510.2000     52.079170    200.045929      1.868299      0.014804   -999.250000
     510.3000     52.075005    200.009094      1.866211      0.011582   -999.250000
     510.4000     51.633163    200.019592      1.865021      0.009187   -999.250000
     510.5000     50.690140    200.071960      1.861869      0.007784   -999.250000
     510.6000     49.336494    200.155823      1.857040      0.006989   -999.250000
     510.7000     48.493828    200.183533      1.851810      0.006903   -999.250000
     510.8000     49.333359    200.067200      1.847386      0.007773   -999.250000
     510.9000     51.494896    199.940186      1.845617      0.009222   -999.250000
     511.0000     54.110344    199.933228      1.848094      0.010607   -999.250000
     511.1000     56.363426    200.010803      1.853851      0.011534   -999.250000
     511.2000     57.038834    200.081482      1.859618      0.012521   -999.250000
     511.3000     55.886635    200.117920      1.863349      0.013702   -999.250000
     511.4000     54.213501    200.171448      1.865649      0.014305   -999.250000
     511.5000     52.581673    200.308350      1.865349      0.013266   -999.250000
     511.6000     51.579369    200.521301      1.863547      0.010816   -999.250000
     511.7000     52.100990    200.724823      1.864698      0.008607   -999.250000
     511.8000     53.565582    200.780396      1.866930      0.007727   -999.250000
     511.9000     54.944427    200.630798      1.866970      0.008109   -999.250000
     512.0000     56.168030    200.373627      1.866426      0.008966   -999.250000
     512.1000     56.741684    200.255463      1.866985      0.009954   -999.250000
     512.2000     56.250710    200.385406      1.869573      0.010895   -999.250000
     512.3000     55.308739    200.568817      1.875206      0.011384   -999.250000
     512.4000     54.260635    200.650208      1.881275      0.011855   -999.250000
     512.5000     53.202232    200.636139      1.883159      0.012560   -999.250000
     512.6000     52.433167    200.612793      1.878820      0.012496   -999.250000
     512.7000     51.791046    200.662964      1.871222      0.011142   -999.250000
     512.8000     51.053040    200.778534      1.864468      0.008879   -999.250000
     512.9000     50.685265    200.839722      1.857741      0.006062   -999.250000
     513.0000     50.525017    200.858185      1.852628      0.004113   -999.250000
     513.1000     49.980293    200.931885      1.851357      0.004046   -999.250000
     513.2000     49.351570    201.018524      1.850128      0.004075   -999.250000
     513.3000     48.684532    201.006348      1.849085      0.003843   -999.250000
     513.4000     47.804749    200.845978      1.852164      0.004622   -999.250000
     513.5000     47.563805    200.667847      1.857289      0.005717   -999.250000
     513.6000     48.906860    200.679962      1.861425      0.006084   -999.250000
     513.7000     51.705704    200.995911      1.863205      0.005443   -999.250000
     513.8000     54.406296    201.375183      1.862649      0.004221   -999.250000
     513.9000     56.051498    201.579193      1.860919      0.002979   -999.250000
     514.0000     57.006256    201.582672      1.860511      0.002235   -999.250000
     514.1000     56.797157    201.544189      1.861269      0.001807   -999.250000
     514.2000     55.340919    201.558319      1.862896      0.001507   -999.250000
     514.3000     54.618950    201.515167      1.865554      0.001357   -999.250000
     514.4000     54.555519    201.344574      1.867787      0.000956   -999.250000
     514.5000     54.378120    201.079590      1.868686     -0.000059   -999.250000
     514.6000     53.667908    201.003418      1.870869     -0.001022   -999.250000
     514.7000     53.112289    200.958893      1.874835     -0.001686   -999.250000
     514.8000     53.254906    200.650513      1.880929     -0.002210   -999.250000
     514.9000     52.265915    200.239319      1.888451     -0.003543   -999.250000
     515.0000     51.092140    199.996857      1.896981     -0.005157   -999.250000
     515.1000     51.782143    200.334320      1.905198     -0.005350   -999.250000
     515.2000     51.341393    200.668427      1.911740     -0.003947   -999.250000
     515.3000     50.237526    200.876190      1.915385     -0.001902   -999.250000
     515.4000     50.812767    200.864746      1.912646     -0.001744   -999.250000
     515.5000     50.172653    200.727417      1.907101     -0.001473   -999.250000
     515.6000     48.751373    200.540558      1.899428     -0.000210   -999.250000
     515.7000     49.720413    200.551819      1.892060      0.003337   -999.250000
     515.8000     50.106033    200.513153      1.885299      0.005615   -999.250000
     515.9000     49.690109    200.375763      1.880229      0.005904   -999.250000
     516.0000     50.186325    200.200439      1.882179      0.004995   -999.250000
     516.1000     49.566200    200.065521      1.890644      0.005030   -999.250000
     516.2000     47.521835    199.995880      1.904395      0.006854   -999.250000
     516.3000     47.119652    199.912048      1.906862      0.009893   -999.250000
     516.4000     47.100250    199.733704      1.900480      0.010208   -999.250000
     516.5000     47.384956    199.442383      1.884230      0.006079   -999.250000
     516.6000     49.064751    199.331512      1.873734      0.005140   -999.250000
     516.7000     50.582199    199.245697      1.872244      0.005341   -999.250000
     516.8000     51.059181    199.160828      1.884630      0.006378   -999.250000
     516.9000     51.272461    199.321350      1.888170      0.008019   -999.250000
     517.0000     51.133530    199.448029      1.885716      0.008817   -999.250000
     517.1000     50.391907    199.339905      1.875592      0.007396   -999.250000
     517.2000     49.679474    199.343567      1.862306      0.006852   -999.250000
     517.3000     48.739265    199.324951      1.852304      0.006700   -999.250000
     517.4000     47.053299    199.117340      1.854894      0.006810   -999.250000
     517.5000     44.649223    198.838959      1.860641      0.008116   -999.250000
     517.6000     42.637695    198.601257      1.866035      0.009398   -999.250000
     517.7000     43.182602    198.614990      1.864701      0.008390   -999.250000
     517.8000     44.639915    198.699341      1.858957      0.005333   -999.250000
     517.9000     46.558693    198.795929      1.851987      0.002370   -999.250000
     518.0000     48.225441    198.777679      1.849500      0.004011   -999.250000
     518.1000     48.555290    198.669556      1.847541      0.005212   -999.250000
     518.2000     48.111397    198.604187      1.846220      0.005849   -999.250000
     518.3000     48.109612    198.932465      1.847020      0.005870   -999.250000
     518.4000     47.576889    199.097046      1.852165      0.006420   -999.250000
     518.5000     46.906158    199.145874      1.860623      0.007557   -999.250000
